[{"rating": 4.6, "name": "Rijksmuseum", "reference": "CmRSAAAA-AeBNgxoh80UTOCmQzvPeBObdqWegQGxlVVJJd9TLSwWItiGCX4i9ta_G45bSaMrapBh-EmbUtknfj5YeTycBQe51Gp94m_Yv7rRtWADv8o0tzjzfY5J_TjM66Efgt1wEhCoXejIvR4GMBpNcWekKbGFGhQv3s7OGIGa6l8mUh8VFp7DqcBshQ", "geometry": {"location": {"lat": 52.3599976, "lng": 4.8852188}, "viewport": {"northeast": {"lat": 52.3613499302915, "lng": 4.888522700000001}, "southwest": {"lat": 52.3586519697085, "lng": 4.881925900000001}}}, "opening_hours": {"weekday_text": [], "open_now": true}, "place_id": "ChIJ5Ra7we4JxkcRhYVAaq5zQ9U", "photos": [{"photo_reference": "CmRaAAAAKw96OQ3rT6T5qQ6kfKi321kJaUB3cymZ_4_dyH8UJKcHXorwgY8LNiBxCPtUFCs2LzLsrXGa-Znx0brefxUhXS-f-mVRPFGw_7hA5hJ3Jx9YoyPct3C2AeObYUZDpQ4aEhDksuK9wLNp1gyLIPTDMIZJGhSixJbkLTRPiJnXP_ezOjOl5so9Dw", "width": 1190, "html_attributions": ["<a href=\"https://maps.google.com/maps/contrib/103153626111220558100/photos\">Rijksmuseum</a>"], "height": 1190}], "formatted_address": "Museumstraat 1, 1071 XX Amsterdam, Netherlands", "id": "b7661f774e3e69f17847f81d33db9eb5c25f78a8", "types": ["museum", "point_of_interest", "establishment"], "icon": "https://maps.gstatic.com/mapfiles/place_api/icons/museum-71.png"}, {"rating": 4.6, "name": "Museum Of The Canals", "reference": "CmRSAAAAxO1mRfei_c9jrYrf8mG_OQ44RUQOxsGKd3h9GF2AG6ah0O4us5qZiEANC5Dvrdii6tz_lgx85_PtyE5vBDnILfuKypOkC-CVXCtK-nzEFN1btul46qYbvgMfvQlbKvyREhD8W4PPy8mnzldKTBYy04doGhT2UGCWVN-beOfeouPb4jjkMA5eIA", "geometry": {"location": {"lat": 52.3678867, "lng": 4.8862893}, "viewport": {"northeast": {"lat": 52.3692342302915, "lng": 4.887679580291501}, "southwest": {"lat": 52.3665362697085, "lng": 4.884981619708497}}}, "opening_hours": {"weekday_text": [], "open_now": false}, "place_id": "ChIJW8b8bMIJxkcRtnoNhM4DvOY", "photos": [{"photo_reference": "CmRaAAAAGHFtBZoY03nvlyYrV3CUtkoGyITVZ50i0etW9yyk__BE6YgZfbLWUceA0VbNXSytbqZ61-XAUssceUPR12p3bXEFN6YPOqPf9nZ-tZr_7sbn2ZXVnB4swmGQC_eB174DEhA7RAAFLOD8EyWOzCe0lmEJGhRaKFJYHmL3mhjKVCH-P69-CpBsAg", "width": 2871, "html_attributions": ["<a href=\"https://maps.google.com/maps/contrib/100962861893007513083/photos\">KARSTADT Reiseb\u00fcro Steglitz</a>"], "height": 1774}], "formatted_address": "Herengracht 386, 1016 CJ Amsterdam, Netherlands", "id": "e2521172dd89817b65862c6cab0c9c952cf074a7", "types": ["museum", "point_of_interest", "establishment"], "icon": "https://maps.gstatic.com/mapfiles/place_api/icons/museum-71.png"}, {"rating": 4.5, "name": "Ons' Lieve Heer op Solder", "reference": "CmRRAAAAu_akVlJUCBnEaNq6Iu5SG0JGqlYGd5-bHDHKzdQpB-FqopdYFFTpWsxoTzJ7cmqOleEo-6DH27co73M0lWE4tMh5_UKeAGhqRGzbjWsXV-urmwLGFvgNvY9ZFJaAxwiWEhAYLVQfGj_0KPoFL-qxQ8mzGhSu-nUJmuZxTk5DsiUZtwHAh_I4hg", "geometry": {"location": {"lat": 52.3751334, "lng": 4.8994747}, "viewport": {"northeast": {"lat": 52.37648198029149, "lng": 4.900824730291502}, "southwest": {"lat": 52.37378401970849, "lng": 4.898126769708497}}}, "opening_hours": {"weekday_text": [], "open_now": false}, "place_id": "ChIJU-1ArbkJxkcR_EdFqWrlInA", "photos": [{"photo_reference": "CmRaAAAAHXre-jqWbMqJF3U0i-r_a7dBoXAhaDcg0dn5LApM6KSbAKvEdF-6dczuiOxKN8DUqRdqL35L0VQkBFPGYl0TdGEZHP1ZOYQoIVEZ1qJdg3ynCpNCgM2m5xezPrqjg5DsEhDd-NzK6XjkfAiM5ii11JjiGhRTGjoJ99nCHTCHEdC_pXYkcI56Jg", "width": 1024, "html_attributions": ["<a href=\"https://maps.google.com/maps/contrib/112962735884998056512/photos\">Museum Ons&#39; Lieve Heer op Solder</a>"], "height": 1024}], "formatted_address": "Oudezijds Voorburgwal 38, 1012 GE Amsterdam, Netherlands", "id": "894c8dfe487b21e23cf4b252d0e8b8e6b2c78121", "types": ["museum", "point_of_interest", "establishment"], "icon": "https://maps.gstatic.com/mapfiles/place_api/icons/museum-71.png"}, {"rating": 4.5, "name": "Van Gogh Museum", "reference": "CmRSAAAAnuPF3IJqchHfDvWQVXc0GUpsoU_tjF7itKEURq-EgDULdkrJ88hwbnhJDk2JbZvhMDyHbBm_K1hTRAP-4mcXvTx-mtt3d4D8lHuueUertbsyo_ZVHrddu-qcmt9t-irOEhCsHPKLUTAdTTKMZplUSuWOGhRmMqzvl79drrtrjLahsqIhwTQP9g", "geometry": {"location": {"lat": 52.3584159, "lng": 4.8810756}, "viewport": {"northeast": {"lat": 52.35992093029149, "lng": 4.882050030291502}, "southwest": {"lat": 52.35722296970849, "lng": 4.879352069708498}}}, "opening_hours": {"weekday_text": [], "open_now": true}, "place_id": "ChIJX1rTlu8JxkcRGsV8-a4oKMI", "photos": [{"photo_reference": "CmRaAAAAc_tASlVOrDuArt_QP8VDpy6lsHV3oMBVfte9xF4GXWhn5RRm_BTfpS5ZdY7DzKkRlv58YuhuQAdj_Zg4hj8Ad-OCuDgZU1VuFQHP0mgGu3yFQyubq1J3gqByOWxVgHw4EhDXbnkcA7mA8mnhAkrvisfXGhR1hpkRtsbgvVywwXVVeqoOUO1bnA", "width": 2048, "html_attributions": ["<a href=\"https://maps.google.com/maps/contrib/111678711073015948799/photos\">Tony Melian</a>"], "height": 1536}], "formatted_address": "Museumplein 6, 1071 DJ Amsterdam, Netherlands", "id": "71de3f249fc5053c65aaea37679d892d0edae9ae", "types": ["museum", "point_of_interest", "establishment"], "icon": "https://maps.gstatic.com/mapfiles/place_api/icons/museum-71.png"}, {"rating": 4.4, "name": "Amsterdam Maritime History Museum", "reference": "CmRRAAAAWX4m8WB80OkYraRUsJQW9YmFkJZbuBWwuHcx694oe3gkmayYNK5eQKXOCSQ3kgINUSM8HXzLRZ8YkP96Kp2IjzetTwbQzTlCjm2EkJ0-r7hJUfVt4zwDEBcQVa040hQVEhB_Nw27XRrMKq3tHvXwmQkRGhSZ156eQBSIabvRxc1sNMzxG7fGmg", "geometry": {"location": {"lat": 52.3717084, "lng": 4.914879699999999}, "viewport": {"northeast": {"lat": 52.3728491802915, "lng": 4.916406980291502}, "southwest": {"lat": 52.3701512197085, "lng": 4.913709019708497}}}, "opening_hours": {"weekday_text": [], "open_now": true}, "place_id": "ChIJX-2rTqEJxkcRhjlIZp4bqFk", "photos": [{"photo_reference": "CmRaAAAAYbBi9H-_BBLwJ24rQuFa1kPw7bvKoKqNBKKdw0bzVCrYaR4so7t9MqciV3qsHtL0yj7maSAZ1PVHPSB49_twcZ8lZMVKeJT22PSQTaxM3COTy3G1oAC5h2Ljm33XxHVeEhAroRKMTA7ZdEdWOybnmooGGhRkfBEMBUk59CaLwuotMJ3Dbi_RLA", "width": 1200, "html_attributions": ["<a href=\"https://maps.google.com/maps/contrib/113940017446728579280/photos\">S. Kr\u00fcger</a>"], "height": 800}], "formatted_address": "Kattenburgerplein 1, 1018 KK Amsterdam, Netherlands", "id": "eee79dbf9a589ad09fc3d4d55b55d47dd0f72e1b", "types": ["museum", "point_of_interest", "establishment"], "icon": "https://maps.gstatic.com/mapfiles/place_api/icons/museum-71.png"}, {"rating": 4.4, "name": "Anne Frank House", "reference": "CmRSAAAAYNFSW8ecRmPfQRkQbZjm0vKBDE7hjqN3iPODPV1diblzXYVcdznriVb2v9K6pBURPADOs0BhfKXfnXrB3wvoHa6yU6-0twy1rc7NpXEDW02dGh1ZWjNculdktxKZELUzEhDbvMmJvDoloW5MmgdACyB5GhQRVPJAH_wx5lYVYYKFE_1YadJH-w", "geometry": {"location": {"lat": 52.3752182, "lng": 4.8839765}, "viewport": {"northeast": {"lat": 52.3765854802915, "lng": 4.885276880291503}, "southwest": {"lat": 52.3738875197085, "lng": 4.882578919708498}}}, "opening_hours": {"weekday_text": [], "open_now": true}, "place_id": "ChIJSRE-IcUJxkcRCltjPmVdmtQ", "photos": [{"photo_reference": "CmRaAAAAg46_ozaMTkElNpkkzjWDevy3vLeZv78ZodgthUppE0FIeZWdplJe9oTncUuOAcYyo_tIQ8TGFoHOQjyo8SWbE3w8pNO1PN7UjV2vf3uX-egA9skvTsa-iG31hkV1J1vsEhB4vEFOMAtTYLTS7CcfdssXGhTEKokGyIk9zdlhBeuP0uJoivc1hw", "width": 1321, "html_attributions": ["<a href=\"https://maps.google.com/maps/contrib/112067075639182123981/photos\">Anne Frank Huis</a>"], "height": 1322}], "formatted_address": "Prinsengracht 263-267, 1016 GV Amsterdam, Netherlands", "id": "201f52f13b97c99e4a80b5c6761efb2f1752c2e5", "types": ["museum", "point_of_interest", "establishment"], "icon": "https://maps.gstatic.com/mapfiles/place_api/icons/museum-71.png"}, {"rating": 4.4, "name": "NEMO Science Museum", "reference": "CmRSAAAAQjfV7Fi8kTAaQnw5opWNyH8rB2wqpllDuHJQbxwqJwp9TgDOM8NVoKu6NCjGA_0RllJvL-6x67AAeYougLpNZ2yMKhew-GSLvn9ia7HoBriLFSYVjiu9cwG_3mVvWmZUEhDkVw60Yuah8_dfcWqfrOjoGhQ-PT8KCqeb5gcoWiq7CjSEs2GdKA", "geometry": {"location": {"lat": 52.3742111, "lng": 4.9123385}, "viewport": {"northeast": {"lat": 52.3757518302915, "lng": 4.913777980291503}, "southwest": {"lat": 52.3730538697085, "lng": 4.911080019708498}}}, "opening_hours": {"weekday_text": [], "open_now": false}, "place_id": "ChIJm7tV_qQJxkcRvM4CYqK9SMc", "photos": [{"photo_reference": "CmRaAAAAS-aVt8v8p_8VUQo0E9iDDp8LKBjj3hsIosK63BCrDOpAFqW-V3_V7-ZJxafIqk4sd1qlvGMkff10W7tyWp4hGyT-LbYUFEy3MXYs3wSXDzyMnj7DbOCmOXsh9clDgH0JEhAWBGfkyPP_a1s8xpSKUsRpGhSJB_JGwWC2Yw2S9-oWN8ZcMUrPVg", "width": 2688, "html_attributions": ["<a href=\"https://maps.google.com/maps/contrib/116461417889969843016/photos\">Tim Wiegmann</a>"], "height": 1520}], "formatted_address": "Oosterdok 2, 1011 VX Amsterdam, Netherlands", "id": "6a3803890168e1a1ea1b3b3e5f06630baf745108", "types": ["museum", "point_of_interest", "establishment"], "icon": "https://maps.gstatic.com/mapfiles/place_api/icons/museum-71.png"}, {"rating": 4.3, "name": "Amsterdam Museum", "reference": "CmRRAAAA7AFzno6zMyIQbl_UZwvF_qcs0VMeOqHUds-X6tTNwNhXcO4JLDEZ7KHF28h-lr8Xjq-8s98TjRsBO-Ztf6OY1qZQDW27RuQh3fNwTyVpwcXyGCG6V1G1iX2jzbG1KBkREhCh0BIp4b1n03f1i_oglIomGhT8dI9qCNox9sJgbDkHO4a-HClklQ", "geometry": {"location": {"lat": 52.36998740000001, "lng": 4.8899741}, "viewport": {"northeast": {"lat": 52.3712218302915, "lng": 4.891957630291502}, "southwest": {"lat": 52.3685238697085, "lng": 4.889259669708498}}}, "opening_hours": {"weekday_text": [], "open_now": false}, "place_id": "ChIJT9i3G8EJxkcR8mvIlXqnQXc", "photos": [{"photo_reference": "CmRaAAAAt0LIUL0vg1kuWv5tfk0L3wYDiTmgx3qBYzGxcKqhdIBu4XBgUh4VSxtP0AMcP2OTgOv0bWgCcwC1q3mIVdMff0e-7oEaepWnH3epAQMBD7rUCimuUCuiGvq8WqZCX2J6EhDcp76L_fl8wiNSFS201oDwGhSpwCp-AZxTot-hzlGexEHfdTeSUw", "width": 1000, "html_attributions": ["<a href=\"https://maps.google.com/maps/contrib/118267905614033142062/photos\">Amsterdam Museum</a>"], "height": 667}], "formatted_address": "Kalverstraat 92, 1012 PH Amsterdam, Netherlands", "id": "720001dca9693fab10d7bf0e60a1b84e01515834", "types": ["museum", "point_of_interest", "establishment"], "icon": "https://maps.gstatic.com/mapfiles/place_api/icons/museum-71.png"}, {"rating": 4.3, "name": "Rembrandt House Museum", "reference": "CmRRAAAAcJIEEkhsdYyozImsa4jr5G99kaHOKTP247Lr8P8t7Myh8Qzi5XKrnfClfPn-cNSbbYq5EIUt5B6NWp-SvHpbxo0ATkCMMvXudppd9HBD9dl-HNe4om0QO3rBuBjybS7OEhB1Kht4qlUhrbdrSb740HaOGhQvP9YP31xkYzTek3wlsZS-swBRdQ", "geometry": {"location": {"lat": 52.369369, "lng": 4.901234999999999}, "viewport": {"northeast": {"lat": 52.3707755802915, "lng": 4.902650830291503}, "southwest": {"lat": 52.3680776197085, "lng": 4.899952869708498}}}, "opening_hours": {"weekday_text": [], "open_now": false}, "place_id": "ChIJ3063hr4JxkcReck8pUAfYXc", "photos": [{"photo_reference": "CmRaAAAAm8S-YSOtJCslUt9HOUyf-1fR14ScibTuXpQGZwuNJWqjutqmdYqgrXo7ZhhQX7LQetstW64utEWc9DbyQvHNle_3nJDNmVEXc6__G6eSSdv5ZpCIEBKa37i3FRlRIufKEhCJwJ3Sa3kxb0aYPskItbFPGhQyWPfXUYZ6yaqFW-VPvxnEYc7EMw", "width": 896, "html_attributions": ["<a href=\"https://maps.google.com/maps/contrib/107816789514025815529/photos\">Museum Het Rembrandthuis</a>"], "height": 896}], "formatted_address": "Jodenbreestraat 4, 1011 NK Amsterdam, Netherlands", "id": "9ac4f6730862237b5c67b0203d868b12cc4460a4", "types": ["museum", "art_gallery", "point_of_interest", "establishment"], "icon": "https://maps.gstatic.com/mapfiles/place_api/icons/museum-71.png"}, {"rating": 4.3, "name": "Amsterdam Cheese Museum", "reference": "CmRSAAAAo3_7eLw7P_Xh2CV6TY8lT0W-PjMYo39HaOG3a2S1fkhJUIKdAPMtzqn9CjvYueKaqDzDXAzUXGdPfmJrCxvTgfGJAETrCmFRXIEsgrPYIS2S8YBDlq44_ZGvKEDBFYC4EhDs4nRLYqhCSvcyD8P802nIGhRLOUQjwfsqa_1uGyAW-zfXK9s2wQ", "geometry": {"location": {"lat": 52.376389, "lng": 4.884251}, "viewport": {"northeast": {"lat": 52.37772513029149, "lng": 4.885637930291503}, "southwest": {"lat": 52.3750271697085, "lng": 4.882939969708498}}}, "opening_hours": {"weekday_text": [], "open_now": true}, "place_id": "ChIJd3pHP8UJxkcR-GFIxnNW59Y", "photos": [{"photo_reference": "CmRaAAAAL_bwEkyEq_VDuWk7wAacRJ2Lu6ArxcoDMrtB1KWdDk_HrtTC49NYx63VcOdA7PbJQNhDZX0nPXAI1_1L246tI8_nqBVOGqWzVVF4gVogEp588Tfzx79RrB0P2Qj2T_sOEhATVCkDU71TpcwF_Ob8RNv0GhTZY1Q0NXQnky7iUL4-dNoXUCQezA", "width": 5312, "html_attributions": ["<a href=\"https://maps.google.com/maps/contrib/118130425963215050082/photos\">Matthew Norman</a>"], "height": 2988}], "formatted_address": "Prinsengracht 112, 1015 EA Amsterdam, Netherlands", "id": "9e82fb0d57e392f99f639c196b2f641b11d82abb", "types": ["museum", "point_of_interest", "establishment"], "icon": "https://maps.gstatic.com/mapfiles/place_api/icons/museum-71.png"}, {"rating": 4.2, "name": "Moco Museum - Banksy Amsterdam", "reference": "CmRSAAAAkq08OdmNioP7TXnhdHMTcG0ezjIpRBT3NvvtrRBQNd4456ikDkDvCkmetSJfl2q2eJPAaZ4x-LpHYykALkV-UoClRUyFaUu4S9OF3d1NGOT8xvXDjd9YxSO9Q8r89lteEhCP5FV3w-NDAoNGCp0JMUu4GhTJj8Eu6zWucsOXostIxbz3VC662g", "geometry": {"location": {"lat": 52.3587098, "lng": 4.881901900000001}, "viewport": {"northeast": {"lat": 52.35979923029149, "lng": 4.884296949999998}, "southwest": {"lat": 52.35710126970849, "lng": 4.881103550000002}}}, "opening_hours": {"weekday_text": [], "open_now": false}, "place_id": "ChIJRTx_o-8JxkcRKLAaBcWCq5w", "photos": [{"photo_reference": "CmRaAAAAqvv0hrbzXFLJI7hsffoOhLaEa90qOPeDY091EFGPtbhh1Aw0dtP95J0HCQciKpDsDDph85udlv06bZZ7aIYBdYSI4GDAElXi7FYeXqKm6ImcY8wLt4pbCX-HqhY-SFpMEhBcdvzfnS656FxtiFLjIVTJGhSFhj-FFpxwzfGHDRMRsxB_oJWjcQ", "width": 2733, "html_attributions": ["<a href=\"https://maps.google.com/maps/contrib/100688815900070059615/photos\">Moco Museum - Banksy Amsterdam</a>"], "height": 2733}], "formatted_address": "Honthorststraat 20, 1071 Amsterdam, Netherlands", "id": "cb0735f8c9e61843ab487a9a8c4f6ce03830918a", "types": ["museum", "point_of_interest", "establishment"], "icon": "https://maps.gstatic.com/mapfiles/place_api/icons/museum-71.png"}, {"rating": 4.2, "name": "Museum Van Loon", "reference": "CmRSAAAA9Gpux3Rw3tRpM3SsMP08b0syGZ4ZtVjU4rqxuGdrDGPBFCdtpPTerFYfj-gZdm8VWKfeB0bm3DkFh-V5tZGAlZatUJ6XijMMn0GQdoiknxy32Qf-bcTsuC0QhulpBc57EhCqKgdmkoOiEpnZTpmO3UBzGhSHidf5EXVSEe00__zOplb82E6j9g", "geometry": {"location": {"lat": 52.3634433, "lng": 4.8933806}, "viewport": {"northeast": {"lat": 52.36481988029149, "lng": 4.894724080291502}, "southwest": {"lat": 52.36212191970849, "lng": 4.892026119708497}}}, "opening_hours": {"weekday_text": [], "open_now": false}, "place_id": "ChIJ7yVILusJxkcRM5jQ3EGcTKM", "photos": [{"photo_reference": "CmRaAAAA2w81MCT01dDuk07eR-GPRq5O0vo4gzy6e41jx_FgybNl9yDjbC5scmFqQvMk7m9wCccK_8wZcSqg3szxm1Iim_WhudUNn4idGh-fou-64dMe_XsEyZ8OkB8pvh-uA7uhEhAv9ZlCTE2f7TjGY31uxt08GhSlHdhWUxTjIT_NSsH-pSpd08rlrg", "width": 1215, "html_attributions": ["<a href=\"https://maps.google.com/maps/contrib/113339762462586770681/photos\">Museum Van Loon</a>"], "height": 1214}], "formatted_address": "Keizersgracht 672, 1017 ET Amsterdam, Netherlands", "id": "2a5d53d6fb656f407b13e975e809949cfc57b86b", "types": ["museum", "point_of_interest", "establishment"], "icon": "https://maps.gstatic.com/mapfiles/place_api/icons/museum-71.png"}, {"rating": 4.2, "name": "Jewish Historical Museum", "reference": "CmRRAAAAdsCrhxcrEu4hNRcGq3Gr2ZFTdzq5V4Xu6ZJqV9KmTxZGaAW8GmiSDXEJtvwEouCg3j5CpYqe5f2vx6jD5ylNL1bRQMtyI4GQsfdJcDd2OvdXM0NA7QzWwJHw7xbUvELQEhCBX7KpL8oApsRQ9SmvOEsZGhQAqg6B9dph7l3pRjx2doP1d5-U3Q", "geometry": {"location": {"lat": 52.3671182, "lng": 4.903815499999999}, "viewport": {"northeast": {"lat": 52.3685810302915, "lng": 4.905262180291502}, "southwest": {"lat": 52.3658830697085, "lng": 4.902564219708498}}}, "opening_hours": {"weekday_text": [], "open_now": false}, "place_id": "ChIJo_CNmb0JxkcRfXyY9FDKtC4", "photos": [{"photo_reference": "CmRaAAAAoLK1R31BUGfj3gOLVQEtCM9hYoMfGew6Ck0EFEyACSCaq5iGr863wjwRRYeMx-jm9u6CF-P1VqlxtfhfAeg6iL_5VUN5kXgNssWeb8O6Wo6crJ62cFVw0uHyWiWXi9ndEhDuv-Dq4Pat4pD957y1f5_HGhRk7--ZlLAq8qsGQITnA2eE7572ew", "width": 2048, "html_attributions": ["<a href=\"https://maps.google.com/maps/contrib/111707524645052512896/photos\">Joods Historisch Museum</a>"], "height": 1365}], "formatted_address": "Nieuwe Amstelstraat 1, 1011 PL Amsterdam, Netherlands", "id": "7dbc52b186f8bf393eedcbd1bae7a9b1974286fe", "types": ["museum", "synagogue", "place_of_worship", "point_of_interest", "establishment"], "icon": "https://maps.gstatic.com/mapfiles/place_api/icons/museum-71.png"}, {"rating": 4.1, "name": "Museum of Prostitution - Red Light Secrets", "reference": "CmRRAAAADOxX01rcNFnjODhv5fvASnwscnk4OGWrN5tCzZbFihYIyNXqkj1RTbeWNGn0fradtr9-ZYnaUEWCe7U5jvubBFY9i6Llu14y-36rJqCJaGtLH-IHY7oo350FZyB3QVBfEhDVFac2LRroDucP8p-XeAGmGhRRtlessbM2jkv-GbRDKbbB1eRcHw", "geometry": {"location": {"lat": 52.3736815, "lng": 4.899020600000001}, "viewport": {"northeast": {"lat": 52.3750110302915, "lng": 4.900395630291502}, "southwest": {"lat": 52.3723130697085, "lng": 4.897697669708498}}}, "opening_hours": {"weekday_text": [], "open_now": false}, "place_id": "ChIJU-SBHbkJxkcRSSxkfBFf3hw", "photos": [{"photo_reference": "CmRaAAAAGf7-6b_4akLqY58eyYciLGSIuL-znlHJnO7sWDDDr0sCK_7pDnTsfd6obNr0GyGhwKNs_7CgZYA1ZuAikzYHUmayb8mjRr87jHX1JT1l2VgBUMqXnPrkHKi_n6HZW9l6EhDkgI0ZIOMVknLL0kzuy30HGhSb-Y1sB6m-H1wpz3Ue1NQAfN1v8Q", "width": 5312, "html_attributions": ["<a href=\"https://maps.google.com/maps/contrib/110762675295546544463/photos\">T\u00f4n L\u00ea</a>"], "height": 2988}], "formatted_address": "Oudezijds Achterburgwal 60H, 1012 DS Amsterdam, Netherlands", "id": "a7bdcd13750514b3ecdbf61eff8d7e46398850a5", "types": ["museum", "point_of_interest", "establishment"], "icon": "https://maps.gstatic.com/mapfiles/place_api/icons/museum-71.png"}, {"rating": 4.1, "name": "Museum of Bags and Purses", "reference": "CmRRAAAATEQ1myF9OQBA-0_SmvFeqIHNS7urWC4zccTeTCcfF5JEAwSyMJCu62xlBt1FxrOY9D9WTjw4MLlyQEtryuYDGwWvsMRIvdv-g3Ug-rFCcoZ8_taXu7ZmWzcKDVps9pMOEhD1sgmNmVtuDtoDFm3H9wNNGhT3FxlgqGQZBwm15NN_0hGOrO4TGQ", "geometry": {"location": {"lat": 52.36527, "lng": 4.896824000000001}, "viewport": {"northeast": {"lat": 52.3665475302915, "lng": 4.898267880291502}, "southwest": {"lat": 52.3638495697085, "lng": 4.895569919708497}}}, "opening_hours": {"weekday_text": [], "open_now": false}, "place_id": "ChIJuQtwDZUJxkcRMrRRjcba2jo", "photos": [{"photo_reference": "CmRaAAAA_XCLV5oK2lTuxyb-P_y9RIZWdOju0Mg1u53jMMAbmoL3hZpdhtGImTUZBB4jpzpgsKzQFW5xAGirjBkyXMlIgvjMFDyI7xgne7r0JCtBiEvdqMxZyP-u3OS8X_KxjpcSEhBdIpMxhitHiGY_D_qf7giAGhRk_dICspn3as8EnDl_EJRq6ZLPOA", "width": 7506, "html_attributions": ["<a href=\"https://maps.google.com/maps/contrib/101514867157149082845/photos\">Reony Tonneyck</a>"], "height": 5528}], "formatted_address": "Herengracht 573, 1017 CD Amsterdam, Netherlands", "id": "42c899b6dff24322d405236e0c415ef97f4ce6c9", "types": ["museum", "restaurant", "food", "point_of_interest", "establishment"], "icon": "https://maps.gstatic.com/mapfiles/place_api/icons/museum-71.png"}, {"rating": 4, "name": "Allard Pierson Museum", "reference": "CmRSAAAAJc7UqNsZ3BMtQ4eVkY_4JmUWddhcMSa3wuqDaYfRpkOoM8VFv2L9FbC_Dq_fhgZOZeIQvokRvxbY7ydq4dh376rDeuxjjTLli0nkhCLdqZAvY2tf4n4e5SKbK2qHDG4gEhCsrfG6jvXKLC-A5lPeWLE0GhQdF-I8Z5vKaItsHgKbCp4JMK-JxQ", "geometry": {"location": {"lat": 52.368732, "lng": 4.8930311}, "viewport": {"northeast": {"lat": 52.3700587302915, "lng": 4.894295180291503}, "southwest": {"lat": 52.3673607697085, "lng": 4.891597219708498}}}, "opening_hours": {"weekday_text": [], "open_now": false}, "place_id": "ChIJO7i3XMAJxkcRL36dP9jWCu8", "photos": [{"photo_reference": "CmRaAAAAO2k10y1wvjMeO6akkQmbE_sVLs7XP4azsj_q0XvHHaMJAfg-XvZscwNhVttDkPSW9dM4s2GGSaoPglr7omvtOeVTzmWcXjJNFtNQvSMayWfR_S52ynWex9rtEFwcGFdOEhDG0r-1xjUCjZ3KcGRXPCroGhQ-kwpTeWBBwsPSI_RJEsdBvjmr4g", "width": 1081, "html_attributions": ["<a href=\"https://maps.google.com/maps/contrib/114754677894359963526/photos\">Allard Pierson Museum</a>"], "height": 1082}], "formatted_address": "Oude Turfmarkt 127, 1012 GC Amsterdam, Netherlands", "id": "5191f26679cebb5056913ca2bf03c25ebcea4b93", "types": ["museum", "point_of_interest", "establishment"], "icon": "https://maps.gstatic.com/mapfiles/place_api/icons/museum-71.png"}, {"rating": 4, "name": "Hash Marihuana & Hemp Museum Amsterdam", "reference": "CmRSAAAA0JVkMeqe8vhCo5dZBF7PLjvpJBT-M98WfNj8_g2ATwDt85KAvq3qR5_b3iw4kNISU9844tVwmN41XIHAkRIfZ8tkSDCBiB_54H5fpS0RW0lSW9pbmXu43UcKrMKq_7WPEhAK0DZOJMM0Q09PTrs6H1PYGhTTZcUCa8QpZUxvrhtmaGOHSPw6mA", "geometry": {"location": {"lat": 52.37178049999999, "lng": 4.896919699999999}, "viewport": {"northeast": {"lat": 52.37311003029149, "lng": 4.898317280291502}, "southwest": {"lat": 52.3704120697085, "lng": 4.895619319708497}}}, "opening_hours": {"weekday_text": [], "open_now": false}, "place_id": "ChIJA969Sr8JxkcRTaO3CDO1V5s", "photos": [{"photo_reference": "CmRZAAAA2b2R5cRZzMd_eIGajOmE_VEQjJCd8a37xuS-HgLFAKx4TczE7T7pXDeixb1CBZqNPT3UvRJU7jv372PSmSPlSj0MgqL6ZHmWhmitRGnc4swlx9H63vmPOXK8OI4qx10GEhAkmc5FYfPO2L58EG547aIpGhR-6aCZDyLvEm13rjUdf3nRtG2T9w", "width": 4032, "html_attributions": ["<a href=\"https://maps.google.com/maps/contrib/112653606375511073746/photos\">Timea T\u00e1trai</a>"], "height": 3024}], "formatted_address": "Oudezijds Achterburgwal 148, 1012 DV Amsterdam, Netherlands", "id": "5986b6650351a4e9b002d8565ca81b30a5e2b3de", "types": ["museum", "point_of_interest", "establishment"], "icon": "https://maps.gstatic.com/mapfiles/place_api/icons/museum-71.png"}, {"rating": 3.8, "name": "Houseboat Museum", "reference": "CmRRAAAAqmTPGw3gnGTAysNYf9JiBPMfd6G_b6jneaXz8RBi6hRJzD1TREJ_XwiAPmzmJiqlleOdw62Abi5Zat32__EVqk9OgbDDdDXbKnDAB68yww0715HLP54_48A2o1EEb3GkEhBxV7jSoLxN5lLOyRDs0r4xGhQPAVKq0_WBUPTYJFsOGQ4AuQIG3w", "geometry": {"location": {"lat": 52.3701394, "lng": 4.8825997}, "viewport": {"northeast": {"lat": 52.3714911302915, "lng": 4.883865030291503}, "southwest": {"lat": 52.3687931697085, "lng": 4.881167069708498}}}, "opening_hours": {"weekday_text": [], "open_now": false}, "place_id": "ChIJ1SWGspQJxkcRiv7l-usVSBU", "photos": [{"photo_reference": "CmRaAAAAu3dSsvSE63vxMov5pXmpTiNUxCu_1URuyWRou5Nqu-w73TcgDbuqkya2yuLNR2FKopZ3dC5n3jQvvsD-XHKVnDONxsKLgPv6NvynpSGO-mcbG87M1oJH0HcnoyZsMSRNEhBbZReLQIThce4434D9B4M4GhRq-MyBD9xwAEGS9z8khzkg38rNUA", "width": 5328, "html_attributions": ["<a href=\"https://maps.google.com/maps/contrib/117956568478316667707/photos\">Jakub M\u00e1lek</a>"], "height": 3000}], "formatted_address": "Prinsengracht 296K, 1016 HW Amsterdam, Netherlands", "id": "5218a7912757c209531ba5a330ab241292b77ba4", "types": ["museum", "point_of_interest", "establishment"], "icon": "https://maps.gstatic.com/mapfiles/place_api/icons/museum-71.png"}, {"rating": 2.5, "name": "Torture Museum", "reference": "CmRRAAAAgj5XbYk28c2nWYBFJNkUBCDZO255Cgp8Em1ceTOQRrvW3A0R6nqoC-hGIL86BTrFtLIsHsApOFDiA53ZXB0r6zZuFLfBYMaxZqZJY-_JBTV1dk5vazw9Z5fkR9PTjkYXEhBQQryq7xWp78ePPSi3nNPNGhTKA5CMhq8Y3tZkl958wm1UU33mSw", "geometry": {"location": {"lat": 52.3673549, "lng": 4.8906332}, "viewport": {"northeast": {"lat": 52.3686255802915, "lng": 4.892012580291501}, "southwest": {"lat": 52.3659276197085, "lng": 4.889314619708497}}}, "opening_hours": {"weekday_text": [], "open_now": false}, "place_id": "ChIJFxkh0cEJxkcR7p1_-2eUYS8", "photos": [{"photo_reference": "CmRaAAAAuoHevcb_188DYlfJItbmEOBw0Eth4TGYbLLtmtIUBlNUyWjUdRB0dxHpQmQbBrJJfNbGo1bE80RNJOxw7FbAxLPsr8b6hOikImU4LN3ZF5NDTSdc06XXZNmd8fFbJO4LEhByi9MBwMNv-U6TB04TuCmNGhTawR2-NvfFtx_lgE14AWr_-JFNiw", "width": 1920, "html_attributions": ["<a href=\"https://maps.google.com/maps/contrib/112618195665112705845/photos\">Jesus Marin</a>"], "height": 1280}], "formatted_address": "Singel 449, 1012 WP Amsterdam, Netherlands", "id": "38ec655ffa0b17a9c0bc98e6938fdfe135e799d2", "types": ["museum", "point_of_interest", "establishment"], "icon": "https://maps.gstatic.com/mapfiles/place_api/icons/museum-71.png"}, {"name": "National Museum of Spectacles", "reference": "CmRRAAAAyZypSrA7RZgq1FEksAkXSqwv4lGTNRRuJlkh9RBQ7fbNcICCOUIzzMYisLwLX_n8D0ZJ1Tt2um1Eq3dqdU9u71IqrXRTPCxUctSEyZu0AcuUaVo8KW2B2hDH7e7BOWbBEhAhAEuAh5dmbmlWmETnKQXaGhROTBki54QQD55pWmNKRyH8s4BAnA", "geometry": {"location": {"lat": 52.3721531, "lng": 4.887753700000001}, "viewport": {"northeast": {"lat": 52.3735136302915, "lng": 4.889105780291502}, "southwest": {"lat": 52.3708156697085, "lng": 4.886407819708498}}}, "place_id": "ChIJ1cNY9sMJxkcR6a-8mClI_Cc", "formatted_address": "Gasthuismolensteeg 7, 1016 AM Amsterdam, Netherlands", "id": "d5274813a8bdf3611234403c2d32243b52595020", "types": ["museum", "point_of_interest", "establishment"], "icon": "https://maps.gstatic.com/mapfiles/place_api/icons/museum-71.png"}]