[{"rating": 5, "name": "Guerlain Spa", "reference": "CmRRAAAAIkUYhh38rP7Wt51nW-5w1MqwhNh7byfFL6EtJ4KxL1hk3w1x-4V-3Phn_dG9StevlKs8V7EcK2nka65YaVHnm1MEl3rxtrq_0q5Gvo38TC02D8JVs5Bu6GBQWudGhWHIEhCYrzNwHpWjXeuje5OD3IjAGhTZuKhf9SdN5j4CGVLRdklmiPsxPQ", "geometry": {"location": {"lat": 52.36463999999999, "lng": 4.896974999999999}, "viewport": {"northeast": {"lat": 52.3660532802915, "lng": 4.898291480291502}, "southwest": {"lat": 52.3633553197085, "lng": 4.895593519708497}}}, "opening_hours": {"weekday_text": [], "open_now": true}, "place_id": "ChIJRy2BEJUJxkcRZ5Xb54fpGGs", "photos": [{"photo_reference": "CmRaAAAABuJ7IlKbQCi1aGvH7Q9_IsR5ToFlowgcyePJ-LdVOOR5FkKLXGe_Cfheec-qxsnWk-vIwVXFJcfGWck8G-2yWYE-8F7JB6DIZyXisKgiultLn2qg-M-BUXz9ZzVPLvZREhD1PXx3oi2ycKVJzWd6zRBQGhQFWQVMiieRc_sY9F7Xr7mm-1h7aA", "width": 2048, "html_attributions": ["<a href=\"https://maps.google.com/maps/contrib/102571761947274422162/photos\">Guerlain Spa</a>"], "height": 1367}], "formatted_address": "Herengracht 542-556, 1017 CG Amsterdam, Netherlands", "id": "6e93b9f71ce858221ffc25b7439f071793e5688c", "types": ["spa", "point_of_interest", "establishment"], "icon": "https://maps.gstatic.com/mapfiles/place_api/icons/generic_business-71.png"}, {"rating": 5, "name": "Chill Out SPA", "reference": "CmRRAAAAknY9MeuXYGg1TYQNAO1OHWARAmilzTwgpKgOSygZwKkTHbqBfjJ64qUE9P-J1FBMNFY3g7G4sC5N0XsJGWkdd0hy3z3nPSCeBgihCx1KyTZWF1_K0En67Je79tMiaT4gEhD7peHxkm4NCumnX8TYXbH_GhQxGzXLRTNAb9K8qCf3HmaWjBSNwQ", "geometry": {"location": {"lat": 52.3562158, "lng": 4.8830303}, "viewport": {"northeast": {"lat": 52.3575824302915, "lng": 4.884269930291502}, "southwest": {"lat": 52.3548844697085, "lng": 4.881571969708498}}}, "opening_hours": {"weekday_text": [], "open_now": true}, "place_id": "ChIJhfOaePYJxkcRI3QcgLRooEs", "photos": [{"photo_reference": "CmRaAAAAvC59VxcurNZFJLxvrqveSkxCC5gvrEB06I5r2xLw356XO6UHkxN1pqAyK2-as011zbH_LKTnuDGw3OcN7l2JdnKooK98muzm8zny-TaHRvInzDzPFPQky2enTSDDJcj4EhDXrfztrrez_78mk_TZQ-QvGhQksqedWxxSG4b7lvSdqdTb_uEE2w", "width": 633, "html_attributions": ["<a href=\"https://maps.google.com/maps/contrib/109647007116294702087/photos\">Chill Out Spa B.V.</a>"], "height": 472}], "formatted_address": "Van Miereveldstraat 9, 1071 DW Amsterdam, Netherlands", "id": "f11160eb352b3160ac7dd849496594c347861f52", "types": ["spa", "beauty_salon", "health", "restaurant", "food", "point_of_interest", "establishment"], "icon": "https://maps.gstatic.com/mapfiles/place_api/icons/generic_business-71.png"}, {"rating": 5, "name": "Nagomi Spa & Health", "reference": "CmRSAAAAAE8t-8AfKJXWow6P7NPASLxrBB5BFmyNIw4HAP1wQglhvLlU_mX8GdXT6l8ZjJWFKVuZ9ygJhxToLGRy2sKLRinpSZ2GpDH-5HgAoJSO94Dct6ihcZWLyITM1GJCNse6EhBxH0m-Uxlmil6lUK72l0o6GhRj_Z-mXMRRjv595hQ8igTRzweyUQ", "geometry": {"location": {"lat": 52.348718, "lng": 4.894031}, "viewport": {"northeast": {"lat": 52.3501389802915, "lng": 4.895338100000001}, "southwest": {"lat": 52.3474410197085, "lng": 4.890109700000001}}}, "opening_hours": {"weekday_text": [], "open_now": false}, "place_id": "ChIJMzqLEIsJxkcRVRu7J-igI4w", "photos": [{"photo_reference": "CmRaAAAAapuN3xUa3zN_8fJkwDLwf1kxVxvvD4agqlIzVpYUf65Ra-l0_xArqm6r8KOZa7H1wJoJiRcbalHQobmONUJua3wmZ-5KK_O86edRUNz1Ij4ZiAbhK0sJL2JgPpJwHeyCEhDi7Vuc0mp2Lky1c7PApF69GhSSGSOYOASC_1UpvVMZAgVASVmwIg", "width": 3422, "html_attributions": ["<a href=\"https://maps.google.com/maps/contrib/106885887881358759828/photos\">Nagomi Spa &amp; Health</a>"], "height": 3422}], "formatted_address": "Ferdinand Bolstraat 333, 1072 LH Amsterdam, Netherlands", "id": "21e025edff259072ace12d981cb9484fdf62813a", "types": ["beauty_salon", "spa", "health", "point_of_interest", "establishment"], "icon": "https://maps.gstatic.com/mapfiles/place_api/icons/generic_business-71.png"}, {"rating": 5, "name": "AWAY SPA by W Hotels", "reference": "CmRRAAAA4g1t8r7ozREwkQIZZsUIqBp9tj8wBPsiUaFNytzGytnykErQfrnHzrxbeN9N1q2gpMXXLk9nf5OxSfg3qHX0u53eG3v1i7tgwQubPW37eVajI0vliaa1_UStw6RPk8N2EhDCzwgobRvbuDeVjHCAjDPrGhQRtBjmhWyREG2prsYrOJyYmp6d7A", "geometry": {"location": {"lat": 52.3726029, "lng": 4.889201799999999}, "viewport": {"northeast": {"lat": 52.3739423802915, "lng": 4.890719130291502}, "southwest": {"lat": 52.3712444197085, "lng": 4.888021169708497}}}, "place_id": "ChIJo7V8qcYJxkcRPyE56uL3FQM", "photos": [{"photo_reference": "CmRZAAAAiSD_E6-7Z0C7JMsVnSUZyeRDRgHwuVOqtHWm_utN_kQTZD0tOIWGtRwmptlRo1GFvz0ZFWEpQ9HMnzdKwdHn89d9ZJb77wORWqWq7RQszo0cUezJZhjTmIopUeRegj_JEhBADjgu1_EcCmVVbiKLaYQXGhTwAvkErCVRLzJPifCcmFhAxi6oqg", "width": 5376, "html_attributions": ["<a href=\"https://maps.google.com/maps/contrib/112468778629514175647/photos\">Daniel Wishnia</a>"], "height": 2688}], "formatted_address": "Spuistraat 172, 1012 VT Amsterdam, Netherlands", "id": "85af165d1fcfcbaf7755bf105cffb2e65790d293", "types": ["spa", "point_of_interest", "establishment"], "icon": "https://maps.gstatic.com/mapfiles/place_api/icons/generic_business-71.png"}, {"rating": 5, "name": "stoelmassage.amsterdam-The Office Spa-massage en mindfulness op kantoor Amsterdam", "reference": "CmRSAAAAKGinBuSYk57xp9np2cI7674YPC0bUskjqKgRPToPKVOewyX-TLlKOagUnMP4utPny7jLYcBPfdTidxVdZGOMUlK5iH4rdMxL3mOlFRoui7vBl1CHhV0A1Lp4O3GZ5RVBEhDQ8prDxUwFBztoVmI5JOwyGhTPI8RccSGZqgDUACHK6xRTxjda-A", "geometry": {"location": {"lat": 52.3650027, "lng": 4.9060397}, "viewport": {"northeast": {"lat": 52.3663201802915, "lng": 4.907248180291503}, "southwest": {"lat": 52.3636222197085, "lng": 4.904550219708498}}}, "opening_hours": {"weekday_text": [], "open_now": true}, "place_id": "ChIJX09McAwJxkcR9BK0AcXXDJw", "photos": [{"photo_reference": "CmRaAAAA9rj3ijAsnKbniICe5KMuHMDuQKrKu-qblba6mrlqm9YOL-USp0MX3CxGyGl8tHzLfvJC3CTi0q0EBUEdyQDsiM6F8LsCq9IezApzUKXGH2MoHrfOo-oPmw0GCG6-qiBbEhAn-kxy90jGqCMoS9mzjuldGhSXxVwDvALmCdpmV5ka48IQ9nusjA", "width": 810, "html_attributions": ["<a href=\"https://maps.google.com/maps/contrib/114449148361731629085/photos\">stoelmassage.amsterdam-The Office Spa-massage en mindfulness op kantoor Amsterdam</a>"], "height": 543}], "formatted_address": "Weesperstraat 61, 1018 VN Amsterdam, Netherlands", "id": "1a59444bc1c64e80cd3d2f75d87a1aa8aaf128e5", "types": ["spa", "health", "point_of_interest", "establishment"], "icon": "https://maps.gstatic.com/mapfiles/place_api/icons/generic_business-71.png"}, {"rating": 5, "name": "Thai Spa Natural & Body Care", "reference": "CmRRAAAAdFPV1NKCLRRY7L2JA_kyO9W-Vta9W-IXDnZv_vhiGZmUFSuhWSBlRqLWVkx447iWnw__BHQTTR9dgdFHVYZCQbPVIlLqpLF84E4hWbMx-o_rANSV50SyXl4y28ydesXuEhCeT1A5zH8tYvgTawJlADBtGhR7kZUvezUh7GGmSz0yL7lUsKzDNw", "geometry": {"location": {"lat": 52.3715039, "lng": 4.8958666}, "viewport": {"northeast": {"lat": 52.3728844802915, "lng": 4.897151280291502}, "southwest": {"lat": 52.3701865197085, "lng": 4.894453319708497}}}, "place_id": "ChIJ5xvGVr8JxkcRD2R4NkwoPHs", "formatted_address": "Oudezijds Voorburgwal 189-B, 1012 EW Amsterdam, Netherlands", "id": "8433dbd19466fb38f9a2d6f7ab80f99aaae82873", "types": ["spa", "point_of_interest", "establishment"], "icon": "https://maps.gstatic.com/mapfiles/place_api/icons/generic_business-71.png"}, {"rating": 5, "name": "Skin Spa Store", "reference": "CmRRAAAAyyEhrygKbsBsnIvrXRrO75Ld3RX76FlhX8Sl40myS-AUJEdiHdIE6Le0R0g_m_X9nT0zCGAVsuggt7E9eI5zfryvh1OdFW8A7LOkKOR3dyfa68K6wLUXyB4B_pCmMU9YEhAkN-OP77Hd8lip4jQDmkXPGhTSj1YP7RMaq4kYyqy533Q1348EJw", "geometry": {"location": {"lat": 52.3599024, "lng": 4.939316300000001}, "viewport": {"northeast": {"lat": 52.3612569802915, "lng": 4.940706330291502}, "southwest": {"lat": 52.3585590197085, "lng": 4.938008369708498}}}, "opening_hours": {"weekday_text": [], "open_now": false}, "place_id": "ChIJvTJrBGwJxkcR8vwMKeWqD0c", "photos": [{"photo_reference": "CmRaAAAAWrLgCYAgk8oYqpfyAcK4VfZidT3YHLZAXFe-pH6Q30cFvZtESVjuybgpMu-pGZEdnsFSsDQoNpFo1gPMY2nPbtEQrdnL5oIF2D8OMDh1_cHjSfZibQoWjTL20t3nSPEbEhAaBMqIvY7G7sQ3MpE9WkcfGhSt6bKxHCN-mLQSxSL4wFQBD7FWAw", "width": 5312, "html_attributions": ["<a href=\"https://maps.google.com/maps/contrib/109400472359143849946/photos\">Dani\u00ebl de Wit</a>"], "height": 2988}], "formatted_address": "Halmaheirastraat 28, 1094 RL Amsterdam, Netherlands", "id": "ad7a95a9d50316c41ff195884180f4b72f82c52d", "types": ["spa", "point_of_interest", "establishment"], "icon": "https://maps.gstatic.com/mapfiles/place_api/icons/generic_business-71.png"}, {"rating": 4.8, "name": "Sento Spa and Health Club", "reference": "CmRRAAAAwdUgRcZzbQOVP2dNxqbYXuMFnRAfMwAzbLB7gx5jEsAONgIKLlLxonRAMS2BjNkU58utHs8xfILeWYflTtyCueREUg1sXzFOpcpCYR1lYmx1L6-eBza3b8xC2-NspZRJEhDyELlcC0DVhfHr49T9pOSjGhTPi8knqsLBcuvoD_YG7cp_ji9-xg", "geometry": {"location": {"lat": 52.37800060000001, "lng": 4.878494399999999}, "viewport": {"northeast": {"lat": 52.3792391802915, "lng": 4.879917880291503}, "southwest": {"lat": 52.37654121970851, "lng": 4.877219919708498}}}, "opening_hours": {"weekday_text": [], "open_now": true}, "place_id": "ChIJoaqDddoJxkcREFMtL_GP6BY", "photos": [{"photo_reference": "CmRaAAAAb4XueGsOCgVdMP7ADQTtzO4zOrJt1KtUysBuHmxRGTHwI2u_5JWe71BZoYpXl5PCji3KUsnjRim_JPKw4B13_r4ueYAw0kJjhDGClo-ERJqKeshdbKOoOk5T_tVNSZFpEhB6lpSAoOLOS2IqKXkX1PEWGhQ0nybKqdidM1qwTq5il5S2wzx-4A", "width": 647, "html_attributions": ["<a href=\"https://maps.google.com/maps/contrib/114785943052196505357/photos\">Sento Spa and Health Club</a>"], "height": 647}], "formatted_address": "Marnixplein 1, 1015 ZN Amsterdam, Netherlands", "id": "1443141b030577868ef61d32cfd22b1ff8de0833", "types": ["gym", "beauty_salon", "spa", "health", "point_of_interest", "establishment"], "icon": "https://maps.gstatic.com/mapfiles/place_api/icons/generic_business-71.png"}, {"rating": 4.8, "name": "BEM Estar Health Beauty & Spa", "reference": "CmRSAAAA0R2wNzPtJSxXuyVOzGeZR2ZChhs9iuQUqffS1Q_JUczXv5XigAlzqg68mnQ6K4oKKb0K0q8yHXuV_Rgepk1BXhd4-5E9OjXRKFAV6ELPVN-WCVYjv_b3UZa8ArULPpA6EhAXqslo05qsfHCNy5cGztEYGhRxWXQBJX4VSLOLalZ-HwGXK6oVtw", "geometry": {"location": {"lat": 52.37214399999999, "lng": 4.874993299999999}, "viewport": {"northeast": {"lat": 52.37344478029149, "lng": 4.876372280291501}, "southwest": {"lat": 52.37074681970849, "lng": 4.873674319708497}}}, "opening_hours": {"weekday_text": [], "open_now": false}, "place_id": "ChIJTy7AwMQJxkcRcXg_DegCj-w", "photos": [{"photo_reference": "CmRaAAAAdk7FYBMq4Ys6CYJqSQEXnJibQ3pqi1QyTeKlxSaPK96JdfxjGcvDgRLk9fmdqIJhpxrdGkiHJ9-nTQX0o3OXoZh8RqV3hEurEy7sXtceQdRwqdqqPbDMqzNwUZQY_SSsEhB2AxU5VDfeHN_oPSF8Bl1xGhQbeT90mBZcj7OZ8PKRxRxwt9htlA", "width": 1440, "html_attributions": ["<a href=\"https://maps.google.com/maps/contrib/103896344881053751445/photos\">Paulo Franklin dos Santos</a>"], "height": 2560}], "formatted_address": "Rozengracht 234, 1016 Amsterdam, Netherlands", "id": "dc892af35f78a46c45a29ddf34e630df65146ddd", "types": ["beauty_salon", "point_of_interest", "establishment"], "icon": "https://maps.gstatic.com/mapfiles/place_api/icons/generic_business-71.png"}, {"rating": 4.8, "name": "Ami SPA Amsterdam schoonheidssalon", "reference": "CmRSAAAA4ll9eCldsSBgLaN8TldaU3VMxl-gW2OcixJppdzHCTx8ahVzRb6f-J8-uBUJPDcdWaRC9rhPfBeHXJ4rAM1ViUAKzX4MANJPirhPZXr-H3Gq4GcAG5ha5vaycw-_8FKgEhAcE_kBeMp-XtBSJXI3siqEGhQbRSGQn5sO3clmn9jiXpih4IPJiw", "geometry": {"location": {"lat": 52.3888462, "lng": 4.8796519}, "viewport": {"northeast": {"lat": 52.3902293302915, "lng": 4.881070380291502}, "southwest": {"lat": 52.3875313697085, "lng": 4.878372419708497}}}, "opening_hours": {"weekday_text": [], "open_now": true}, "place_id": "ChIJnfkRoiwIxkcRKGYUxm_6I4Q", "photos": [{"photo_reference": "CmRaAAAA7df5EjTm4E0Yd2UKUPzcP2m7aLycTJl_-SO0Pl9u5Fkg7DBH3ikhjMQhXjoJr9XqlsefdoI0p8ORcUiXVXdogEWXhCLrzUs4MOB4SXqQlUqcU0yPXUzx5Bm-mk5o0CuCEhAH5g3Z01JZ7wSO7szWHqHUGhSTT0hLLL57Eb0EsbzZW07eHisr3w", "width": 1620, "html_attributions": ["<a href=\"https://maps.google.com/maps/contrib/109798531602242104710/photos\">Ami SPA Amsterdam schoonheidssalon</a>"], "height": 1086}], "formatted_address": "Spaarndammerstraat 45 winkel, 1013 ST Amsterdam, Netherlands", "id": "6b95d0e329cfc9c65566f2e70f244f404d31efea", "types": ["beauty_salon", "art_gallery", "point_of_interest", "establishment"], "icon": "https://maps.gstatic.com/mapfiles/place_api/icons/generic_business-71.png"}, {"rating": 4.6, "name": "Thai Spa Nirvana", "reference": "CmRRAAAANsoupjiepvBCATdlkuODpfwDvIzPc7kEJsjgqkG0FWic6ejG4I6XdAfWB2afjgt-MlakXdV4ClKTKwV6FCxVGNtuguwEURzyppxFDpFN1dtYT1eeUHkeDwEnT5lIvTdKEhBNLF5Z3PFDMl9XFX5Cp0EMGhQtH5wM2CwMK-op6At5wvSGLIAdSw", "geometry": {"location": {"lat": 52.3532489, "lng": 4.8931353}, "viewport": {"northeast": {"lat": 52.3545170302915, "lng": 4.894514280291501}, "southwest": {"lat": 52.3518190697085, "lng": 4.891816319708497}}}, "opening_hours": {"weekday_text": [], "open_now": true}, "place_id": "ChIJjSCq2YwJxkcRa_h-5DmFUjk", "photos": [{"photo_reference": "CmRaAAAA8FYo9U6tL4tONdAuA4dacq-Ut8mV4KThsDCsu5AW0YmEInogazbV3b85eESupMjJ7fz0q1FTwJfEi3SQwGS5le0nqK5VbGpyUbK9G-Up0lotQGbr1c6J1wnzt7tokippEhARomyl2ZYfZ_kViscKS3IhGhRpXlS9ZkMVSgX1effEUz5NgSMfBg", "width": 1936, "html_attributions": ["<a href=\"https://maps.google.com/maps/contrib/105788716217828250819/photos\">Thai Spa Nirvana</a>"], "height": 2592}], "formatted_address": "Ceintuurbaan 135, 1072 GA Amsterdam, Netherlands", "id": "9b2eaacfa77e8ea6bf95c84b48eff95b8fb6b8df", "types": ["spa", "health", "point_of_interest", "establishment"], "icon": "https://maps.gstatic.com/mapfiles/place_api/icons/generic_business-71.png"}, {"rating": 4.6, "name": "Aveda Dayspa Amsterdam", "reference": "CmRRAAAARbAqqzsV3Ym11c2K21xJjU2jlYCvJWvWK0PEhcC7kcUJufPbelqbMIaAtnNi0cwb2SnqnUfI0TsEuUFUogH-buoCNHQJ7_xzOanCD7jIv4rdu0USmBGY7HX1J7njmF0TEhA_NKvrXuNBGvObl3ffttMmGhScl0RZqgUv7d108Xqrj3na3jlkYg", "geometry": {"location": {"lat": 52.3450734, "lng": 4.8539658}, "viewport": {"northeast": {"lat": 52.3463375302915, "lng": 4.855344880291502}, "southwest": {"lat": 52.3436395697085, "lng": 4.852646919708498}}}, "opening_hours": {"weekday_text": [], "open_now": true}, "place_id": "ChIJc8AAWPjhxUcRKQEHQSDJF28", "formatted_address": "Laan der Hesperiden 90, 1076 DX Amsterdam, Netherlands", "id": "4c5313a58b6526bff23090feacadd695a26e6a5b", "types": ["spa", "hair_care", "beauty_salon", "health", "point_of_interest", "establishment"], "icon": "https://maps.gstatic.com/mapfiles/place_api/icons/generic_business-71.png"}, {"rating": 4.2, "name": "Grand Hotel Amr\u00e2th Amsterdam", "reference": "CmRRAAAATjlyhw8tnixgtxyrpSaA1R1cWyENvlh7nCS0jo0eWOAx-dt2BBcYcQtHrWrpK0lKdprPWqzLFg_7QvbzkWsI5-WF2v3njgzyEw05ymGjGzqFVD9jSZU0xL0I8hRL2HoSEhDUTVJj2T2_bqR-g8UBgKywGhRbr66jyXW4s40esW3UC8_hjZS9Qw", "geometry": {"location": {"lat": 52.3745619, "lng": 4.9039112}, "viewport": {"northeast": {"lat": 52.3760454302915, "lng": 4.905202080291503}, "southwest": {"lat": 52.37334746970851, "lng": 4.902504119708499}}}, "place_id": "ChIJEdXdNboJxkcRX4h4XN5zsFM", "photos": [{"photo_reference": "CmRaAAAA8IgGVKBd59AlnKhVN1dnP8C5ftnxXnore4wHjlkA5iT0qrhUKhWx51Tii8mEUmt9El9a0nr4FXLjHaYI0v2QtzvlGMbqynqI9X8vhjqGvZZDIQaEXXR2YuNqX1JrUNSoEhAP0z28WQwOk0BIUCqG_RXYGhQdNQA4vCOG-GX0btGAST6mlukmHQ", "width": 3200, "html_attributions": ["<a href=\"https://maps.google.com/maps/contrib/104352067843751778542/photos\">Jon Paradiso</a>"], "height": 2368}], "formatted_address": "Prins Hendrikkade 108, 1011 AK Amsterdam, Netherlands", "id": "d1d64bf93e130a1c6ad8a0e78ebbe2aea0335c57", "types": ["spa", "lodging", "restaurant", "food", "point_of_interest", "establishment"], "icon": "https://maps.gstatic.com/mapfiles/place_api/icons/lodging-71.png"}, {"rating": 4, "name": "Spa Sport Hotel Zuiver", "reference": "CmRRAAAA1fKWyn0AuBQ8yWuLYxIdLFww-EImRjc7-Ft1uQW6LLsay8tj7t97oVFbkCo3qZ-XOrIHqG-JISpWRnnYxBTFB56lFzOItbCGIE_Zt23ecQVRpjeqjZTdx41xOAqe5cHXEhBuyi_H2Ktn85k1qsg-nwjkGhQ8G25VfzpwG3yVLsI87-Va1JjS9g", "geometry": {"location": {"lat": 52.3312924, "lng": 4.8530067}, "viewport": {"northeast": {"lat": 52.3324148302915, "lng": 4.854684080291502}, "southwest": {"lat": 52.32971686970851, "lng": 4.851986119708497}}}, "opening_hours": {"weekday_text": [], "open_now": true}, "place_id": "ChIJN7FNpebhxUcRixO4MqFE3jU", "photos": [{"photo_reference": "CmRaAAAAL9noln3YDC3nmBQxwTsIwLSrDtuakuxo_vKgdbKldP_mofbSkk7Z06bvmMRKC6SGBzb_LJuDmK_vNVlPsMRJDf6yGamvKcpx8dvoh-lsqZU2JC_8eQu_YE5bXESKjz2ZEhAox11DnZdk8Q2h6dTKuKjDGhRa3L_i7ntHFO3Gc9ZVNhFJ2vETgg", "width": 2048, "html_attributions": ["<a href=\"https://maps.google.com/maps/contrib/114257939470811447642/photos\">Spa Sport Hotel Zuiver</a>"], "height": 1365}], "formatted_address": "Koenenkade 8, 1081 KH Amsterdam, Netherlands", "id": "41441a4cb501e68e85816eab56a6bd63e5c23340", "types": ["spa", "gym", "lodging", "health", "point_of_interest", "establishment"], "icon": "https://maps.gstatic.com/mapfiles/place_api/icons/generic_business-71.png"}, {"rating": 3.9, "name": "Sauna Deco", "reference": "CmRSAAAAaCQ0k49dkrZwfSOViw21Aq08CrAhRpIjd_A9oPd_FWqEIVYsPT5itb_JlmrZizQEUgL2ojXwkzxDu_NcdvmrfNEErD6aS3irfX013g1Bnq4pO2pjB2HLrY2Nfo8pLRuPEhCYfuqsV3zolpf8bir2uG40GhRzLZP-kOgNXfoc-lO89q_QkhqRnQ", "geometry": {"location": {"lat": 52.3762687, "lng": 4.889704599999999}, "viewport": {"northeast": {"lat": 52.3776332802915, "lng": 4.891007830291501}, "southwest": {"lat": 52.3749353197085, "lng": 4.888309869708497}}}, "opening_hours": {"weekday_text": [], "open_now": false}, "place_id": "ChIJy0OxCsYJxkcR5Uawr8oT1po", "photos": [{"photo_reference": "CmRaAAAAkF2Onrc-aM6J6NQtTb0gVPIUxeuBlNCf3CJ5ODfr0ic8dmr_gn8_rUFhIx5UtOiMwIilHRE_Ffl26AadNWmuusiBzKkBq_yRnUoF6KGjIjTT9usjurzmI9KXqvv6RL4VEhCGSawjz-n13K5Be6CBGNIHGhTu9Lk0_Jxi3vSeOrinoWsNSZv9hA", "width": 4128, "html_attributions": ["<a href=\"https://maps.google.com/maps/contrib/118200384118946924535/photos\">Necmi Ozcan</a>"], "height": 2322}], "formatted_address": "Herengracht 115, 1015 BE Amsterdam, Netherlands", "id": "6b15f6c994419952c48514a7c83119a47027c36e", "types": ["spa", "health", "point_of_interest", "establishment"], "icon": "https://maps.gstatic.com/mapfiles/place_api/icons/generic_business-71.png"}, {"rating": 3.7, "name": "The City Street Spa", "reference": "CmRRAAAAZK6l5ECyhyHmckCLlLgPnT94jPTJKnf1wG1hfCwmahNHwLjgrzYEi4-VPJhSHFFRWyvJ-_YWUwheYztWtXY534xIxQs2OJ6lVkHECmkqQoqR1_mERXFChJ9fCwmou2R1EhBplOlYOzSy-U7_Y_xWMBoTGhSkDWP5AWMwQLqcjtsCIxP9LXLzRQ", "geometry": {"location": {"lat": 52.36153209999999, "lng": 4.897217899999999}, "viewport": {"northeast": {"lat": 52.3629177802915, "lng": 4.898549130291502}, "southwest": {"lat": 52.3602198197085, "lng": 4.895851169708497}}}, "place_id": "ChIJmQ-AfpQJxkcRzOmhzpyWGTQ", "formatted_address": "Prinsengracht 764bg, 1017 LE Amsterdam, Netherlands", "id": "f5d6e0da2da70e0b0afe529bd500de8412c9f910", "types": ["spa", "point_of_interest", "establishment"], "icon": "https://maps.gstatic.com/mapfiles/place_api/icons/generic_business-71.png"}, {"rating": 3.7, "name": "City Spa", "reference": "CmRSAAAA2rkLm5vvQuM6XG1YasCDkRU4MWPn_kh99jhIFiowS0lAb7gTeDgQbPtx9srIVm_9-18FaZqqNxO0Nmn-0kjgHSOo1Bo3eGyIx5bCngqqXC_fLaqqhsQwMA2T8MlwvDqKEhDgC9nDK6OBR7ijZMsokTcnGhReESMxxjLmMUXByR_bYBNtZOcGpA", "geometry": {"location": {"lat": 52.35517950000001, "lng": 4.9018192}, "viewport": {"northeast": {"lat": 52.35648113029151, "lng": 4.903228630291502}, "southwest": {"lat": 52.35378316970851, "lng": 4.900530669708497}}}, "opening_hours": {"weekday_text": [], "open_now": false}, "place_id": "ChIJMzqLEIsJxkcRd2dVVD0vcas", "formatted_address": "Ceintuurbaan 201, 1074 CV Amsterdam, Netherlands", "id": "3d66d0e72bbbe4965900142ad614557375a92a7d", "types": ["beauty_salon", "hair_care", "point_of_interest", "establishment"], "icon": "https://maps.gstatic.com/mapfiles/place_api/icons/generic_business-71.png"}, {"rating": 3.2, "name": "wellness 1926", "reference": "CmRSAAAALZ2Wpx0uE_PA-P95B1odxErwT11pQthSmvrHujeITMZUDP-DTwbDBaS7gn_XhiAxjyL7ELpAtlikqUMX8hmYxJkUaZpIzFeLnqY_kuXkCL8dAe-I5TOd0eY9jtOhpSOtEhDa00vOtrZBrAZtBDK0aMp5GhSpyftbLU25Nrrz4GtCakM_-Uj_aA", "geometry": {"location": {"lat": 52.3599024, "lng": 4.939316300000001}, "viewport": {"northeast": {"lat": 52.3612569802915, "lng": 4.940706330291502}, "southwest": {"lat": 52.3585590197085, "lng": 4.938008369708498}}}, "opening_hours": {"weekday_text": [], "open_now": false}, "place_id": "ChIJvTJrBGwJxkcR78Q-q11O7dw", "photos": [{"photo_reference": "CmRaAAAA8jhRC1Y2Ytm6kxltG6lEprXa1qE9Eytsq9EpDwOF2NvdG3Li9CrN13p9CX30R0-WI9cUszfiuwi2Po_hfs6XprBRqoRjm-0zKZOoIh8dQjvVMdxpNyZ-0emPtCu92kmrEhCyG4xLZNsZcVLdVgcjIA1tGhSByiv4VKo_XctSIRiH3xh3DmjPxg", "width": 1024, "html_attributions": ["<a href=\"https://maps.google.com/maps/contrib/111905022724832860315/photos\">Wellness 1926</a>"], "height": 682}], "formatted_address": "Halmaheirastraat 28, 1094 RL Amsterdam, Netherlands", "id": "5d173c6b37aaa194bd19d841319741a454e20657", "types": ["spa", "health", "point_of_interest", "establishment"], "icon": "https://maps.gstatic.com/mapfiles/place_api/icons/generic_business-71.png"}, {"name": "Du Sahara Spa Hamam", "reference": "CmRRAAAAusvkcwkeodOafr__Gtl1XFWQ7prKdliRUy7FADvqKt1x_WQg_NLFEKdNdgO6WHhaegFR8jOYNizEoK4TIHFMVQj4_3WEgPk7XpJ-l8zXpdhe3jxr1C5BeWMWRp_N_31TEhCbRUQ-UibY56UrHvvzDMrcGhTNgUoHx-UUn_fls1IIXZAUlieh_Q", "geometry": {"location": {"lat": 52.36247789999999, "lng": 4.838049799999999}, "viewport": {"northeast": {"lat": 52.3638268802915, "lng": 4.839398780291502}, "southwest": {"lat": 52.3611289197085, "lng": 4.836700819708497}}}, "place_id": "ChIJhf5PyD3ixUcRwvrCh8fTzQk", "formatted_address": "Chris Lebeaustraat 1, 1062 DC Amsterdam, Netherlands", "id": "0594a63ef5c4c10c813db62693a2707e7a1cedc1", "types": ["spa", "point_of_interest", "establishment"], "icon": "https://maps.gstatic.com/mapfiles/place_api/icons/generic_business-71.png"}, {"name": "4SeasonsSpa", "reference": "CmRSAAAA4fQcj2niUIUZgGQwr2Ds9Py98blSC4013lygDDAiZCzIaQmPAx_-xWAiOBLMBawUo4UC1YcsFSvO3aQPCuLKwUiYEFdMD6TwLGuPCATmPhGeoLN1UGbpeJibEdzdS3qrEhCFK7KA80yIOG_HwlsbdJ3qGhRu_DgjykPaRVi6HViJDafYzzY-5g", "geometry": {"location": {"lat": 52.3647303, "lng": 4.894444099999999}, "viewport": {"northeast": {"lat": 52.3661148802915, "lng": 4.895805480291501}, "southwest": {"lat": 52.3634169197085, "lng": 4.893107519708496}}}, "place_id": "ChIJuTRFEOoJxkcRYDj1uQ3MRME", "photos": [{"photo_reference": "CmRaAAAAnC2T03U8vgvmfiyg01kuCtEVQJZ4yf4_QWhIYaIwYOHpKlAKnhFux_0pmJogfvcKe4hJoLJ6EC2D68HpMgX7tjuq5dVyRPhbkggG_MNi1jJQftI8vcsAVHt0BBMx2WzvEhDy0JjSavrZ2omvvPqnWEGeGhTnpCNdJwT3eynlFlMAo3zfr3QBdw", "width": 1387, "html_attributions": ["<a href=\"https://maps.google.com/maps/contrib/106453262394934325611/photos\">4SeasonsSpa</a>"], "height": 925}], "formatted_address": "Herengracht 516, 1017 CC Amsterdam, Netherlands", "id": "1b89ef72355e9e4b6258898b4f4e8ad8da5bd700", "types": ["spa", "point_of_interest", "establishment"], "icon": "https://maps.gstatic.com/mapfiles/place_api/icons/generic_business-71.png"}]