[{"rating": 5, "name": "Nature Com\u00e9rcio e Distribuidora", "reference": "CmRSAAAAJjsHj_OFT_6yqdwkbhPi4LrRgx2uPtflBTvjONN2oG2allY7yv9pO0jhnSzqTk7jWV8nuyk6-2CqYbXdcjWhE04OdpPdYiHmc1qWSP5mAmaNlg-HbRcxYx-doDvvMhepEhD2fNANik0Xq9V-bsrg0Dc-GhTMrLOmUsqlexyv5029vIpkMOzK-g", "geometry": {"location": {"lat": -23.624216, "lng": -46.6387577}, "viewport": {"northeast": {"lat": -23.6229448197085, "lng": -46.63741561970849}, "southwest": {"lat": -23.6256427802915, "lng": -46.64011358029149}}}, "place_id": "ChIJd51hTlZazpQRKVylCWtq3aE", "formatted_address": "R. Prof. Apr\u00edgio Gonzaga, 175 - S\u00e3o Judas, S\u00e3o Paulo - SP, Brazil", "id": "6dfc544a9fd493578504b53fb7a103bde8d10b7f", "types": ["point_of_interest", "establishment"], "icon": "https://maps.gstatic.com/mapfiles/place_api/icons/generic_business-71.png"}, {"rating": 4.5, "name": "When Nature Calls", "reference": "CmRRAAAAamMtMk1RurLUftMRfGjIQtf1wBm74p4afnVZxXSma0VQfSInCYLjzJrWy1xUH3L0ZuWC8p8uoXXobvLkVr_T7k2A0RTbRWt0acHb0KTpp3j0wGr_tTB2SoxUKQAHHCrPEhD32SxGX_EckjXKXOblnp3eGhQbwqvkZASCmnpC44_XR3deZSraAQ", "geometry": {"location": {"lat": 52.36584500000001, "lng": 4.886029}, "viewport": {"northeast": {"lat": 52.3672027302915, "lng": 4.887390980291503}, "southwest": {"lat": 52.3645047697085, "lng": 4.884693019708498}}}, "opening_hours": {"weekday_text": [], "open_now": true}, "place_id": "ChIJ503XwekJxkcRJMIkCYlmLw8", "photos": [{"photo_reference": "CmRaAAAAFjFC5Tm5sUPMtkwPn5Pxxhqd2EJeasmwbBXHHXvRfOdqUF33J2dpGtGBMiQExxjfQnQkOP3yKWfUTG5fnbeyDawS5zX-eh2PZ6lmJgz0apzvMhWQZLhmVx5x8m9LfZ15EhA5_5ijwRrA3JGm2-85j8_YGhReJ5JX25zaSofPH1zZ7g1fAvZXMw", "width": 4032, "html_attributions": ["<a href=\"https://maps.google.com/maps/contrib/114310397735836167161/photos\">When Nature Calls</a>"], "height": 3024}], "formatted_address": "Keizersgracht 508, 1017 EJ Amsterdam, Netherlands", "id": "c5c7b9452e3b2f44d815eb410c0213b4775e84f3", "types": ["store", "point_of_interest", "establishment"], "icon": "https://maps.gstatic.com/mapfiles/place_api/icons/shopping-71.png"}, {"rating": 4.5, "name": "Nature Magazine", "reference": "CmRSAAAAbrUiu4qOSQzRimYv44IWlP9TnpV5vKZ3xqxNN1esYXVbnM6yU3yOrRap8NFH1V3Bfe80VFfDR9GCm0v67VF0BRA9aT9Q2QtfjyOEoaqg4HWQndHEHWsYTkcjglbf-6CyEhAhcyGYlHnMTu8CFhFfzov2GhSiIhNR7Et8uQOYX9p9uY-MgqCqIg", "geometry": {"location": {"lat": 38.8969833, "lng": -77.03116870000001}, "viewport": {"northeast": {"lat": 38.8983414302915, "lng": -77.0302080197085}, "southwest": {"lat": 38.8956434697085, "lng": -77.0329059802915}}}, "place_id": "ChIJw8JuvJe3t4kRd5D_wdLKz_w", "formatted_address": "529 14th St NW # 968, Washington, DC 20045, United States", "id": "cd308f218d42c5999622b22e31a2500a478765a7", "types": ["store", "point_of_interest", "establishment"], "icon": "https://maps.gstatic.com/mapfiles/place_api/icons/generic_business-71.png"}, {"name": "Nature", "reference": "CmRRAAAAB7HnGCa0l_ojf0YTnSly8Rq0FlztWR2lMsxYhVr2a8t3VWlbKJFwccDjN5bznWWfIkQ9djVetpJMuRbdmvJ0KASqGHHrANMyNMheJ6P7mQqt6Dh7qJR5bT00s3-uZ9hOEhBkBP0V7dUWKr9cjKnoSPqTGhRNy5BpOhh8hkEQ5EZSktkdxtbKBQ", "geometry": {"location": {"lat": 51.6064353, "lng": 6.0588659}, "viewport": {"northeast": {"lat": 51.6077417802915, "lng": 6.060191330291503}, "southwest": {"lat": 51.6050438197085, "lng": 6.057493369708498}}}, "place_id": "ChIJGbYTy4hrx0cRu1aUtxoxbU4", "formatted_address": "Johannes Vermeerstraat 3, 5854 EX Bergen, Netherlands", "id": "f5fee4b72da9c72afc1f2728feefd93e00522275", "types": ["beauty_salon", "point_of_interest", "establishment"], "icon": "https://maps.gstatic.com/mapfiles/place_api/icons/generic_business-71.png"}, {"name": "Nature Publishing Group", "reference": "CmRRAAAAKwt0hJ35wPa9cmIVpxLnLEBn5IvoahzORoquRu4TXoM4YjfMJXcrXaFX--gv_CJq2GDka7WaYZ4dmXwvN5M8KDiJBp3Gch_KhBKl3uCgJlpedOMvSfMYXpLzeJj385fLEhCMz8DW7C4LR5Pp_uk32CP4GhRcEu4M4Glu2SdHaSMRRKaouMefog", "geometry": {"location": {"lat": 40.70205350000001, "lng": -74.01212170000001}, "viewport": {"northeast": {"lat": 40.7034024802915, "lng": -74.0107727197085}, "southwest": {"lat": 40.7007045197085, "lng": -74.0134706802915}}}, "place_id": "ChIJ2_Y2TYtZwokRMkaJNDvngzo", "formatted_address": "1 New York Plaza, 4500 FDR Drive #9, New York, NY 10013, United States", "id": "33b6beb58f7b6e5a68e0c775c09b9af75090db3b", "types": ["point_of_interest", "establishment"], "icon": "https://maps.gstatic.com/mapfiles/place_api/icons/generic_business-71.png"}, {"name": "Nature", "reference": "CmRRAAAA61ojHItH-7y8m7_YB8kGy06thApLJ8hMgCVmsQP5IfEZFc65_k-k9nPTmovf7H2nz2yl5mRvFxEVSGiDbHH1DU63o0O2AdfW4SV5N_vv96emuK_ZPuHRuUGBD81u-tWIEhBcr4aIZPNga8tDPSMqh_WKGhQoyfje5mlFu-ffjv9rzRK1KXUuOA", "geometry": {"location": {"lat": 20.9532032, "lng": 72.9284892}, "viewport": {"northeast": {"lat": 20.9545814802915, "lng": 72.92983793029151}, "southwest": {"lat": 20.9518835197085, "lng": 72.9271399697085}}}, "opening_hours": {"weekday_text": [], "open_now": true}, "place_id": "ChIJeQfxKrn34DsR7heceHMcYmQ", "formatted_address": "Tower Rd, Near Tower, Madhumati Colony, Navsari, Gujarat 396445, India", "id": "2abe488cf125221519ee29090941ef96a1e7a411", "types": ["clothing_store", "store", "point_of_interest", "establishment"], "icon": "https://maps.gstatic.com/mapfiles/place_api/icons/shopping-71.png"}, {"name": "Nature Stores", "reference": "CmRRAAAAn_WK_JSSQyObfB3Xdv-BkZvibJcohcICDPbWDRFyQTqxG7ibLLR4kz6iFVp9GJAjsSHReKiT2K9tXF9B6KVhHdYxxLZCz6wV9SDZCC0_LhPMnw4XU2lcO38q4q_lYYFhEhD8Y_6mfbnPoqJ7fy5k6ZrwGhQicjfukQ8H47F2O9bbWGcy5UgrnQ", "geometry": {"location": {"lat": 12.982889, "lng": 77.606703}, "viewport": {"northeast": {"lat": 12.9841591802915, "lng": 77.6080253302915}, "southwest": {"lat": 12.9814612197085, "lng": 77.60532736970849}}}, "place_id": "ChIJ8Q5LaWIWrjsRKXWsR6xoIWg", "formatted_address": "Commercial Street, Tasker Town, Shivaji Nagar, Bengaluru, Karnataka 560001, India", "id": "1de5d2c25c564ea3fb0d5dbd6bcde72fa3d778ec", "types": ["grocery_or_supermarket", "food", "store", "point_of_interest", "establishment"], "icon": "https://maps.gstatic.com/mapfiles/place_api/icons/shopping-71.png"}, {"name": "NATURE", "reference": "CmRRAAAASTiyCH1VzIKyIbs39Jfl1O5PMy1sDt5xHJcLrJ4hYWjsqlFlzj7tOGwLG2EM2KOmAfpY2DiLpWVMHrfJfNUi-NgVj3FsrzpvVlFIQbT8FZBTirt6wETarTslkSphtp_cEhCqEnSd1cGZst_bSJb5WPbFGhRfFc0JL6CIdM9c8YrgtwBAONQhHA", "geometry": {"location": {"lat": 8.482835, "lng": 76.947453}, "viewport": {"northeast": {"lat": 8.484183980291503, "lng": 76.9488019802915}, "southwest": {"lat": 8.481486019708498, "lng": 76.9461040197085}}}, "place_id": "ChIJ0Ze0Vqe7BTsRMu1_Ih0GXQM", "formatted_address": "t.c 37/578,Southnada,Fort,Thiruvananthapuram, kerala, Thiruvananthapuram, Kerala 695023, India", "id": "6a70bc2cf5974d1600bf617c3f02019defcbddfe", "types": ["point_of_interest", "establishment"], "icon": "https://maps.gstatic.com/mapfiles/place_api/icons/generic_business-71.png"}, {"name": "Nature Publishing Group", "reference": "CmRRAAAAGXThDuWyGpwwhszIbRUEkODXG3OJ-cgSi7KW1Lp8gWBwCvljBEx6B47J6yzhON-xsvquZngbz9T0lP521qiT_s95WDK4593C8hqkcMfLfqsd7fpQi2ES2eRAArsy1IaxEhBM-F2jJuSki-4t5r6aTHPvGhSv-d44Hxfxj7NY3hXLxbd44b98Sw", "geometry": {"location": {"lat": 37.7908343, "lng": -122.4015725}, "viewport": {"northeast": {"lat": 37.79230503029149, "lng": -122.4002496697085}, "southwest": {"lat": 37.7896070697085, "lng": -122.4029476302915}}}, "place_id": "ChIJ6UC5C2KAhYARzxuVZJ7tb3A", "formatted_address": "225 Bush St # 1453, San Francisco, CA 94104, United States", "id": "1e8bce1dec57be1e34642e8cd7f65d042ea007a3", "types": ["point_of_interest", "establishment"], "icon": "https://maps.gstatic.com/mapfiles/place_api/icons/generic_business-71.png"}, {"name": "\uff2e\uff41\uff54\uff55\uff52\uff45", "reference": "CmRSAAAAf3ZDbzhQn6wteuNmRhB9CXGSTu0GVDp6s_mQHso13ZSio6SGwRu0BWp6rR8RPNcgD7VSk-ixaWL6DOJv2IZwPK8uukFbT-0bEP_yl--OlVsZ2hjk1o01DOZu6KseY9EeEhDnWkpkQe-yriJeGjVVeVIlGhSYYdLoQC7S9W70FBK-DDZ3ZJZEgw", "geometry": {"location": {"lat": 35.15344030000001, "lng": 136.8635473}, "viewport": {"northeast": {"lat": 35.1547892802915, "lng": 136.8648962802915}, "southwest": {"lat": 35.1520913197085, "lng": 136.8621983197085}}}, "place_id": "ChIJ6wmPmap3A2ARWAy7_zr4Pcc", "formatted_address": "Japan, \u3012453-0855 Aichi Prefecture, Nagoya, Nakamura Ward, Kasumoricho, 1 Chome\u2212\uff11\uff12\uff10", "id": "0b7c32e01cdc514f642925a54e88ca6537631b64", "types": ["point_of_interest", "establishment"], "icon": "https://maps.gstatic.com/mapfiles/place_api/icons/generic_business-71.png"}, {"name": "The Nature Company", "reference": "CmRRAAAApOgC_34P9uf3xorBe8i6vOZVFGwS0RUYoPnVTPQRzxMtAqG2OkrB_nCjzek_s5jW-30LwseDyx3PReFyE74oUlfn1bNF_l5rDL2gwdf7fu8R-vq_z0s0MExfpGIFECSuEhAONWjeBktZcZrgAxOiO0qlGhR4f90VN4HuwAXbz8RtMcfV7zQB5A", "geometry": {"location": {"lat": 52.8439013, "lng": 6.0851826}, "viewport": {"northeast": {"lat": 52.8453554302915, "lng": 6.086384830291502}, "southwest": {"lat": 52.8426574697085, "lng": 6.083686869708497}}}, "place_id": "ChIJR2pDe_doyEcRrb4gVTyEyQg", "formatted_address": "Leemweg 2-A, 8395 TK Steggerda, Netherlands", "id": "fe86ececee69d081efeaa321edaa07fba8bd051e", "types": ["point_of_interest", "establishment"], "icon": "https://maps.gstatic.com/mapfiles/place_api/icons/generic_business-71.png"}, {"rating": 2, "name": "Nature Publishing Group", "reference": "CmRRAAAAFadRprwaQxOocOnRZatRT6c40TfoQzl071n3tOSyLhSvudL0pT3ip8NIgF-RRJsJDzCP-qEIf3els9SE2tZBcDubwo8P-Ih1GvJ4sxjV8A1-B1bRTX_LW78_p4IEyxkUEhALQFqwKyRGzU2kWxfvbx9MGhR-jv8ry66aJv-QIF-UlcheEExw2g", "geometry": {"location": {"lat": 51.5337342, "lng": -0.1215335}, "viewport": {"northeast": {"lat": 51.53539113029149, "lng": -0.120257819708498}, "southwest": {"lat": 51.53269316970849, "lng": -0.122955780291502}}}, "opening_hours": {"weekday_text": [], "open_now": false}, "place_id": "ChIJeet-Rj4bdkgRhPvcOkhpWSc", "formatted_address": "4 Crinan St, London N1 9XW, United Kingdom", "id": "694dc2f543ff8520555a9289b3ae081fe0b83ce9", "types": ["point_of_interest", "establishment"], "icon": "https://maps.gstatic.com/mapfiles/place_api/icons/generic_business-71.png"}, {"rating": 1, "name": "The Nature", "reference": "CmRRAAAAjRfWAwtrZ9c3fc_dD-oQh8StWGlxcT9Mj8t_6s8d1UKQq-HOkonn84Xzop0TTQMKTMbl13csYsDxpnuTzhNWMONSoKQtJnt-yhlGsLWuOOuMPiMOvnhFZKdFbzY1szF-EhC0a7P4jy4-8X-M3f4KyvjwGhTb4X08aCpQw4AgZCwkAiOzJswHvg", "geometry": {"location": {"lat": 28.4937432, "lng": 77.1825247}, "viewport": {"northeast": {"lat": 28.4950921802915, "lng": 77.1838736802915}, "southwest": {"lat": 28.4923942197085, "lng": 77.18117571970849}}}, "place_id": "ChIJd-3rnjD9DDkRdMlteHZhH18", "photos": [{"photo_reference": "CmRaAAAAUPs2wAQSxwMAXsITKCBvX_0qSLv3s8tgCASlHLYJ-RXPvtpnua04igwD6-6kMyeG8DFsu_mbCBwDCmuu2qPRZVNVeMrHtT8bMUnspsDpT4E8cIjErRXDBHdsJN7_Cf9FEhANQOTUcQCt-pFWyMa4_lMUGhS1MH8KEoPgdae2qjMbVcpkAbTa2w", "width": 917, "html_attributions": ["<a href=\"https://maps.google.com/maps/contrib/113514355622101304993/photos\">Simran Singh</a>"], "height": 1625}], "formatted_address": "79, Satbari Village, Chattarpur, New Delhi, Delhi 110030, India", "id": "b3f031d10cabb205c36608d9e46275f1fc32ba35", "types": ["store", "point_of_interest", "establishment"], "icon": "https://maps.gstatic.com/mapfiles/place_api/icons/shopping-71.png"}]