[{"rating": 5, "name": "Spa InterContinental", "reference": "CmRSAAAAWJK8dZXONfn6uDzAk9Fyqv5nit5nY8qZVFcWmDqZcyue6YzRIsYbEGZPAiNdyx4scTG5KxVElRs180EvIQY6CzVDqTVE9TaorS8ViS2Qt3rWXckdKKpLJqpK0nrsYm0vEhDZKkS-zM4xu1vlNij7HVMjGhT9fejvmmXVwI4ET-63P-MllNCaOw", "geometry": {"location": {"lat": 51.5039885, "lng": -0.1507427}, "viewport": {"northeast": {"lat": 51.5054047802915, "lng": -0.149058969708498}, "southwest": {"lat": 51.5027068197085, "lng": -0.151756930291502}}}, "opening_hours": {"weekday_text": [], "open_now": false}, "place_id": "ChIJdevOZSUFdkgR524RF1MvaZo", "photos": [{"photo_reference": "CmRaAAAAhnNYAYIatU_f4hnXBKeCW6krPFpNUnaeM_oOOSLYcLs6l0RfR_ClUCgEk0LsrdJZh7iwmvyHJvU2luKEhqPZm2ss2MfF-28U4vINEsVKBlwX_4lSu5C2MN7XSbAAy36TEhAf7EGgFYxUeY7pSyco3o9oGhT-NWRyWu3lFpbztm0bzO7PzkLsBQ", "width": 1481, "html_attributions": ["<a href=\"https://maps.google.com/maps/contrib/117833065615565878142/photos\">Spa InterContinental</a>"], "height": 1484}], "formatted_address": "1 Hamilton Pl, London W1J 7QY, United Kingdom", "id": "9e691c916e968f088b48309eecec0ff99bd04441", "types": ["spa", "beauty_salon", "point_of_interest", "establishment"], "icon": "https://maps.gstatic.com/mapfiles/place_api/icons/generic_business-71.png"}, {"rating": 5, "name": "Agua Bathhouse And Spa", "reference": "CmRSAAAAbgItTT6nEFLKeSrtkUjzAfWUa0TAEihGZcsP2XAlAJRGGzZdVO7MEauZwx5EZx3ODOLLvctmQj_i0LYD-NUmKEZcwvZLS80rXBWMmOhYBZ6cjDVelBiyYltyFYf-YLAMEhCaxWTq1XNZ8QLSHR_t8BZLGhS8AosyVL3o24wu7bKkXCf1M9KkcQ", "geometry": {"location": {"lat": 51.5076098, "lng": -0.1057044}, "viewport": {"northeast": {"lat": 51.5089619302915, "lng": -0.104269669708498}, "southwest": {"lat": 51.5062639697085, "lng": -0.106967630291502}}}, "opening_hours": {"weekday_text": [], "open_now": false}, "place_id": "ChIJ5WKTw7EEdkgRXEWfLY3h77Y", "formatted_address": "Mondrian London, 20 Upper Ground, London SE1 9PD, United Kingdom", "id": "25d6a4c8d8704c32954cfa4fb217f4061a805dc6", "types": ["spa", "point_of_interest", "establishment"], "icon": "https://maps.gstatic.com/mapfiles/place_api/icons/generic_business-71.png"}, {"rating": 4.6, "name": "Four Seasons Hotel London at Park Lane", "reference": "CmRRAAAAAisCdCnRpM2MuLx-xfTCb2QSFOKJqLTdxky8IsSeJHI8k0PJZCHc-dP5NLAoV37AOsTj5BqMY2IAj_TTDTpfroKxFunpNb0x5UE7rdmXt65B-yx9ke1RINkcWf84F5PmEhBGLYj-uV3PCByAkgVC18gJGhSCk2PA5oCinq72TMWzA1vHrwoiuA", "geometry": {"location": {"lat": 51.504439, "lng": -0.149911}, "viewport": {"northeast": {"lat": 51.5056628302915, "lng": -0.148657219708498}, "southwest": {"lat": 51.5029648697085, "lng": -0.151355180291502}}}, "opening_hours": {"weekday_text": [], "open_now": true}, "place_id": "ChIJPTReYyUFdkgRFxvvBDglXXE", "photos": [{"photo_reference": "CmRaAAAAMAMvfySUCv-KU_BcpN29jpn-bRNR9k_tenAk1JzW5ttejkWGUxWl_Orr4Fi3Cp5sSFfjWZDEaBg7JRa8zDLZTJRhqqIqm9EnZ8VD-lIvTEE4uOHpR5AMyfc0izT8Mlc1EhCdX-_IR2vfd8iNNB3oE9eZGhSnTMTgeYmRobR_YyMwtW_5wAH8rw", "width": 1280, "html_attributions": ["<a href=\"https://maps.google.com/maps/contrib/103779018958020482083/photos\">Four Seasons Hotel London at Park Lane</a>"], "height": 1287}], "formatted_address": "Hamilton Pl, Park Ln, London W1J 7DR, United Kingdom", "id": "e761b1d79e50d105ca7a3d30006da6eac25b805f", "types": ["spa", "lodging", "health", "point_of_interest", "establishment"], "icon": "https://maps.gstatic.com/mapfiles/place_api/icons/lodging-71.png"}, {"rating": 4.5, "name": "Sofitel So SPA", "reference": "CmRRAAAAeiTT8oyuZmmPEGt0r3QOS5sfHgTWOjn3LjFbFuK-k3kyPXB1iFDTpT4SCbyEjp6E4PLkJTdg9vzPkXUCR3OEi0KhPw1wyd_z-HXh3ljJTzQrU6BVWQilNuM1-RPokK3WEhDdqikdc3ddRWn_C05uMsMsGhSleyp7ovwoH-iFktXC4S2v2BR9Hg", "geometry": {"location": {"lat": 51.5077529, "lng": -0.1326773}, "viewport": {"northeast": {"lat": 51.5090668802915, "lng": -0.1314265197084979}, "southwest": {"lat": 51.5063689197085, "lng": -0.134124480291502}}}, "opening_hours": {"weekday_text": [], "open_now": true}, "place_id": "ChIJuU8_mNEEdkgRAjvr5ZIJZWw", "photos": [{"photo_reference": "CmRaAAAAdvVGCdwSeWdJq1pLyng2wyqaIMgOZ5IeeJZHrgc9geahzaO3w6N7j8GrdWbPEwlBEQTx7dqbwD1dTCb2RQ9oROGdJMLA_TZIsLjocnguoaGwDjdzVADp-AYYTnRok4zmEhBjH8YUHNnpIAWUuJi1YdDdGhSEVA-1Wwp3jgdyRcwdWzy-wRPebQ", "width": 3264, "html_attributions": ["<a href=\"https://maps.google.com/maps/contrib/101579124960182340670/photos\">Delicious Webdesign</a>"], "height": 1836}], "formatted_address": "6 Waterloo Pl, London SW1Y 4AN, United Kingdom", "id": "b69ffd26867dcedf26bb58b4b930edc521b19080", "types": ["spa", "point_of_interest", "establishment"], "icon": "https://maps.gstatic.com/mapfiles/place_api/icons/generic_business-71.png"}, {"rating": 4.5, "name": "Spa One London", "reference": "CmRRAAAAJCR8whLDWXc26uCo26uRCReH3mxGRjbgy7nk5Xmss66m4o4upoGDeehQew1ILKoTM-WFpOCBnTUKzBZ4KofAjiiQacNmBzeGiba_ueF9ic7kjqE2PQx2LjbgBsRMiE9tEhBna21JChEMswAfqLsgd2EoGhR0-cDJwB40eoZGVhi3mTzT53xb1Q", "geometry": {"location": {"lat": 51.51340440000001, "lng": -0.1839821}, "viewport": {"northeast": {"lat": 51.5147533802915, "lng": -0.182633119708498}, "southwest": {"lat": 51.51205541970851, "lng": -0.185331080291502}}}, "opening_hours": {"weekday_text": [], "open_now": false}, "place_id": "ChIJrQZ8xlQFdkgR-hRRowGSTz0", "photos": [{"photo_reference": "CmRaAAAAP7dWEuVEyGuKaKerqHDLwAoJxIhLg6ocZkjbchrRgyAsGufzMsaxBaMNuj4F0NCNKoJjaNh_uWPgGnc8B2MSAmyJKOzjIja7ecgWBh95U_Vk95Cb1etxqgpfTFsupI71EhADLtDAgPp5qZhnxorvTNQ6GhStAggILNQqtEaqiHz4hj13hBDDUA", "width": 390, "html_attributions": ["<a href=\"https://maps.google.com/maps/contrib/109216696479850599448/photos\">Spa One London</a>"], "height": 393}], "formatted_address": "Spa One London, Holiday Villa Hotel, 37 Leinster Gardens, London W2 3AN, United Kingdom", "id": "c28b372f8e5c4e9b2b7828671a9bdc52b9fcf6b3", "types": ["spa", "lodging", "health", "point_of_interest", "establishment"], "icon": "https://maps.gstatic.com/mapfiles/place_api/icons/generic_business-71.png"}, {"rating": 4.4, "name": "Banya No.1", "reference": "CmRRAAAA0NvzfVLjtNxYE2VTylag9RMMaX9jKICbXckqMjCAT8EF307lFTNFW7JgIknu3DNlXSCSf2glEuHp5Tixp2CQlQLS0JQd72DcZm8u_Iii7Cgiv-g1vpa3sLt75AILGWv4EhASopc3m5U0jjiqQZNSJSK9GhS4Broxmg4GgLRuugVKNKsB7eA1tQ", "geometry": {"location": {"lat": 51.53015000000001, "lng": -0.094344}, "viewport": {"northeast": {"lat": 51.5314581302915, "lng": -0.09297961970849798}, "southwest": {"lat": 51.52876016970851, "lng": -0.09567758029150204}}}, "opening_hours": {"weekday_text": [], "open_now": false}, "place_id": "ChIJscLxT6ccdkgR4JQC5l_JcD8", "photos": [{"photo_reference": "CmRZAAAAxGSlzSayA545qZRpRMPgEH6UvhxanACwKVhEn8Ffl06Mnd4QPlfujNT2e46dfRZ-e3SaClrigQF57jZCzDkTJE2wkYrA-OtWsDAwKL36WIhb1lStqWCtOxrOQgU30JymEhBqtaQR0TcpwtPLpJl8gmeBGhSC1i9mZob5Vy33NqIFZyzUoFkZJg", "width": 750, "html_attributions": ["<a href=\"https://maps.google.com/maps/contrib/104730960089505891372/photos\">Banya No.1</a>"], "height": 999}], "formatted_address": "17 Micawber St, London N1 7TB, United Kingdom", "id": "b8f5dcd2c3cf248cb4b7746a6666ed79ae2bbeae", "types": ["spa", "health", "point_of_interest", "establishment"], "icon": "https://maps.gstatic.com/mapfiles/place_api/icons/generic_business-71.png"}, {"rating": 4.3, "name": "Aman Spa", "reference": "CmRSAAAAWVJ_6-teyQigj3YdpJPeawbah4gv0eTqEN8N-qdKAOfVW2QBPGND05uvE9ujhmHk04QCowwfoJ6LWunKcY3UjoRnRHVTJ7y82nmoZFvZfB6kEVyrma4ealGWdgSiZ0AXEhAGqzVlR85hbtaxRPy9tMvMGhTAaZMdpt4CX4s2CAfZtIWN-deLGg", "geometry": {"location": {"lat": 51.510202, "lng": -0.149585}, "viewport": {"northeast": {"lat": 51.5115509802915, "lng": -0.148236019708498}, "southwest": {"lat": 51.5088530197085, "lng": -0.150933980291502}}}, "opening_hours": {"weekday_text": [], "open_now": false}, "place_id": "ChIJD5ZQMiwFdkgRLSuZru8rY8o", "photos": [{"photo_reference": "CmRaAAAAZfiasSQmJtiOtIoicblexKQjPg8V00ypamBVGR5sUJPhajFkOmCvjQqh62rXUdIsVNTMoMZP6-B4cxt7FZ7HV6l2wElZUUYWUfXvluAd4Egnms7EAQrYk8lDTC9uSfxnEhD5BpEEEppmKs5Dn6_lJBqlGhSRH7L1qaw--9lGlptm5Opk32VdKw", "width": 998, "html_attributions": ["<a href=\"https://maps.google.com/maps/contrib/100729532398195187940/photos\">Aman Spa</a>"], "height": 530}], "formatted_address": "The Connaught, Carlos Place, London W1K 2AL, United Kingdom", "id": "d31929c81fd2bbaea43f426ea1c3eb4c9d58b205", "types": ["spa", "beauty_salon", "lodging", "health", "point_of_interest", "establishment"], "icon": "https://maps.gstatic.com/mapfiles/place_api/icons/generic_business-71.png"}, {"rating": 4.2, "name": "Pasha Spa", "reference": "CmRRAAAAdMI0Zcc73fdjDRBh6a_580MlCoSy0ojT7Jn2ivDsWt99I3cyr7zlaZmxCGrmtGsz0C5JJ7T1AF4UuWZWiZT4cfwKM4CA-w1goaCSn-W7PclSRb0eZpS-7D59YLCpyfIVEhBVMIvM4_v9Sy-OU2-Z0MY6GhTv1HMQ75XW14T9rHGIlPTiPabDeQ", "geometry": {"location": {"lat": 51.47949380000001, "lng": -0.094531}, "viewport": {"northeast": {"lat": 51.4808489802915, "lng": -0.09302071970849797}, "southwest": {"lat": 51.47815101970851, "lng": -0.09571868029150203}}}, "opening_hours": {"weekday_text": [], "open_now": false}, "place_id": "ChIJbedMDYIEdkgR0x0Q71082k0", "photos": [{"photo_reference": "CmRaAAAAuTr1EG2lw3qcDGTaRhLuQbNTCDUiMCqfu2nD5q9LVUN1GFdGjSIDajjFnF8lnvP4Rrx6jlNkF1TXm0wIbPyFdRKNBjNDYiv3VtTUor2bHGJoI3ebFiTYcNUc5Hz0H8UCEhCyTyrXCdvV0m-FplhhkHLNGhSbIQsPeP_zaoQoi4HfzpHXS4Dwkw", "width": 1568, "html_attributions": ["<a href=\"https://maps.google.com/maps/contrib/115772334427232276276/photos\">Onder Altay</a>"], "height": 2352}], "formatted_address": "158 Camberwell Rd, London SE5 0EE, United Kingdom", "id": "d1b04fef5269b24c0055f557bc3b40fdd9687204", "types": ["spa", "point_of_interest", "establishment"], "icon": "https://maps.gstatic.com/mapfiles/place_api/icons/generic_business-71.png"}, {"rating": 4, "name": "Art of Spa", "reference": "CmRSAAAAK2oRkOSJ59sa71TJAADdXqzZv3ydOk-qKc4TBh6KfQuJ0_kuIdexmYvhNefObaBtf5x9Q5g_K4qkt2ukNrMCmfaetLrULQ80FxON828wP4t4C8mKKfnFqRLXCBUvFaUEEhDZclKvisLHInHSwoXjvPkdGhQ6Ciz6_4Ask054ketbKsF-CZ8bEg", "geometry": {"location": {"lat": 51.4918258, "lng": -0.1384631}, "viewport": {"northeast": {"lat": 51.4932341802915, "lng": -0.137064169708498}, "southwest": {"lat": 51.4905362197085, "lng": -0.139762130291502}}}, "opening_hours": {"weekday_text": [], "open_now": false}, "place_id": "ChIJ_XNkUOAEdkgRiqbdL-DggK4", "photos": [{"photo_reference": "CmRaAAAAYfbtiE5k7CU9iyZEo1HFNKOKeRlom63BCfoaUZPSnoj5hOB5vhbA563Fu8bi5BHCei-pI-4PUyeFjaSyIGQKf248c5dZMGI1zHpNPXWBABnwgC-FtpiydytpE1qt4SKREhBJvDkispkIgErFuNjHXZMIGhRhotNI3x7aUJpUKARcn86y5-l_Iw", "width": 2047, "html_attributions": ["<a href=\"https://maps.google.com/maps/contrib/104343968318273308658/photos\">Art of Spa</a>"], "height": 2048}], "formatted_address": "46A Tachbrook St, London SW1V 2NA, United Kingdom", "id": "a97ec1ab4be1448fb7dd0a60f2fd209efeaff723", "types": ["beauty_salon", "hair_care", "spa", "health", "point_of_interest", "establishment"], "icon": "https://maps.gstatic.com/mapfiles/place_api/icons/generic_business-71.png"}, {"rating": 3.9, "name": "The Peak Health Club & Spa", "reference": "CmRRAAAAdP7Dfsh3BWnHRcHpImmxIMgXwd7WQXcj9XUCDJlyGmLbPayaB4SvsDJkFqlUTYyYcLZqaFbe5mstNmQM8ssdI57gc72ho1I4iK-G-3zCyJyM5yiKs4hfd4y7fU63c811EhCsowohyzzrrJAdkAlhGpEJGhToHg_Ch0MDSMh5FHp2tg9DLfvBWA", "geometry": {"location": {"lat": 51.498645, "lng": -0.158446}, "viewport": {"northeast": {"lat": 51.49999398029149, "lng": -0.157097019708498}, "southwest": {"lat": 51.49729601970849, "lng": -0.159794980291502}}}, "opening_hours": {"weekday_text": [], "open_now": true}, "place_id": "ChIJXXn7pT4FdkgRcUAS-cWHz2s", "photos": [{"photo_reference": "CmRaAAAA98lpTyCCycBqHLcPbgpXc-JdT3T-m0eev45VWqt1cZEevM2tHxm9Xk96X5e8vqgc-Z-9I2cDrWf4w9sZc7KT80tVsfXfpGLaS4q7bgc2wLNUdAigTX-zYBZFOQNlFopMEhDLWo7uu-gRVqQqa8HO891YGhT7K3bEKDjbqqwt8k4mO6G3MoG7Fw", "width": 1250, "html_attributions": ["<a href=\"https://maps.google.com/maps/contrib/115300751947876612820/photos\">World&#39;s Leading Spas</a>"], "height": 555}], "formatted_address": "Jumeirah Carlton Tower, Cadogan Place, London SW1X 9PY, United Kingdom", "id": "1fb64c8867113ff1f262a2fae67a31fbe0ae133f", "types": ["spa", "gym", "health", "point_of_interest", "establishment"], "icon": "https://maps.gstatic.com/mapfiles/place_api/icons/generic_business-71.png"}, {"rating": 3.8, "name": "Lemongrass Boutique Spa", "reference": "CmRRAAAAiDjeoY_GvGD8jRyJ3F6AmLt71_R-BY7sErsSJU88GNkeaYct3ZciJdgVya4DzuVzFKJaJkTR_M-_766Igo-sVMZtxU030ui7uvcX7jKJJDdZ1fvf-Qa9S1vaWzXjoc1EEhBCquBEFGP9HuC4PkfTE_gAGhTqN3fJ4q5CpbChMWD5N0MdupuyAA", "geometry": {"location": {"lat": 51.5146976, "lng": -0.1609493}, "viewport": {"northeast": {"lat": 51.5160355302915, "lng": -0.159671569708498}, "southwest": {"lat": 51.5133375697085, "lng": -0.162369530291502}}}, "opening_hours": {"weekday_text": [], "open_now": false}, "place_id": "ChIJU_ND0jQFdkgRQGp98dBa4Uk", "photos": [{"photo_reference": "CmRaAAAAa4Hsg1RfMSlLtHcHuKIaYJLrCHCOaToKIEpkG_XlQBPaz85nM-rZpi0F2wbjU-3kXJ05QSonun0qPL2gjfixRAWEOnLFOAtBDD9EBdWSWI9LXF03vUqhmgvXrUlJLQLWEhBhmpcjQVp5DfB-zWLOiloJGhQ-smm5tm_lDsJcJeHn_J4krYTWdw", "width": 393, "html_attributions": ["<a href=\"https://maps.google.com/maps/contrib/100540470834051922169/photos\">Lemongrass Boutique Spa</a>"], "height": 591}], "formatted_address": "8 Seymour Pl, London W1H 7NB, United Kingdom", "id": "bc749862fd84d47a5dd4202cbc7f48aa03755b6d", "types": ["beauty_salon", "spa", "health", "point_of_interest", "establishment"], "icon": "https://maps.gstatic.com/mapfiles/place_api/icons/generic_business-71.png"}, {"rating": 3.8, "name": "Skin Health Spa Marylebone", "reference": "CmRSAAAA6I8ILU_6tdgd0NQ7pHzK4edK0-1dCuk9P89LdeRfD35mGdgtRLmai0MreNt084oX3AuOrvixHxD9p3NtQLD929WizOmParKjFaTgJYxvOFg650ioZrY-f6L8QIn_GhpsEhD6ntxY8mMIRU1s4JfBYXtXGhT03KS_Xzob1x0iwk9fIAwX43m5pA", "geometry": {"location": {"lat": 51.517291, "lng": -0.1515494}, "viewport": {"northeast": {"lat": 51.5186470302915, "lng": -0.150102019708498}, "southwest": {"lat": 51.5159490697085, "lng": -0.152799980291502}}}, "opening_hours": {"weekday_text": [], "open_now": false}, "place_id": "ChIJhXa3vtIadkgR9xMUVIu817k", "photos": [{"photo_reference": "CmRaAAAAFNvCnjkmjNCSEBEoVZY742Wv7CV4_fXkeHrZkfAiVnyTmAALGIYFO1bDzvgV0BZARlSlGssoiJwGxBsWHwqxDoocyQKUxFesrVuinGdOGjClj7Bl1SC9ayATJb2ZVuvlEhCnZNb6qDC6IDGrwRaeSUUvGhQ2sz5MwIm8x6KgbVktZVAZynhDPA", "width": 1396, "html_attributions": ["<a href=\"https://maps.google.com/maps/contrib/117337009523279169564/photos\">Skin Health Spa Marylebone</a>"], "height": 1393}], "formatted_address": "16 Thayer St, London W1U 3JU, United Kingdom", "id": "39618e83f0d79a3ce9861786652df9431967895e", "types": ["hair_care", "beauty_salon", "spa", "health", "point_of_interest", "establishment"], "icon": "https://maps.gstatic.com/mapfiles/place_api/icons/generic_business-71.png"}, {"rating": 3.7, "name": "Chuan Body + Soul", "reference": "CmRRAAAA2rGCiPq77UnslgO1rpOhfTXE3XcpVMA78O9ZbR62UcgSo9guxEB4yoxwivFZ8ZMPvo0DgtJDLDxKlq6Yad0V1twUfFEAfEHzBRfnHBk3Bi6O9UxmRtdpJYoLfyL-WrZYEhCp_TgIdz31coz4uTsMnCGUGhTIpAbw3zmsjFv_wBg6VRJTwJ6OhQ", "geometry": {"location": {"lat": 51.5173771, "lng": -0.1434959}, "viewport": {"northeast": {"lat": 51.5190431802915, "lng": -0.1421292697084979}, "southwest": {"lat": 51.5163452197085, "lng": -0.144827230291502}}}, "place_id": "ChIJj375B9UadkgRtn24a74zZE0", "photos": [{"photo_reference": "CmRaAAAAcyrPC7lT1Gqj01gz8sCFfV-2HomifzFIWhPeXv5JQHQGU9dJR_OAI1D6vPU5wlau5XgSa10jIa-sWz8pe6vAgsbI6LUJDMqqItsDL2BvLahUdhwFA9SRYj9tOG6TUSJYEhDYnUJ15AKsajMJCZVAo2v1GhS5bhFkBgwEfhKoweDmYfmTTaJesw", "width": 2368, "html_attributions": ["<a href=\"https://maps.google.com/maps/contrib/103292467327600724987/photos\">Lucia Camara</a>"], "height": 4208}], "formatted_address": "2 Cavendish Pl, London W1B 3DE, United Kingdom", "id": "99eef9111e62af9c095eeb8929f80fdd8f38ddba", "types": ["spa", "point_of_interest", "establishment"], "icon": "https://maps.gstatic.com/mapfiles/place_api/icons/generic_business-71.png"}, {"rating": 3.7, "name": "Thai Square Spa", "reference": "CmRRAAAAXhMCzBMEmdMRPqLnK3JRsNy8Q3nxoR4JjPZEBgOrLaDRFhmdFuUbIdXhWm4fCsMSZzaPpCJpkih6ZVgMMvlOrEheHz4YlNsvqPPEZR2XxW8zA3bsoR_0A77rT19aEaztEhCwf69rqEK6nu9BeeXIh5QOGhRvGGSeCAg8-a59APSD8XXSefefvw", "geometry": {"location": {"lat": 51.5072102, "lng": -0.1251588}, "viewport": {"northeast": {"lat": 51.5084717302915, "lng": -0.123850519708498}, "southwest": {"lat": 51.5057737697085, "lng": -0.126548480291502}}}, "opening_hours": {"weekday_text": [], "open_now": false}, "place_id": "ChIJq6QX4MwEdkgRds2Nw_ZbJxs", "photos": [{"photo_reference": "CmRaAAAAZTx0OWxcTI83kB00JCjzWes9BsnS1LAdoffmSKSp1EG5QY2n9bozUViQ8H6OsFnPlqMVEdydAjaCXQIRJws-KUDTY5MlKOcYC_jtt-tMdW59nrSX4__pJBcUjnUxmHsLEhAyhnU6hlrYB_NvBvM_ltSPGhQ0m-ZIs7omqohx8so9oPt3BeLCSQ", "width": 2448, "html_attributions": ["<a href=\"https://maps.google.com/maps/contrib/104679265537493679378/photos\">Andy Benedetti</a>"], "height": 3264}], "formatted_address": "25 Northumberland Ave, London WC2N 5AP, United Kingdom", "id": "66a55c791475b7efab2ff170b96c8e91511d0f21", "types": ["spa", "hair_care", "beauty_salon", "health", "point_of_interest", "establishment"], "icon": "https://maps.gstatic.com/mapfiles/place_api/icons/generic_business-71.png"}, {"rating": 3.6, "name": "The Spa Dolphin Square", "reference": "CmRSAAAAeFeIGfNPcXp2cW4f7tsc_MjOngqkoYVwXZYQxrTaHN1De6QKHu7KHoABZOAUHfTtS6XiX3AgcV90PQbpNdjwePvF-e1SJvSohXLFTlANMtck0KjipetLqQeiMSie0T7yEhCJDWEOdipYzUPC05GehpW0GhRGVVQsoOA4AiEmw1KldA7Cb0-FnQ", "geometry": {"location": {"lat": 51.48716899999999, "lng": -0.136624}, "viewport": {"northeast": {"lat": 51.4886109302915, "lng": -0.1353163197084979}, "southwest": {"lat": 51.4859129697085, "lng": -0.138014280291502}}}, "opening_hours": {"weekday_text": [], "open_now": false}, "place_id": "ChIJq8AKueMEdkgRoNaLr58Z0-s", "photos": [{"photo_reference": "CmRaAAAAEQdBjS6o2g1sSo74G9ohWxjGIe95hk-BMmZxvj7AtqgtATLaPOdlsxR_9j_vJAzFcKRhukHJ0gLJ797l6uDVNzKbkG4PBbYhyCPLPGGr-w3OAMpDSiD3-nWxHl1LnLIyEhAhaNOxNjWF_9ONQi-kF4_5GhTsZJi3gMt8jrri4IwZrjKsIdMBOQ", "width": 8176, "html_attributions": ["<a href=\"https://maps.google.com/maps/contrib/113149211546978274266/photos\">Ricardo Faria Ornelas</a>"], "height": 6132}], "formatted_address": "Dolphin Square, Chichester St, London SW1V 3LX, United Kingdom", "id": "837b4d48c0fc12f36573ea638c1d95c380e8ea1f", "types": ["spa", "point_of_interest", "establishment"], "icon": "https://maps.gstatic.com/mapfiles/place_api/icons/generic_business-71.png"}, {"rating": 3.4, "name": "Crystal Palace Nails & Beauty", "reference": "CmRRAAAAKi3qgI4B_zKyUg8dTwHP0B05H1hDfZWM8Oo27Q7ayYfsAZb5TehkYnpEzvDeoWyAb1mmu7B7bo2-HGuz7eOW1udoyzz_XrxIVEJZpbrYZURL_fif-jU7IsMVnKMrgjNfEhAq6podlla4VzUY4JAuPRz6GhTxznYDRDooFC7O1FTgRFiiXTpf6w", "geometry": {"location": {"lat": 51.519394, "lng": -0.162221}, "viewport": {"northeast": {"lat": 51.52069968029149, "lng": -0.160850669708498}, "southwest": {"lat": 51.51800171970849, "lng": -0.163548630291502}}}, "opening_hours": {"weekday_text": [], "open_now": false}, "place_id": "ChIJNRYgMsoadkgRS3C7JejEQSE", "photos": [{"photo_reference": "CmRaAAAA5MvlWf01XVvFPgW2Lqby-xIqzc-uqAqjFAgSb54vzl35fiUSHZvpmUMNcNaqyFSkkhFNLirGxTBEv8vzQ6ZLffu9YYfy4IyIi13x0lnNNsONKNeiyuzjRnC5lgJSREEgEhD6xrwxuM4NKEAg6D62ZV2uGhSF4U62NmYWdA_oSaRm5S_NimZOqA", "width": 2048, "html_attributions": ["<a href=\"https://maps.google.com/maps/contrib/105994701283258674985/photos\">Crystal Palace Nails &amp; Beauty</a>"], "height": 2047}], "formatted_address": "41 Crawford St, London W1H 1JN, United Kingdom", "id": "fed927fa9846b01aeb961f43761e639f19696dbe", "types": ["beauty_salon", "hair_care", "spa", "point_of_interest", "establishment"], "icon": "https://maps.gstatic.com/mapfiles/place_api/icons/generic_business-71.png"}, {"rating": 3.3, "name": "Athree Spa", "reference": "CmRRAAAAlGZmNZcYI3-2CYGMm0XffTq8EN9zCZEP0fsFA4gaqcdtkU1w1ZdB9InVw6kffXQLRZUw-8_BVl9zB-B8kS733Ndpy1RgoqEF4TVq11e2wjzhwvikxQhtXLRWDYFs4c_yEhDJuzQqYNXYbGTTI1vqB-eZGhTCzYY_Dtgf20e3cf1I974ykTNCTg", "geometry": {"location": {"lat": 51.5261592, "lng": -0.0998259}, "viewport": {"northeast": {"lat": 51.52749928029149, "lng": -0.09852916970849797}, "southwest": {"lat": 51.52480131970849, "lng": -0.101227130291502}}}, "opening_hours": {"weekday_text": [], "open_now": false}, "place_id": "ChIJO7Hi91kbdkgRgZ8HuXrcfj0", "photos": [{"photo_reference": "CmRaAAAARoffGz_RxSQMtyHrw0itEMBFg3XF4fskg6xJuYJAVkNIbHlmZ1xZ-qi8wejYfPTjBsFRGurQiOv-be9w28ikcso84uwHpxQt0sTlhmYNx53HR3m3Cqqm1nzlh3gN6BTuEhBhnwK6DMpzue5uzLuS1dLnGhSDctFsj48w4FMmSN0in8eKda3fsQ", "width": 5312, "html_attributions": ["<a href=\"https://maps.google.com/maps/contrib/104162375827671596586/photos\">Athree Spa</a>"], "height": 2988}], "formatted_address": "180 Goswell Rd, London EC1V 7DT, United Kingdom", "id": "83fbf63d5be3611cb549b24b7c52dabc6f595863", "types": ["spa", "health", "point_of_interest", "establishment"], "icon": "https://maps.gstatic.com/mapfiles/place_api/icons/generic_business-71.png"}, {"rating": 3.1, "name": "The Chelsea Day Spa", "reference": "CmRRAAAA4b05cZQln3v8zCcoZL5FqVt0QXvYVoN8wk382dBFHbp530ZlnwxOLeGRzJ6JJQPa4_O6EYjK7Iq-cS61bTx-fODh47QJ0D3R1zFx3AzJCX_CKVZAH2ysmyFSLbK9dzeOEhAmR9vIhebyEnqdwum7AcVIGhQIUr-sL3MRic8TtSJ4yqUU6ImgFA", "geometry": {"location": {"lat": 51.4892331, "lng": -0.1640439}, "viewport": {"northeast": {"lat": 51.4906174802915, "lng": -0.162728519708498}, "southwest": {"lat": 51.4879195197085, "lng": -0.165426480291502}}}, "opening_hours": {"weekday_text": [], "open_now": false}, "place_id": "ChIJu-pOrhQFdkgRu3cJ2MwZ8BY", "photos": [{"photo_reference": "CmRaAAAAHjhR-55O8SX1DPQB0PIwJs6gzOYINgplQwLiBk0o1cZWPKNVBdrchlKaj07QnDeVRInJyowu1-QkC0zdFO0AFEY9QOSP328wTILbViQPexyI6Ht_3Jho8DDqPmpcxJrIEhAANFXMKryaZhy0aGLIHl3SGhRDmscSqmHq_WRUdNPoPo5BAwH93Q", "width": 2048, "html_attributions": ["<a href=\"https://maps.google.com/maps/contrib/101352145602967352566/photos\">The Chelsea Day Spa</a>"], "height": 1365}], "formatted_address": "69A King's Rd, London SW3 4NX, United Kingdom", "id": "ffd8c4612d98f45090dedcde8501d9d156263480", "types": ["hair_care", "beauty_salon", "spa", "health", "point_of_interest", "establishment"], "icon": "https://maps.gstatic.com/mapfiles/place_api/icons/generic_business-71.png"}, {"rating": 2.9, "name": "St Pancras Spa", "reference": "CmRSAAAAkzEQEN9wySnBkvR2EaRMVZw4Ve9_YJc-LkJAWPpIvG2A-grKDyyl2jn_E3T6Jb5nyOWkk7ZhaSfMFF1y1WgVo-mg3wVHryGeyStX5aaPkTGdcqaWLBvDxixxowwBpa8qEhBM0wogI53PSGVaW9joo8nWGhRuBp46U_l_7IhMCQzwUcyPwwolWw", "geometry": {"location": {"lat": 51.5297442, "lng": -0.125888}, "viewport": {"northeast": {"lat": 51.5310931802915, "lng": -0.124539019708498}, "southwest": {"lat": 51.5283952197085, "lng": -0.127236980291502}}}, "opening_hours": {"weekday_text": [], "open_now": false}, "place_id": "ChIJYy3WeDwbdkgR8tgh7vOMuP4", "photos": [{"photo_reference": "CmRaAAAA5JWKAzZuI-F-nWd_yWSFskrH-OBxEOGqdQAW49duvI1jLIm4yQfOR5KDx9ATN1anweiSzUK2wGIBbafzqfKPNB1k8uTBATNDy9U6e3xr_pWV-vfhGNapgGbcWggad77REhDQy77XniUXgAZR7gO_5Xz7GhRAAD5lqpaA19plKkPHlrMPLun88w", "width": 3024, "html_attributions": ["<a href=\"https://maps.google.com/maps/contrib/112351306642785329510/photos\">Maurizio Lettieri</a>"], "height": 4032}], "formatted_address": "St Pancras Renaissance Hotel, Euston Street, London NW1 2AR, United Kingdom", "id": "27d715aa77ee03d2ebe4e74ab028260d6f079cbd", "types": ["spa", "point_of_interest", "establishment"], "icon": "https://maps.gstatic.com/mapfiles/place_api/icons/generic_business-71.png"}, {"rating": 1, "name": "The Spa at Four Seasons London at Ten Trinity Square", "reference": "CmRSAAAAiRAdwoybvkTl7-VKUEBL5_uAsmwzxY1cAb8oXda9zm8RnDAX3osl-QG-s_4tbiIJMIOyc3r4QG6-07k1Y3sxo_QR2cNDMeS4tNDYLhmPOFpKrQxv2SZ4FfdxjiHix0H1EhBaOgVh0CFNAInAqnAo-3YdGhRKlCl55uYxxkITjAqKmoj6Xuj8tg", "geometry": {"location": {"lat": 51.510102, "lng": -0.07798}, "viewport": {"northeast": {"lat": 51.5114509802915, "lng": -0.07663101970849796}, "southwest": {"lat": 51.5087530197085, "lng": -0.07932898029150204}}}, "opening_hours": {"weekday_text": [], "open_now": true}, "place_id": "ChIJ3bPPI0wDdkgRLiTR02uq-_E", "photos": [{"photo_reference": "CmRaAAAAMI5Q_FSy-Y_km-lZ9BwG-QOljAHHrCF9aNAdvri2pirawAKtINAIO9ebPtK-YXpNEIjDgflU5ERyc2uWdB8SR9dFnsMmFvolgkVmhuTfDBGwnIgGiFeCLVj8KUxnAflZEhBcCHvgXaauFsdXjKaa8WAeGhRhvQKPqLlL68g9TdBKkrckSUfu3A", "width": 1168, "html_attributions": ["<a href=\"https://maps.google.com/maps/contrib/105414203320626584170/photos\">The Spa at Four Seasons London at Ten Trinity Square</a>"], "height": 1166}], "formatted_address": "10 Trinity Square, London EC3N 4AJ, United Kingdom", "id": "0a87a3be3b2003711eba208b324802518a9b6915", "types": ["spa", "point_of_interest", "establishment"], "icon": "https://maps.gstatic.com/mapfiles/place_api/icons/generic_business-71.png"}]