[{"rating": 4.8, "name": "Museum Air France", "reference": "CmRSAAAAB9wmMyyQjSaEyU132yt1_hNEXt0iv8QWqO_90MUl0U9afHUMubFYThc94UE1ZZLLjiJ1ZzG0XAX9rcIBGqpzpHuTCHFjdiLwgUbAtvWy8JdN1i9aM_shWfkuNADwJZuYEhBqF_qRylmaVnh9W5HBRGhXGhSpwQSnIGkeJxBzKhlY3smb2Mj58A", "geometry": {"location": {"lat": 48.86248930000001, "lng": 2.3147536}, "viewport": {"northeast": {"lat": 48.8638268302915, "lng": 2.316298380291502}, "southwest": {"lat": 48.8611288697085, "lng": 2.313600419708498}}}, "opening_hours": {"weekday_text": [], "open_now": false}, "place_id": "ChIJ_WcgK9Fv5kcR1B5EkLqQoJg", "photos": [{"photo_reference": "CmRaAAAAxKE8dKiLsOGyhYPXk7fmTODp6v7rWDv4hC8DIFb4haoS1sUbs6RAPLt0db-y2UzrxPGk_txznOhUbD6ou-hgw2vcmTCkHYgzgBUg6qfLWRFCR25l_7fZF9mseA2CR4osEhBRVEnAkF-mHadOlX2ns2O8GhR3HsV1FamoCENTc0NnZXr0bVzhgw", "width": 2048, "html_attributions": ["<a href=\"https://maps.google.com/maps/contrib/109104673503451209616/photos\">Vladas Portapas</a>"], "height": 1365}], "formatted_address": "2 Rue Robert Esnault-Pelterie, 75007 Paris, France", "id": "c5aa8370c854e546522c083fc467ad701573aa8f", "types": ["museum", "point_of_interest", "establishment"], "icon": "https://maps.gstatic.com/mapfiles/place_api/icons/museum-71.png"}, {"rating": 4.7, "name": "Louvre Museum", "reference": "CmRSAAAA8x6rkKQKlfd2wt6OPpGqAvsYwlLS5F5V63eTnjiU5jCfjJgc5gFkaybettzF8Jf-Hou5ILF0MSfldrlC5bk_SMmg6MUv5VUSI6BF2CHxssj-8gMz-P6zOKfRL7HEhVX6EhB1RgALSeZfM5mZsw-fop6YGhQlVdqFlFTut1JVzvYqlx6XMgD1Uw", "price_level": 2, "geometry": {"location": {"lat": 48.8606111, "lng": 2.337644}, "viewport": {"northeast": {"lat": 48.86313575, "lng": 2.3391953}, "southwest": {"lat": 48.85976955, "lng": 2.3329901}}}, "opening_hours": {"weekday_text": [], "open_now": true}, "place_id": "ChIJD3uTd9hx5kcR1IQvGfr8dbk", "photos": [{"photo_reference": "CmRaAAAABytDr6yQVlwRUfhQmJfPakI9_dCsB0hkG5pZUnm9a-jQm1v0gOgPdmN7dKY9tlbXZAIXSVjpTAG3QAR01bF5KzylK_U0_bumRHUBcqKWnSgQ3uYTnqdxTbwD8MHOxzNlEhC0zBBTMI3tfgpVqfDWO17xGhRlXkHI44J_wWQdgJqxAmVWFV2KuA", "width": 4288, "html_attributions": ["<a href=\"https://maps.google.com/maps/contrib/109983477559905217030/photos\">Christophe Jacquet</a>"], "height": 2848}], "formatted_address": "Rue de Rivoli, 75001 Paris, France", "id": "9a007d81ca8f47ed30ddaf39c4174ef773b351e0", "types": ["museum", "point_of_interest", "establishment"], "icon": "https://maps.gstatic.com/mapfiles/place_api/icons/museum-71.png"}, {"rating": 4.7, "name": "Mus\u00e9e d'Orsay", "reference": "CmRSAAAA-A1RRwxCSKVs-WEM8bytvMfkbVQ2Vq5XiAppXeV2258luGKCyxZozuCNi6-khf2SVbROX7h_Yy7L91E7JHqWZqQDdwGm1VyUacpQxoMv-hmFNYhytVfI5QFddfd1fgW-EhDqIa02hEDmtrr4X3x_GHZLGhTb_icJvtBwB9UpaJSc2jLKlkUMxg", "geometry": {"location": {"lat": 48.8599614, "lng": 2.3265614}, "viewport": {"northeast": {"lat": 48.8615291302915, "lng": 2.3275171}, "southwest": {"lat": 48.8588311697085, "lng": 2.3236943}}}, "opening_hours": {"weekday_text": [], "open_now": true}, "place_id": "ChIJG5Qwtitu5kcR2CNEsYy9cdA", "photos": [{"photo_reference": "CmRaAAAA-mMOKK4GtKiRYit7irgp9tIYzJ-d3u80gfH_DVw7NVDPGoPkh5Ex-r6MNHGlAXd0f4CgujHMivBsfm47KBqqhXu1llQf5j66KU9AxL7T8waZcHQFa3QGULbMRzjFO7K9EhBwWWO2ve2qyoih10vB0IyrGhQlBFA1QX4Kfaz-Nq1Kfd59HSl4UA", "width": 2848, "html_attributions": ["<a href=\"https://maps.google.com/maps/contrib/104198155525513925723/photos\">Endre Horv\u00e1th</a>"], "height": 2136}], "formatted_address": "1 Rue de la L\u00e9gion d'Honneur, 75007 Paris, France", "id": "324ebea255dabc1cb3a5ca92839d3949530e05e3", "types": ["museum", "point_of_interest", "establishment"], "icon": "https://maps.gstatic.com/mapfiles/place_api/icons/museum-71.png"}, {"rating": 4.6, "name": "Mus\u00e9e Nissim de Camondo", "reference": "CmRSAAAA-WYPyTI1uz1WbPaObMh3vW_rU3Yf3CS7aeajEG6-8mgizqOsuMHEZpWc3_w_ycnk5CEWEcEfZGuv_ybxp7a54F7P6kUgoFQu2438aNQ4SfJNP4kQVTK4k80Qr4PfQZ9sEhCS9ETc1V-gxDP74FS4GKQ9GhRN0l2qFM6UOPXPBG6WVmcgntrlCQ", "geometry": {"location": {"lat": 48.87892909999999, "lng": 2.3126731}, "viewport": {"northeast": {"lat": 48.88019123029149, "lng": 2.314118930291502}, "southwest": {"lat": 48.87749326970849, "lng": 2.311420969708498}}}, "opening_hours": {"weekday_text": [], "open_now": true}, "place_id": "ChIJ6VmGh7dv5kcR32uxgrtK3Z4", "photos": [{"photo_reference": "CmRaAAAAK3tDLsyJtjH7Iu6EILIu5Syc6bMshmHzABZRk1QBts42d2LUTLVdFj_MUKjiyTCEsmyowVmdQ_0vQ3YoDQoXiC_5v03eSTdoIA1F3LDGstOfsKhghfKcT1zepvTAP8YBEhB6i0zD8oIiGsBLjHvVU3YuGhTLfZ2tfoc8GZIg1gXqPyHmUndQdA", "width": 1024, "html_attributions": ["<a href=\"https://maps.google.com/maps/contrib/109559724969120083154/photos\">Laurent D. Ruamps</a>"], "height": 637}], "formatted_address": "63 Rue de Monceau, 75008 Paris, France", "id": "5818bdfd3b4e137611fb13e75e920fe130030dad", "types": ["museum", "point_of_interest", "establishment"], "icon": "https://maps.gstatic.com/mapfiles/place_api/icons/museum-71.png"}, {"rating": 4.6, "name": "Orangerie Museum", "reference": "CmRSAAAAtNPKvrHqYoD-eDNXw4Na91ifcHet0AQFbCwCcbeZcBqQwnPPXT_9hcyaGWNF5JBbvjOt9_Bu29rvUA7EOAHcrxf1MaIxtDe1PsFKhaRX9SbWwJ__Uc2nH5FEYByqcWswEhDSAZH6iyJv2stApKuCbDubGhTaZ4TUkUvOC-erkeep_vbRMYqcnA", "geometry": {"location": {"lat": 48.86378839999999, "lng": 2.3226724}, "viewport": {"northeast": {"lat": 48.86588105000001, "lng": 2.323712480291502}, "southwest": {"lat": 48.86309084999998, "lng": 2.321014519708498}}}, "opening_hours": {"weekday_text": [], "open_now": true}, "place_id": "ChIJo6qq6i5u5kcRCpYBp4rQP9w", "photos": [{"photo_reference": "CmRaAAAAQrjPboelOUET3cxjR2PfPFxNQQxSWvA3k6ihVrRmuND5Cu3aUgx-vSQoUQ_1AH7jqT3w-4zd74omJoDEvygEDmC8hUHrIgrQGPFbgU5SQRLY6E_s7CAVaG6j6ZxqUuh-EhDJRzwSgnt5oGdWCb7nQDQBGhQL9Os1Or1EPyMqWaytuh2efHyWHw", "width": 4160, "html_attributions": ["<a href=\"https://maps.google.com/maps/contrib/101185860719511680643/photos\">Giuseppe Lucania</a>"], "height": 2340}], "formatted_address": "Jardin Tuileries, 75001 Paris, France", "id": "bfd8989fc626265fe8150c9db81de9025ee3dc1e", "types": ["museum", "point_of_interest", "establishment"], "icon": "https://maps.gstatic.com/mapfiles/place_api/icons/museum-71.png"}, {"rating": 4.5, "name": "National Museum of Natural History", "reference": "CmRRAAAAk9pUdnDvR4SB1bwfeG8RIjcbLHuTmZo4oLB8wTEM6ygdvRJJrag4UU6IqJziXiXcZX3TLStLXXZ06Y7NlyBpD31Ev7E2iHZxuqlbLk_HPnl7t9gHt8-Q430oGYhxG3t8EhDNCFz-u_GCeFyY-9JGwzkEGhRqDVYa3VfBK-Mvf_CzkALngLBGkg", "geometry": {"location": {"lat": 48.8443425, "lng": 2.3562101}, "viewport": {"northeast": {"lat": 48.8456914802915, "lng": 2.357559080291502}, "southwest": {"lat": 48.8429935197085, "lng": 2.354861119708498}}}, "opening_hours": {"weekday_text": [], "open_now": true}, "place_id": "ChIJEURALfFx5kcR4cbxSSHWQ0c", "photos": [{"photo_reference": "CmRaAAAAjaL8mTHzxJAr70Twb3VLzFWALbapm4JzuSF3_Nu9IAllSjVQ0YY8G-wo1m8qJCIpawsGhfBYpacvDteYm8CDCclkwu1Muq_ljsstR4m3ilbRLem1HI-qXMez83cbPPeWEhDW4P4PVDrx1oj4aJ5rKq4JGhTTNPHmi3_xiNuzBl0vsH77QvgRzg", "width": 4128, "html_attributions": ["<a href=\"https://maps.google.com/maps/contrib/116329647050068364523/photos\">Val\u00e9rie Payen10</a>"], "height": 2322}], "formatted_address": "57 Rue Cuvier, 75005 Paris, France", "id": "c9b20c83264c29f12d01829dad7b5117af7ecf3d", "types": ["museum", "point_of_interest", "establishment"], "icon": "https://maps.gstatic.com/mapfiles/place_api/icons/museum-71.png"}, {"rating": 4.5, "name": "The Army Museum", "reference": "CmRRAAAAQCuaOw67FlFm_PolRBxQI4EjbtlEByWfPKppbx6U7RC-vaCZ_ur0VJBQP5Gg79p4_g4NbcfJfewU6bhMwmcaV4Lv7XRA0zqxnFh5nH494kZbeiimh7sCfPA1xFo3iFKJEhCm3CuDF3_qBHak6py8iaehGhRkBDt52p-YDFBHJ03tSyn67TVu_w", "geometry": {"location": {"lat": 48.85579329999999, "lng": 2.3125934}, "viewport": {"northeast": {"lat": 48.86072129999999, "lng": 2.313960630291502}, "southwest": {"lat": 48.85151170000001, "lng": 2.311262669708498}}}, "opening_hours": {"weekday_text": [], "open_now": true}, "place_id": "ChIJv-rX7Ndv5kcRJ0IdTc55HnY", "photos": [{"photo_reference": "CmRaAAAA2du2vk4ajzPmfGAo0Rsc1NGGK7L1g0FHZRxSGsuqdGhHtdbliLqTnDNJmCDnCcV-1d_wxZdUkumY1hplqcSlKitwcabKztPxtx_MqgQh2t5V0KsLB9kt3mEjLcSOy8jBEhABSfydRJAnNj6CulZxnNZmGhTwGrFa21K2mcvmRJ2aXWCYzcrrPw", "width": 1600, "html_attributions": ["<a href=\"https://maps.google.com/maps/contrib/106402983051561510033/photos\">lidija jembrih</a>"], "height": 1198}], "formatted_address": "129 Rue de Grenelle, 75007 Paris, France", "id": "e044781d452a6d02b78584179dceac1badffbfd7", "types": ["museum", "point_of_interest", "establishment"], "icon": "https://maps.gstatic.com/mapfiles/place_api/icons/museum-71.png"}, {"rating": 4.5, "name": "Rodin Museum", "reference": "CmRRAAAAziftl6270TpcqRVJOvcabwMDBvapJ5SLqhCp6LHAQv_328khYCDOq7vsIsYgiYiyn6fkTu2MvfKU9qvGj6H5D_mA02D59EI0dejYp0SQy8_L9ctfMSmVeTY1tz24UFbOEhDFH0pg7OqpkZx5YJbqlwNAGhRvwFrLvDY7S5tyZrwSVp7t5onJHA", "geometry": {"location": {"lat": 48.8553072, "lng": 2.3158354}, "viewport": {"northeast": {"lat": 48.85697428029149, "lng": 2.317364780291502}, "southwest": {"lat": 48.85427631970849, "lng": 2.314666819708498}}}, "opening_hours": {"weekday_text": [], "open_now": true}, "place_id": "ChIJQ9vMHipw5kcRWHC2ESjYaGQ", "photos": [{"photo_reference": "CmRaAAAAGo8vYL3keOTRHnLAVKaNUaecRuAw7Uj6zoKukPSxkLTGOMZ5ar9yWzibOlguevD_zEI0akPq9xozbCVXQGh2ErczSXfleBiaG2leY1D1PXgX54MUQsMvV-VZVpn6ksPLEhDv40r2DTj9WXx4O9pw1-ZsGhTk4RpvNlxNJOaWsngSf_7YtSXqaQ", "width": 1920, "html_attributions": ["<a href=\"https://maps.google.com/maps/contrib/104976517356691726555/photos\">Petar Stoimenov</a>"], "height": 1080}], "formatted_address": "79 Rue de Varenne, 75007 Paris, France", "id": "8faebb8edfa1b017742611c829e9593330ffa552", "types": ["museum", "point_of_interest", "establishment"], "icon": "https://maps.gstatic.com/mapfiles/place_api/icons/museum-71.png"}, {"rating": 4.5, "name": "Metiers Art Museum", "reference": "CmRRAAAArmPMJmYL6ivySOX3L3SCstStJapD53d34UO35C-EZbZrMI4ZGxYfxGlJckr3k_aZtEIOCIRz9_idsAqqEgJucEG7lEA_1IBFb1d_6TII3lKdCptQ86uWseaxv0dNZAgiEhDnSwtDUNb1r6msRtsrozmyGhSl_WiLo_xMAbIucbmPqaWFSMY3Ag", "geometry": {"location": {"lat": 48.86663919999999, "lng": 2.3554383}, "viewport": {"northeast": {"lat": 48.86814788029149, "lng": 2.356274980291501}, "southwest": {"lat": 48.8654499197085, "lng": 2.353577019708498}}}, "opening_hours": {"weekday_text": [], "open_now": true}, "place_id": "ChIJNUTIphpu5kcR4h07VuxFIHc", "photos": [{"photo_reference": "CmRaAAAA-bfvcHDAa9ZYIGZhy_OX29ThlzLJr6V55Qrnn0DyB4X3Txnqu-rZyRduTVRzVDn7Ign4uezn9puWVUw51U1fbXIqGuy4XeQ7K9BIvPO0vWBcWILQGnH8CP4bVZ1oRriQEhA7XKzYPLhr-YovmpTF7OyNGhRgQS0iOWAk8tDtmDcUBGR9YL7GNw", "width": 378, "html_attributions": ["<a href=\"https://maps.google.com/maps/contrib/100087783093988552392/photos\">Mus\u00e9e des Arts et M\u00e9tiers</a>"], "height": 378}], "formatted_address": "60 Rue R\u00e9aumur, 75003 Paris, France", "id": "8361ea0e7cef57e52503ed18c71a9c3860a6fd5f", "types": ["museum", "point_of_interest", "establishment"], "icon": "https://maps.gstatic.com/mapfiles/place_api/icons/museum-71.png"}, {"rating": 4.4, "name": "Museum of Decorative Arts", "reference": "CmRSAAAABpnoG8tFLY-RoYmv5c5CH4UXfh4cRD5m8jzmihRd8mk9pYQ77ZriDBeb4Xe-I01SKmHce4ETk_CboiCiBVJ9WwFlaO652mbhFeUwV22YoMo2XD7X2_Uxho_86Q1y3uWhEhDG22oJovgVaW8fQFCUG0gUGhRW-qV4DGZS_eyzaj-QxB8XISK7UQ", "geometry": {"location": {"lat": 48.863063, "lng": 2.3333951}, "viewport": {"northeast": {"lat": 48.86452403029151, "lng": 2.334805930291501}, "southwest": {"lat": 48.86182606970851, "lng": 2.332107969708498}}}, "opening_hours": {"weekday_text": [], "open_now": false}, "place_id": "ChIJ_QwlZC9u5kcRi6OALXVubvc", "photos": [{"photo_reference": "CmRaAAAAQhiKHry8dDNi9UQHOKV4eIkgDLWS8MrkbbIZkId3TaZhCUfdqBtoRftJwjlPxjcJRhJOEO6MXyTD2W-TqZ7Ncpey-N-vcYeRHSGIjhOSvXHEcgTpIIoyATgIFOf6YxiAEhCK7sSR2gJk69XX1nuCgmehGhSvIk_PVkhhTf0z_1GkO1kcaERplQ", "width": 4160, "html_attributions": ["<a href=\"https://maps.google.com/maps/contrib/101898502475390465407/photos\">Coco Izzy</a>"], "height": 2340}], "formatted_address": "107 Rue de Rivoli, 75001 Paris, France", "id": "169658dccbc306c41bcd48121afd255e3be81510", "types": ["museum", "point_of_interest", "establishment"], "icon": "https://maps.gstatic.com/mapfiles/place_api/icons/museum-71.png"}, {"rating": 4.4, "name": "The Smoking Museum", "reference": "CmRRAAAAqF1HwOa0OlN413KqaLDeDN8MxQoX2MNbeQz71hDNV40EZz9Yc39qV9whQ3cTb15cEqaOuJCUNb6ZWKvFJ1SxGfhAyc1BkuzIsMeoCC_lcX8K6LCb4M5wUtyGWEUkdNrnEhByEappBsGttZPej4l_oCs9GhQnK6NLO-JwHe1ZwJhq-sPsvXt29w", "geometry": {"location": {"lat": 48.858649, "lng": 2.3822261}, "viewport": {"northeast": {"lat": 48.8599817802915, "lng": 2.383633480291501}, "southwest": {"lat": 48.8572838197085, "lng": 2.380935519708498}}}, "opening_hours": {"weekday_text": [], "open_now": false}, "place_id": "ChIJB6j77fZt5kcRZP2QGdWKjmw", "photos": [{"photo_reference": "CmRaAAAAxL_kAFFYaFFljwWJC140A9AOqcprLDQXdMrhWvn6pBK8RCXT2xwDSmsnzT0qdhNp7-T9tGbvyGroffpAts4lYJ-wc-QvBNlxAToYCm_pM4LuHKwJSlQ7yPjlYTzgJIifEhD6aMS5C2QxQf44cG9oFTDSGhQavwaJWJ17JKM80UHNqjh7-e2pRQ", "width": 4128, "html_attributions": ["<a href=\"https://maps.google.com/maps/contrib/102117716785986901640/photos\">Le Mus\u00e9e du Fumeur</a>"], "height": 2322}], "formatted_address": "7 Rue Pache, 75011 Paris, France", "id": "788af6a11d718387759d7fdd03d66e05e910bd39", "types": ["museum", "store", "point_of_interest", "establishment"], "icon": "https://maps.gstatic.com/mapfiles/place_api/icons/museum-71.png"}, {"rating": 4.4, "name": "Cluny Museum - National Museum of Medieval Art", "reference": "CmRRAAAAGJGP0M8n8UC5MarOUBRk6zONGFl4jM9lsY46UytkZILA6wdJFFwowBnv-_kdNSKiouChwQavpJrbGQ2j50mgnE03IexnrJSkoUMH5N3lYqUUJ13yoVnRRSeVdYfwvZUSEhBC664ekyntFltm2foG5pg_GhRlK6gt46tBFzcfKcpwB0V27xP3gw", "geometry": {"location": {"lat": 48.8504833, "lng": 2.3440808}, "viewport": {"northeast": {"lat": 48.8517204802915, "lng": 2.345387780291502}, "southwest": {"lat": 48.84902251970851, "lng": 2.342689819708498}}}, "opening_hours": {"weekday_text": [], "open_now": true}, "place_id": "ChIJLxPh9d1x5kcRf7M1U0pu1gU", "photos": [{"photo_reference": "CmRaAAAA5BxrD-RvGbSzH3RhQ8KrkYE6goVDtx1MaXW2IGI_STZQrTjlY5ccz9PHb6nWdeo9pMQzgg-ZzrlIgT1yxs13OKvZj9Rlso5xllYBtLLwiAwLzh4f_ol2eZTKLTRbJ_RkEhDLc_4A18VczFgtmUJfpvc_GhQydi1aWkHHJATUzmKjEGdipAj8Rg", "width": 4320, "html_attributions": ["<a href=\"https://maps.google.com/maps/contrib/105787647052433885325/photos\">Jonathan Letzter</a>"], "height": 3240}], "formatted_address": "6 Place Paul Painlev\u00e9, 75005 Paris, France", "id": "ddc83c8b7be273cc7384a91c31dc4e375967aa44", "types": ["museum", "point_of_interest", "establishment"], "icon": "https://maps.gstatic.com/mapfiles/place_api/icons/museum-71.png"}, {"rating": 4.4, "name": "Mus\u00e9e de Montmartre", "reference": "CmRRAAAAGM3cu8d5Yr2p3Nx0PlFsCXie-aGP5scbdrFdE46In9YlTuEJfBMRbifzIbv70l9dpZ5iu61TPX-9z_QlTI7aAmwes2fHzR5820_jV-FoLiSdQjTZHjjZLqSsnoi_PUbXEhCzDRSnVqpdP-Rim87jO6CUGhRwoW110CI_rvA2dfCGgO8a-vDo3g", "geometry": {"location": {"lat": 48.887709, "lng": 2.340673100000001}, "viewport": {"northeast": {"lat": 48.88904728029151, "lng": 2.342018280291502}, "southwest": {"lat": 48.88634931970851, "lng": 2.339320319708498}}}, "opening_hours": {"weekday_text": [], "open_now": true}, "place_id": "ChIJWcXsQltu5kcRbqfaH0NhNxE", "photos": [{"photo_reference": "CmRaAAAAdwM1nLX-cXmNuYtEz3VcddBN7IZtAR5PdPMou6hAwRdEchVbaFK9oOMAsk2KR8agjEYvEQMF4QQPpWJWfguvIkrmhw_532vxws5hU0d743EDY5vbDTR0OKRKwYusB2arEhBDVhr5zpUZm09sk1vXuV3yGhTYEspbWyeLFmUK2D_2DLlYw7tjYw", "width": 800, "html_attributions": ["<a href=\"https://maps.google.com/maps/contrib/107434888065831975637/photos\">Eric duarte</a>"], "height": 534}], "formatted_address": "12-14 Rue Cortot, 75018 Paris, France", "id": "61f49fa6c6e4d9894f917af4e1eca6eb701a13f0", "types": ["park", "museum", "point_of_interest", "establishment"], "icon": "https://maps.gstatic.com/mapfiles/place_api/icons/museum-71.png"}, {"rating": 4.3, "name": "Museum of Minerals MINES ParisTech", "reference": "CmRSAAAAzg2-fbVuYYaZHdhs4nF7oobWXI_Jaay76rJvrjhUuJeFhWxgow6AQY7te16GtzYGtGLjxq5hhOWat4QDhKlLcH_r-cP5dLY5vLxK9FTJtCbLHx6H392eCRe7hY5TGyExEhCDMQzGqceGyzTMIdmNAYduGhRjS63h56O-ZEvSXbWNKLSK8QfD1w", "geometry": {"location": {"lat": 48.8451192, "lng": 2.3394016}, "viewport": {"northeast": {"lat": 48.8466545302915, "lng": 2.340997680291502}, "southwest": {"lat": 48.8439565697085, "lng": 2.338299719708498}}}, "opening_hours": {"weekday_text": [], "open_now": false}, "place_id": "ChIJd104OsNx5kcRqW8-Crk_dKk", "photos": [{"photo_reference": "CmRaAAAAfQwwioRRpzyZmShVAZO1zglg-Bd86V-kDMFyEaSwbnqo3WmgQPazGKGH6EjKC9hKFefzNnOcj1nflwV0ha559ZxzmUcGfPOfvXo2d_imvmszdMLvV3e_mBnIihw7RBR7EhAA142p8un3zalF0mC-__k1GhTfKjy9hxIC7o7csZNzQz2KvFVGcw", "width": 4752, "html_attributions": ["<a href=\"https://maps.google.com/maps/contrib/111187841734342765161/photos\">Enrique L\u00f3pez Ruiz</a>"], "height": 3168}], "formatted_address": "60 Boulevard Saint-Michel, 75006 Paris, France", "id": "2baae64c3b0d4cc01ff4c51b08c1901a0f7350a2", "types": ["museum", "point_of_interest", "establishment"], "icon": "https://maps.gstatic.com/mapfiles/place_api/icons/museum-71.png"}, {"rating": 4.3, "name": "Bourdelle Museum Balenciaga", "reference": "CmRSAAAAHlwMUNJcJddKuNisltKzrXSQvxdcjCtXJSZMVsPI5FbGh_OOuCx40jr1EQ58AHcqjfRq_2Kln2IYyper-753FTtY47tpDGDJC2jDNukfGAcyR46-amAuxMHJbwLjVx10EhCDhz8FYiKlDp96jsoJlwzjGhQThY7et-xZMWK7aOXMXQdq-rNSSA", "geometry": {"location": {"lat": 48.8431782, "lng": 2.3186781}, "viewport": {"northeast": {"lat": 48.84441313029149, "lng": 2.320077680291503}, "southwest": {"lat": 48.8417151697085, "lng": 2.317379719708499}}}, "opening_hours": {"weekday_text": [], "open_now": true}, "place_id": "ChIJneWSEjNw5kcRrpbgsvMnPIs", "photos": [{"photo_reference": "CmRaAAAARnRzWdzuILFw6Tg6kn4dmoAmP6v5tBcYanDZteke1B-X0z2Jftn9LessNJtTkrvu6UgYgOVKZzaA35O3zvVDkcZ3b-j2aQKY-PnlapS6Uo3_xEwj7Cr69kT_Lhkzr8cbEhA-X4xO1nLIygSqIwPQ35rlGhQTknkZtOCmdqL2N4XsUbzjII8cDQ", "width": 4032, "html_attributions": ["<a href=\"https://maps.google.com/maps/contrib/102310706429772679349/photos\">\u0410\u043d\u0430\u0441\u0442\u0430\u0441\u0438\u044f \u0425\u0438\u0436\u043d\u044f\u043a</a>"], "height": 3024}], "formatted_address": "18 Rue Antoine Bourdelle, 75015 Paris, France", "id": "4bd9b7437fbb1a244247ef3b1252651778b6434d", "types": ["museum", "point_of_interest", "establishment"], "icon": "https://maps.gstatic.com/mapfiles/place_api/icons/museum-71.png"}, {"rating": 4.3, "name": "Museum of Art and History of Judaism", "reference": "CmRSAAAABEnicSv11ENWKJ_EvehCKGg1Nj7CBH-h6ppwSSoE3z6092OlbOc7iCmkyznYkA0fSu7Eq_8zzAxDu4v4w02l50l3C6VUs-JDkmrmbyxK2lhiyTFp-cc8lUuG1SxwSn4pEhDE0Wg4Pc0ayaiv1LDZSo1uGhTVTIQlECSUUWK1-GNwlnYg2Tf5Sw", "geometry": {"location": {"lat": 48.86101019999999, "lng": 2.3556112}, "viewport": {"northeast": {"lat": 48.86233053029149, "lng": 2.357001580291502}, "southwest": {"lat": 48.85963256970849, "lng": 2.354303619708498}}}, "opening_hours": {"weekday_text": [], "open_now": false}, "place_id": "ChIJydDIqRxu5kcRqB6W-MQwcYU", "photos": [{"photo_reference": "CmRaAAAAmxfQAu2XBTqkzE8RvBNrH2qoCyNb-eT9qd2AgsxJdNRBawHmB6aXB86_gYTj7LvGTvovxBbAXIMVgsw5o75X1xI1CargqcC4vDGCOiyaPKm5qyfaxorypCEj_QSqUJcmEhDLOHtTK35V2yOK7KDLFxm6GhT27w4kHv9gE-YW5oEady22oxbKGg", "width": 5472, "html_attributions": ["<a href=\"https://maps.google.com/maps/contrib/111439998339572420275/photos\">Sebastian Stein</a>"], "height": 3648}], "formatted_address": "H\u00f4tel de Saint-Aignan, 71 Rue du Temple, 75003 Paris, France", "id": "d792857c93b46cdbf84a4471d25360372a219069", "types": ["museum", "point_of_interest", "establishment"], "icon": "https://maps.gstatic.com/mapfiles/place_api/icons/museum-71.png"}, {"rating": 4.1, "name": "Picasso National Museum", "reference": "CmRSAAAAFfEjyvA9l09JX0JXpiZT9WqR-3549OUmWGGbFvlIFVUHNvGKFKFRYxIhz6Im8cBz3D349DFZ45zgGDw_N28MkJf_BEQSQ29sNJyELMOzDGjAeXv6NcFzUFzcUv9XymklEhBZywPKtHmSeyLieZi_Dth_GhQQTo-ExJep-zCgo2WosNqQgqW3DA", "geometry": {"location": {"lat": 48.8598775, "lng": 2.362285}, "viewport": {"northeast": {"lat": 48.8611387802915, "lng": 2.363736030291502}, "southwest": {"lat": 48.85844081970851, "lng": 2.361038069708498}}}, "opening_hours": {"weekday_text": [], "open_now": true}, "place_id": "ChIJS2t0QgFu5kcR92388prakcE", "photos": [{"photo_reference": "CmRaAAAAD1TnEnMOnsGxSDovJELz4fxYbAkErJ1dE1saFChh7_NrO450SAh7f2mbyeJGd-3oZjtVlccVK0D1GTn1HNN0nhtNzP-61otz38XQ-FkVSmtZDDXCGJ87xIsmzFKmz-LLEhChBBNIFDNbmR1mo9sV4qpaGhT_9hxmqdOmY4dEcJuGD4VYUcIbgw", "width": 2688, "html_attributions": ["<a href=\"https://maps.google.com/maps/contrib/109220809679236070402/photos\">Cristina \u0218tefania</a>"], "height": 1520}], "formatted_address": "5 Rue de Thorigny, 75003 Paris, France", "id": "437d1813371792fb053268dfe95e2d30ed9c95d6", "types": ["museum", "point_of_interest", "establishment"], "icon": "https://maps.gstatic.com/mapfiles/place_api/icons/museum-71.png"}, {"rating": 4.1, "name": "Paris Sewer Museum", "reference": "CmRRAAAAQDqNN8k9uDO1NVxuizsN_Kd2bzO845tiTVA_ei6Gkr35BaDVLj3VS42ZilBh37TJDfR_n-GGBODQSAYoR1CJ2sWkFwBrHHYqQfiWANMVkTJ-CqgjMJzo47B-4-C43yFAEhBpE005pLRym_yqSPzc8qdBGhSR334RTmD4dodEu5QhQJfzEP_lig", "geometry": {"location": {"lat": 48.86264, "lng": 2.302601}, "viewport": {"northeast": {"lat": 48.8639889802915, "lng": 2.303949980291502}, "southwest": {"lat": 48.8612910197085, "lng": 2.301252019708498}}}, "opening_hours": {"weekday_text": [], "open_now": false}, "place_id": "ChIJAYllBdpv5kcRI5PocXj8I2c", "photos": [{"photo_reference": "CmRaAAAA-r2usOLkPFu6l98Q9V4hEmfQur_atlF910URayJl3Qy9RUFy2hcfYG2bG98C-z3JyCuessg6Xw-lnRR5pKbf6Fct_mvtNus7E_5iNRnFK44BiGZrfapHMgqdrasVW8ROEhDFR0b_2HSCKCTrEBrl95l3GhRKard1J0hVIK04nCPTjDGfOvLtng", "width": 2048, "html_attributions": ["<a href=\"https://maps.google.com/maps/contrib/102278651379265235944/photos\">Visite des \u00e9gouts</a>"], "height": 1382}], "formatted_address": "Place de la R\u00e9sistance, 75007 Paris, France", "id": "ace8152e7839c8745be8664c3e8c4e524566cb47", "types": ["museum", "point_of_interest", "establishment"], "icon": "https://maps.gstatic.com/mapfiles/place_api/icons/museum-71.png"}, {"rating": 4.1, "name": "Mus\u00e9e Gr\u00e9vin", "reference": "CmRRAAAAQwCZYGOk0_oDvGGWy9rVbMAv_ol6UNKberF9KSqIxvwGBR-DdXJpqo4NWfGCv12xwYyVyTEPqAP_orXKHz4HHwCg7yVuzA0Gizw7Gs18mUnB1NQRawvZuEKSi9m2cq7nEhDc8Wn3fa43BnYWK2RJDGCvGhS68qqRbnArz5Qjv0FurSPk2RrGLA", "geometry": {"location": {"lat": 48.87183779999999, "lng": 2.3422204}, "viewport": {"northeast": {"lat": 48.8730949802915, "lng": 2.343531730291502}, "southwest": {"lat": 48.87039701970851, "lng": 2.340833769708498}}}, "place_id": "ChIJVUrgmz5u5kcRWPSN-T8a730", "photos": [{"photo_reference": "CmRaAAAARYkiF_lXnAZhMSpbB2myrtyl66KAjCdpHy12wCcZfnDlxVPeuB_fwIF7Nm9kScW8SbLF55ya7rdLpAhWBJecSrbDbCuS_fZuxJkHDyRL7Q38cNTCzfL5BdH6Kp7UTKC6EhDHJ11Eq7N2VJk1bU7T0TckGhT_gn_2x7KWj6RVtfDM7RejHWIBPg", "width": 5000, "html_attributions": ["<a href=\"https://maps.google.com/maps/contrib/104830790367177263258/photos\">Mus\u00e9e Gr\u00e9vin</a>"], "height": 3328}], "formatted_address": "10 Boulevard Montmartre, 75009 Paris, France", "id": "ad4b7cebe781fa4b1282606a2fe8e57022767726", "types": ["museum", "point_of_interest", "establishment"], "icon": "https://maps.gstatic.com/mapfiles/place_api/icons/museum-71.png"}, {"rating": 4, "name": "Museum of the History of Medicine", "reference": "CmRRAAAAOG3FY2eG5ie8mw3t44XuejivViNAO5VAOSC53povEgfU-Su0ev9dB1CK_Ue5a5nOTbiSEa7bpqoeI8NsrqT8qUWquFeMU4JIdU7uZ1HcYuE55P1mJjuqBKiZy5BcehmGEhBX6o5Ydk7LjbQqamOhLuysGhS9oJCSY1DFTuO_1NvwnlQnDqwh5Q", "geometry": {"location": {"lat": 48.8512506, "lng": 2.340761}, "viewport": {"northeast": {"lat": 48.8525570302915, "lng": 2.342048680291502}, "southwest": {"lat": 48.8498590697085, "lng": 2.339350719708498}}}, "opening_hours": {"weekday_text": [], "open_now": false}, "place_id": "ChIJgerDKdxx5kcRC6a8bQCNWBo", "photos": [{"photo_reference": "CmRaAAAASMN2vWNxKDA0hWNQ4t5nrjnUvqXMAOpfHr-PUyunJBjYpIeoQNUctikCAErDRCHaO0J1E7xIOzzsM7KMg_sW8J3H-6C02eZOOPndBLteguHDUOyLNh2YzUcK_PDVY4suEhBnUJdfvgtWvhmzR7ehX2QxGhRn9t_0KSpOfewyiLcAGOmpcqmgqw", "width": 1365, "html_attributions": ["<a href=\"https://maps.google.com/maps/contrib/116727698353915833264/photos\">Mus\u00e9e d&#39;Histoire de la M\u00e9decine</a>"], "height": 1362}], "formatted_address": "12 Rue de l'\u00c9cole de M\u00e9decine, 75006 Paris, France", "id": "c6ab7f9bfacf0ec3fc045da742ef83218c5abcc3", "types": ["museum", "point_of_interest", "establishment"], "icon": "https://maps.gstatic.com/mapfiles/place_api/icons/museum-71.png"}]