[{"rating": 4.7, "name": "Louvre Museum", "reference": "CmRSAAAAYeFeai-Q7LdwlbLViABxtu08hjJ5FNt5l74rUfzlSmfVSsPlad3gEw5Ng8TC88lmyhe2UOQIiYtlMpTvtJ6veL1r2gpLZHRZpsk4zpMGcQi9LAVnvSSvpcwgvqCqPZ-bEhAUHQMBIRA-R89ifqUi5wkDGhSQKLALFgchI2_khiWq2zPkN-V4Mg", "price_level": 2, "geometry": {"location": {"lat": 48.8606111, "lng": 2.337644}, "viewport": {"northeast": {"lat": 48.86313575, "lng": 2.3391953}, "southwest": {"lat": 48.85976955, "lng": 2.3329901}}}, "opening_hours": {"weekday_text": [], "open_now": false}, "place_id": "ChIJD3uTd9hx5kcR1IQvGfr8dbk", "photos": [{"photo_reference": "CmRaAAAAQO0D6TWZwEfXXZGOmzs7kzsyELHoLpiaNAbymjZC4nJoaiTkRcUkwOAaF3yPEUwMX1TuoYzrN3a5usI2ri8hWDwXil2sEpPjGcmyACAngnAZEYp-U9hvRBB7VVrnGgdUEhAe2Hp8rjKv94XqSeYJisT2GhTRkWYk1KFmYZSpvFoE3bbAjoh7Dw", "width": 4288, "html_attributions": ["<a href=\"https://maps.google.com/maps/contrib/109983477559905217030/photos\">Christophe Jacquet</a>"], "height": 2848}], "formatted_address": "Rue de Rivoli, 75001 Paris, France", "id": "9a007d81ca8f47ed30ddaf39c4174ef773b351e0", "types": ["museum", "point_of_interest", "establishment"], "icon": "https://maps.gstatic.com/mapfiles/place_api/icons/museum-71.png"}, {"rating": 4.7, "name": "Mus\u00e9e d'Orsay", "reference": "CmRSAAAA-eqEBTF4_SJMUBNIf81I-jYNWNJitxhWJDC8EpJgX5mc_dXy2p8AjEsqyUZHSL7zSqwIP4ZLTFNkrOzstllWrmipnwFnoAfh404wqrGwsbXU8DghH4mwDJUyRKU1Dvh6EhAybmEB1yqgHbFr5lS5frGYGhTZgsX7DCljDOo3-VAtbdYq47zLTw", "geometry": {"location": {"lat": 48.8599614, "lng": 2.3265614}, "viewport": {"northeast": {"lat": 48.8615291302915, "lng": 2.3275171}, "southwest": {"lat": 48.8588311697085, "lng": 2.3236943}}}, "opening_hours": {"weekday_text": [], "open_now": true}, "place_id": "ChIJG5Qwtitu5kcR2CNEsYy9cdA", "photos": [{"photo_reference": "CmRaAAAAEHrfmBOviDkjPV1zqnOw9Hulcj3LKYl-RXrJ-qn6Q7oiQzVvgoEVcwxu9IJDZ2Fspjzsd3hfEfxXst_JDi4eSdBPUjzabemyugI7MnQOMfpnanCHN4hbA236x2cY_tN8EhARgbB8uQaqrpz-FQuoX_RBGhTOp6JcjXRO42mhHXumZDrUSqddRQ", "width": 2848, "html_attributions": ["<a href=\"https://maps.google.com/maps/contrib/104198155525513925723/photos\">Endre Horv\u00e1th</a>"], "height": 2136}], "formatted_address": "1 Rue de la L\u00e9gion d'Honneur, 75007 Paris, France", "id": "324ebea255dabc1cb3a5ca92839d3949530e05e3", "types": ["museum", "point_of_interest", "establishment"], "icon": "https://maps.gstatic.com/mapfiles/place_api/icons/museum-71.png"}, {"rating": 4.5, "name": "National Museum of Natural History", "reference": "CmRRAAAA12NrAgki9P0gc0qtaXoFsB26j6cLl03K4LCtyyVqj6r1V16LFg4ycFOktdNMxj1-uaj51LHJjwMLvMBedPuZOyBLGoo1Jdbz6FvvFcAjUjetzfaRSM-_YA-EamYGbmIvEhCRUPfqPOP16nVPzWSG1YR2GhROLr3rlsNtyA5rNEQrYjDy-prPZA", "geometry": {"location": {"lat": 48.8443425, "lng": 2.3562101}, "viewport": {"northeast": {"lat": 48.8456914802915, "lng": 2.357559080291502}, "southwest": {"lat": 48.8429935197085, "lng": 2.354861119708498}}}, "opening_hours": {"weekday_text": [], "open_now": false}, "place_id": "ChIJEURALfFx5kcR4cbxSSHWQ0c", "photos": [{"photo_reference": "CmRaAAAAtUgxoaEjVGTvonfDce3SBmLMs1Vl5W2ZmiUJcjN5CqjjqMBajt6dy1qiXiL_1VDqNgrCk5XhAqfnpJPWLYP-Yzh6J8nZem6AAh3fuA1jhRLAu0wCcolKAXGKKNOR0Uv9EhBZ1v5IMC5Gi0Ij_VyDHPCnGhQsl8kLoVpYVbKe7JPwNcp3IWDNHA", "width": 4128, "html_attributions": ["<a href=\"https://maps.google.com/maps/contrib/116329647050068364523/photos\">Val\u00e9rie Payen10</a>"], "height": 2322}], "formatted_address": "57 Rue Cuvier, 75005 Paris, France", "id": "c9b20c83264c29f12d01829dad7b5117af7ecf3d", "types": ["museum", "point_of_interest", "establishment"], "icon": "https://maps.gstatic.com/mapfiles/place_api/icons/museum-71.png"}, {"rating": 4.5, "name": "Metiers Art Museum", "reference": "CmRRAAAAXPxXZe66F2mJvXAje_3S6QUXaHfS3s0EkZvo7Z6iziwp5xOXTsR773ScqsfOvuiN30fC-a3Jc-Vtj9_UIbdv6ykoL75bGWnWUf9KJa4JaljkvzfSJhpZRjGa5Uvbs4CqEhCTpQubpHewXGrVNDQ5SS6kGhSNuo9tVVO8WIlFyPg5Z3CYOQfEMw", "geometry": {"location": {"lat": 48.86663919999999, "lng": 2.3554383}, "viewport": {"northeast": {"lat": 48.86814788029149, "lng": 2.356274980291501}, "southwest": {"lat": 48.8654499197085, "lng": 2.353577019708498}}}, "opening_hours": {"weekday_text": [], "open_now": true}, "place_id": "ChIJNUTIphpu5kcR4h07VuxFIHc", "photos": [{"photo_reference": "CmRaAAAAwzSxObTMwWHasM5wNJ-N3DHr2XxVUgcJNiVhgopB6KL3YekkJVWk2VbRtT0sfIUHZsdNJQi4b9WUAI04uXdGcDpNiex115mAxnSCkPJ2sdpgRKbXnusO3V-x-6LqFuyMEhDINK84DrbF9s4Dy7c89uwwGhQ4v7545QQoi-Yqn5b-Ri06GqxDNQ", "width": 378, "html_attributions": ["<a href=\"https://maps.google.com/maps/contrib/100087783093988552392/photos\">Mus\u00e9e des Arts et M\u00e9tiers</a>"], "height": 378}], "formatted_address": "60 Rue R\u00e9aumur, 75003 Paris, France", "id": "8361ea0e7cef57e52503ed18c71a9c3860a6fd5f", "types": ["museum", "point_of_interest", "establishment"], "icon": "https://maps.gstatic.com/mapfiles/place_api/icons/museum-71.png"}, {"rating": 4.5, "name": "Mus\u00e9e Curie - Institut Curie", "reference": "CmRRAAAALkYUIdU1tWV9BSMeK0yyv2N-qR5KxTC8kJe4uxcELy6e4MyENDT4MWtzfNs9Ldveus_QaWEFSv8srS8tqVYdZln-4LdiM-Sews87m-bFkPokpjLHlHA-02fOoorbvo-zEhD8fMvHQkcFVBBgnXS8RDEZGhQdxh2GO9k3HLHcVNtqeXg0t7g0VA", "geometry": {"location": {"lat": 48.84422350000001, "lng": 2.3448276}, "viewport": {"northeast": {"lat": 48.8456133802915, "lng": 2.346030680291502}, "southwest": {"lat": 48.8429154197085, "lng": 2.343332719708498}}}, "opening_hours": {"weekday_text": [], "open_now": false}, "place_id": "ChIJjU2KN-hx5kcR3wlTp_OOrXA", "photos": [{"photo_reference": "CmRaAAAAkuA8N4zvyAmYtBoQbGdHMGGQOmqqneHsrkyxHMqQ9Q5stCq24wFVOyrGzWp86Iq_NvL-FRDwP_rcIdzbP-627bcHS_EoAiAZ-PFFnWb4SxaQvZGBOCtV7XHnq3-Fe5w2EhDsYOe02zENb1EKD4gUGqozGhTdko_OA5YokZKwjEINjlINlTRx_A", "width": 4640, "html_attributions": ["<a href=\"https://maps.google.com/maps/contrib/114582577591249035011/photos\">Meraj Khan</a>"], "height": 3480}], "formatted_address": "1 Rue Pierre et Marie Curie, 75005 Paris, France", "id": "b2f8dd7eb6dc8e4ba61da47a0b57faf5b887570a", "types": ["museum", "point_of_interest", "establishment"], "icon": "https://maps.gstatic.com/mapfiles/place_api/icons/museum-71.png"}, {"rating": 4.4, "name": "Museum of Decorative Arts", "reference": "CmRSAAAALVntEDpsFjSrxAg5uwjAFgRaZTfSgwe_efoklK2IqxyWSJZIdxFebHEMbeB6lNwYe546DGRg33XO5SRTGT4_xJe5K6R5nHF-QcxO9sKXuDbLybiYLC_6qu8Pgp2f7NZwEhBv_EIIoVR_RFBAB-VZnnhyGhQ2IzWX70pxWUzlsIlHbaJkfMzH-g", "geometry": {"location": {"lat": 48.863063, "lng": 2.3333951}, "viewport": {"northeast": {"lat": 48.86452403029151, "lng": 2.334805930291501}, "southwest": {"lat": 48.86182606970851, "lng": 2.332107969708498}}}, "opening_hours": {"weekday_text": [], "open_now": true}, "place_id": "ChIJ_QwlZC9u5kcRi6OALXVubvc", "photos": [{"photo_reference": "CmRaAAAAn87kElA4QN3Nqsh4e8lbbep-qKn66jhQ4cY7T0c_eC-qbnl3LcQJLwUoX4Hg0Qdv_wQLSPfw7ckHUZWGUtmTjBqAndQWmISg7wJutwCoz2rJPFqfwgAXBXSoCglCUjSYEhBcBo7JWd3-ZlOY0_r3C3c5GhR_ExUUCPrp6Z17liSg-PUpQS9J3w", "width": 4160, "html_attributions": ["<a href=\"https://maps.google.com/maps/contrib/101898502475390465407/photos\">Coco Izzy</a>"], "height": 2340}], "formatted_address": "107 Rue de Rivoli, 75001 Paris, France", "id": "169658dccbc306c41bcd48121afd255e3be81510", "types": ["museum", "point_of_interest", "establishment"], "icon": "https://maps.gstatic.com/mapfiles/place_api/icons/museum-71.png"}, {"rating": 4.4, "name": "Cluny Museum - National Museum of Medieval Art", "reference": "CmRRAAAA1KqncBajGeTnxUQLSjHOiBqIvOynaohjCiYlWExWsOsNPy8ZGgrSSLaV5FCSpjo56g9VEbnQU9RLFSnZDYboytBA_9nR_BBt8C0qc3NrrcaaE6rALH3XPheL6oV2O1GhEhADj7rIorlYP-iJPYUulNqPGhTzXV7KY2nTxKEAGfJeAHv_uiyKWQ", "geometry": {"location": {"lat": 48.8504833, "lng": 2.3440808}, "viewport": {"northeast": {"lat": 48.8517204802915, "lng": 2.345387780291502}, "southwest": {"lat": 48.84902251970851, "lng": 2.342689819708498}}}, "opening_hours": {"weekday_text": [], "open_now": false}, "place_id": "ChIJLxPh9d1x5kcRf7M1U0pu1gU", "photos": [{"photo_reference": "CmRaAAAADuXvcYKwIDidsfeJlfkvIZ3Ng6sdp5uZf7n63MWT_BwN8QUOID7zATyG25mP0j_m33anMoeQLs_xu-PrLBdJs7nN6oeZ43wiK_fHlxW1hgCP_QUhKGrp99QD1iITN66jEhBgbcNFrj3yn4sLs6WPruYMGhRYBcruIagSfZFok-co3YGSGYHsJA", "width": 4320, "html_attributions": ["<a href=\"https://maps.google.com/maps/contrib/105787647052433885325/photos\">Jonathan Letzter</a>"], "height": 3240}], "formatted_address": "6 Place Paul Painlev\u00e9, 75005 Paris, France", "id": "ddc83c8b7be273cc7384a91c31dc4e375967aa44", "types": ["museum", "point_of_interest", "establishment"], "icon": "https://maps.gstatic.com/mapfiles/place_api/icons/museum-71.png"}, {"rating": 4.4, "name": "The Centre Pompidou", "reference": "CmRSAAAAEapzixTzr2Z91hd2PDg48qnxnn71LpzeA86KtCZONZFU3i2-DBiyAzxfTyPLV88DERTwBCaKLOUg3DeqTvzC6UvmbYMp0hrQuMYqBb426dTgsoea51iN5Z7X_G84LwHJEhAkQ3vE1Ub0L3fc7MKoS0BzGhRuSLS0jyz1qZ8Sf972OxT1Qw6ZOA", "geometry": {"location": {"lat": 48.86064200000001, "lng": 2.352245}, "viewport": {"northeast": {"lat": 48.86193895000001, "lng": 2.3541162}, "southwest": {"lat": 48.85891794999998, "lng": 2.3513682}}}, "opening_hours": {"weekday_text": [], "open_now": false}, "place_id": "ChIJoyC4CRxu5kcRRTPcWX5srLc", "photos": [{"photo_reference": "CmRaAAAAtDVgaRSzIGv8iUNGJQ2Dh-jhLORQS02FW8rXCiZWqSizbmdsdjd4uxqkKLuxppZ1fnLJq8R9yKIzQJKQMdEsV34uIzAnJVJxYSdv4-Q7t0mOKpcrdzs18b0sSKXivHZcEhD43MgweuwUmuPchWaqvWSNGhT6vI63GkUuvC6YckQ9MbiN8dQTkQ", "width": 2028, "html_attributions": ["<a href=\"https://maps.google.com/maps/contrib/106029497379210586274/photos\">Egil Johannessen</a>"], "height": 1350}], "formatted_address": "Place Georges-Pompidou, 75004 Paris, France", "id": "8546df4461a8d783d8452ed7272edbee05a591b0", "types": ["museum", "point_of_interest", "establishment"], "icon": "https://maps.gstatic.com/mapfiles/place_api/icons/museum-71.png"}, {"rating": 4.4, "name": "Biblioth\u00e8que-mus\u00e9e de l'Op\u00e9ra", "reference": "CmRRAAAA3NNxH6cFu2BV47LJqiETw9NPLYGexM3urPUKuYBN9XLkrfarCAlpjCDER93dKopGjBDStgVj1KX-qZ9RSz4M0-ICiCl0jpzRrsbmbQYFOzBQOxQDje60opIyAuiYZGMgEhDDZpQMaCbycCtHAbrG7px2GhSwEBog8wGrCitwU4wgt8rBh4g1fQ", "geometry": {"location": {"lat": 48.8720052, "lng": 2.331714099999999}, "viewport": {"northeast": {"lat": 48.8734470302915, "lng": 2.332601830291502}, "southwest": {"lat": 48.8707490697085, "lng": 2.329903869708498}}}, "opening_hours": {"weekday_text": [], "open_now": true}, "place_id": "ChIJ5S5QKjFu5kcRx5gcUAcDn34", "photos": [{"photo_reference": "CmRaAAAA__hM7u4W7IVe8CxuPq_ay9WsdHoZtYcmmQ8XFJ2gnDdYTsnUji89nCCv4kZSUh4PDjH35dNKDG_ri_dg63X5v5q0FY9ZmDnGZpNGGu1YL_BhaW_w2cG-DcYmzlJ9odJkEhBXPRNGF0zz811mfY8gXUX0GhRBE5HHnPpbYGaN5ibSh-39fGhzyA", "width": 2048, "html_attributions": ["<a href=\"https://maps.google.com/maps/contrib/109104673503451209616/photos\">Vladas Portapas</a>"], "height": 1366}], "formatted_address": "Palais Garnier, 8 Rue Scribe, 75009 Paris, France", "id": "eb5cb03aa6024c679ced7bfe01076c99d6dcebdf", "types": ["museum", "point_of_interest", "establishment"], "icon": "https://maps.gstatic.com/mapfiles/place_api/icons/museum-71.png"}, {"rating": 4.3, "name": "Museum of Minerals MINES ParisTech", "reference": "CmRSAAAAV9elIrRPUTV2ZbjZ9hWXe4oUPCxXnLetBlrwste2aPXDSMP_WnBe3Ntu1h0m0w6jtlA7MXAaSQfsxXUlRM5CFN5WKgqNB_s5N8aN-dfiEYX_fgR8sAaAgCV7nloKPV79EhBzbUeNqmjOsgOAeZVZlExyGhSbshLBdfex39EakJyY0BS8P-pY8g", "geometry": {"location": {"lat": 48.8451192, "lng": 2.3394016}, "viewport": {"northeast": {"lat": 48.8466545302915, "lng": 2.340997680291502}, "southwest": {"lat": 48.8439565697085, "lng": 2.338299719708498}}}, "opening_hours": {"weekday_text": [], "open_now": false}, "place_id": "ChIJd104OsNx5kcRqW8-Crk_dKk", "photos": [{"photo_reference": "CmRaAAAAmdCR-qxNgWOt1KojqBTNlruxjY2jEHbVECFfKWCoxvQLGTt-8udyry_uDGTyicQ9hBkBwepy8LArsFI0ivzwvSKUyIvOtyc6x0K6Pt_sUPe_XcP-0gNa1OeVhpNX5Mc5EhC2t6nFFSCcfDKipqRbZLDwGhRzwqwo6GtHeaGrNOuUXUbvuew0JQ", "width": 4752, "html_attributions": ["<a href=\"https://maps.google.com/maps/contrib/111187841734342765161/photos\">Enrique L\u00f3pez Ruiz</a>"], "height": 3168}], "formatted_address": "60 Boulevard Saint-Michel, 75006 Paris, France", "id": "2baae64c3b0d4cc01ff4c51b08c1901a0f7350a2", "types": ["museum", "point_of_interest", "establishment"], "icon": "https://maps.gstatic.com/mapfiles/place_api/icons/museum-71.png"}, {"rating": 4.3, "name": "Museum of Art and History of Judaism", "reference": "CmRSAAAAvEU6xpXTTEuCD_BLABpAS4w4MMCa5KxpDsgBaSnTf6lOg32igWZv8N4PNYEXOq0dDk0_UcakZ1suRZ76dAYY-Z12haQlUQlEI1UvGOjMnkT_y7vaE8R16QO3FkA0goQsEhDXQ9DTPTXgWhDcsDUZ0JoQGhSnu_ghllhzBJQm5cNZJYzD4aXbBA", "geometry": {"location": {"lat": 48.86101019999999, "lng": 2.3556112}, "viewport": {"northeast": {"lat": 48.86233053029149, "lng": 2.357001580291502}, "southwest": {"lat": 48.85963256970849, "lng": 2.354303619708498}}}, "opening_hours": {"weekday_text": [], "open_now": true}, "place_id": "ChIJydDIqRxu5kcRqB6W-MQwcYU", "photos": [{"photo_reference": "CmRaAAAAxQ9Nu7V2pLnPFn1LASf5wCNX4-7vkPwFUSxUV8v9wBmTRKnirtTW6AXlzU9BbItCt4Uv0jLv4EagQaHvnGO1MaJOFutTCWIwD4mTq2WcdCoEjzqvan3yzPOWDXMRVk_SEhDnwm5aQtBcZH_Xtmecoc47GhSseD8cVVwFc7y1CkPQ9Ab4Uywc2w", "width": 5472, "html_attributions": ["<a href=\"https://maps.google.com/maps/contrib/111439998339572420275/photos\">Sebastian Stein</a>"], "height": 3648}], "formatted_address": "H\u00f4tel de Saint-Aignan, 71 Rue du Temple, 75003 Paris, France", "id": "d792857c93b46cdbf84a4471d25360372a219069", "types": ["museum", "point_of_interest", "establishment"], "icon": "https://maps.gstatic.com/mapfiles/place_api/icons/museum-71.png"}, {"rating": 4.2, "name": "Museum of Freemasonry", "reference": "CmRSAAAADm6kpEGIunbxdG1uXJistXV06RFSHlWjX60I5PIOIs-bQCLnm6W7lqAPVRHjqzcYRgYDtmDMTr3HEze2OlU-ScKTP8Pe9hotDsCEX7V16OSTjX_7P-UioWKrgvNgmkAXEhBQ93U4yrFGXtwauWVG3VpYGhQnDDiPkt7yd6b6usWN-NITAWcqgQ", "geometry": {"location": {"lat": 48.87488399999999, "lng": 2.34315}, "viewport": {"northeast": {"lat": 48.87625793029149, "lng": 2.344425030291502}, "southwest": {"lat": 48.8735599697085, "lng": 2.341727069708498}}}, "opening_hours": {"weekday_text": [], "open_now": false}, "place_id": "ChIJ5WeFCj9u5kcR7-yd40IpLKY", "photos": [{"photo_reference": "CmRaAAAA1ItdnN6B8VsPgeoETvfQGODfhDSIfUcuCtnkTQfmHH6v2picFBNGFxjzXEBvw7vuNkSiyJOJl9Lj9laEPCGmjZ-ksMrdIAG-_8U_ki4PyPG974WplpvXeMhWd-SpHLA3EhC35pIuDgWz5Q3lBQl0jmLsGhTRQBnLhS_N-27mp1tzh_VdlXzF9Q", "width": 1000, "html_attributions": ["<a href=\"https://maps.google.com/maps/contrib/101367942260771836396/photos\">Mus\u00e9e de la franc-ma\u00e7onnerie</a>"], "height": 667}], "formatted_address": "16 Rue Cadet, 75009 Paris, France", "id": "589b462bda8717e4bd4d351aff3be8b4d72fbf0f", "types": ["museum", "point_of_interest", "establishment"], "icon": "https://maps.gstatic.com/mapfiles/place_api/icons/museum-71.png"}, {"rating": 4.2, "name": "Arab World Institute", "reference": "CmRSAAAA9GBLYWZWlSVjUMI9lPHuDlcSw8iJPld9vUGl7KsQRSbcELt3w-UEWXZo0AJfBb6uWnNO79nP5aLUUVAQdwxa-6Chy5Fz4DChRDtSBtrJD8ATXTAV_GhVVWwAG40pL5nxEhAgBTsRGbkD8R8WjtikJynIGhQgRkSh9Gg09kSgBViueL8cyG5UgQ", "geometry": {"location": {"lat": 48.8489257, "lng": 2.3572313}, "viewport": {"northeast": {"lat": 48.8504774302915, "lng": 2.357968730291502}, "southwest": {"lat": 48.8477794697085, "lng": 2.355270769708498}}}, "opening_hours": {"weekday_text": [], "open_now": true}, "place_id": "ChIJK-03I_tx5kcRdA4Cj8VV1b4", "photos": [{"photo_reference": "CmRaAAAA_MGo9n4_grGLyv2V6k9u8VFIORoD72nJZDFT_pAk0xLMxJsXaEav7cVVnNyfuZuFAOCplZOafeRZlowaThwtkCaIioEL5aYbuvHE4rYnLFqVHqVb09_1rc8QLw-XZtW3EhAIHApEBEaM6HfnfrTeecQMGhTTWXlnL7EYCOmHfwKTo93PYbmZJw", "width": 7360, "html_attributions": ["<a href=\"https://maps.google.com/maps/contrib/107248789359318537950/photos\">Shalam Philip</a>"], "height": 4912}], "formatted_address": "1 Rue des Foss\u00e9s Saint-Bernard, 75005 Paris, France", "id": "a7777d0cf2d54e760b4dc330dc8be9e11aac147c", "types": ["library", "museum", "point_of_interest", "establishment"], "icon": "https://maps.gstatic.com/mapfiles/place_api/icons/generic_business-71.png"}, {"rating": 4.2, "name": "Mus\u00e9e du Luxembourg", "reference": "CmRRAAAA0dpuIj590Dry5zCqDv15Qwqs53BrxqEUw1UknGRYd1Gr76ev4ziQxaT7nVRT0ZqwZM7x0rKYQvNurtjgIw8e2xvlATG7XUWO6qBhjTQqgyoYx3CM9slcj42nimMF4jnLEhAy8fdHH6zkT8t5LWMc2WcFGhSk1agbgjeZj20QWEiPvpjSqVh7_w", "geometry": {"location": {"lat": 48.8484382, "lng": 2.334057}, "viewport": {"northeast": {"lat": 48.8500518802915, "lng": 2.335244630291502}, "southwest": {"lat": 48.8473539197085, "lng": 2.332546669708498}}}, "opening_hours": {"weekday_text": [], "open_now": true}, "place_id": "ChIJLxJL9dpx5kcR927ocHiDVgI", "photos": [{"photo_reference": "CmRaAAAA9qV_FQBdBtlAdv3_b96E1wU3UKD2hQ36dXRipBs97qGTp8vZvXFZPyRCqgtXZyR2kxNreGQz3KmFe7Q70j_GQEOFC7Z8h_sYstObKB-e9B4vgxZU9Lg6FxUTplxAVXOpEhCj91BwmM_WJvJUTWbFy9w8GhQ_xXxU7-C7kHnMtvqA8dWhyLqIvA", "width": 3264, "html_attributions": ["<a href=\"https://maps.google.com/maps/contrib/105834880555089718048/photos\">Robert SOUBRE</a>"], "height": 2448}], "formatted_address": "19 Rue de Vaugirard, 75006 Paris, France", "id": "a29daacb537d5b6ba9f07748e0b0fa1ac31573f3", "types": ["museum", "point_of_interest", "establishment"], "icon": "https://maps.gstatic.com/mapfiles/place_api/icons/museum-71.png"}, {"rating": 4.1, "name": "Picasso National Museum", "reference": "CmRSAAAAE7KMngPIJ1Dmq1jVjbq9-3ihLDzhpKqlRLEvIOPYs-F4RMiX-yYsLNC1ZBj3CfDw4UuUt8b0IjkVGyKIAOb7__8DHNrmn-hIJ-xvxGtrUwYpPUMFrilIyHBqN8-jj_7DEhDAO13_7M3IS7rzPt3BIxDeGhQRfC2ep45jIczjWeTjjx5P-m9gfA", "geometry": {"location": {"lat": 48.8598775, "lng": 2.362285}, "viewport": {"northeast": {"lat": 48.8611387802915, "lng": 2.363736030291502}, "southwest": {"lat": 48.85844081970851, "lng": 2.361038069708498}}}, "opening_hours": {"weekday_text": [], "open_now": true}, "place_id": "ChIJS2t0QgFu5kcR92388prakcE", "photos": [{"photo_reference": "CmRaAAAAxVAhEDVddfGmtL2n70cfoH2kGmW5GQ4zDpw4ItHflYNGcUDciv3gPx7ivSLd2VNekhtIcd1FQcIA0TXX1IJehCc-z9fjBERRDDWBg-4vfm2Hc7giEOuReA_G2xhl_U86EhAOMkwIBwx77_iEIICsQwVuGhS1go7qKUb3lI7Wq2GammXi9jkXVg", "width": 2688, "html_attributions": ["<a href=\"https://maps.google.com/maps/contrib/109220809679236070402/photos\">Cristina \u0218tefania</a>"], "height": 1520}], "formatted_address": "5 Rue de Thorigny, 75003 Paris, France", "id": "437d1813371792fb053268dfe95e2d30ed9c95d6", "types": ["museum", "point_of_interest", "establishment"], "icon": "https://maps.gstatic.com/mapfiles/place_api/icons/museum-71.png"}, {"rating": 4.1, "name": "Mus\u00e9e Gr\u00e9vin", "reference": "CmRRAAAA5n5Lf7Fg5qgk8s49nAZAf2h2t4-JtXvjCK5dNckh8tz0lBDC2XDFx3fw2m_cRP4Ix298Esovya9oOwHGRWYzwszvTgxYfvcD-McP6ysDMoTcF3m-Khj6ZIGe9AnVVYmSEhA5ND20fsEDbX7YOOb0Pqc7GhQXA6fbE3rPycvJurmCH6XPgupGsw", "geometry": {"location": {"lat": 48.87183779999999, "lng": 2.3422204}, "viewport": {"northeast": {"lat": 48.8730949802915, "lng": 2.343531730291502}, "southwest": {"lat": 48.87039701970851, "lng": 2.340833769708498}}}, "place_id": "ChIJVUrgmz5u5kcRWPSN-T8a730", "photos": [{"photo_reference": "CmRaAAAA-enl96-niktJwibX41mjmNNzfzQR3aH3hbW2uVdJKVxakFyPbYeyJdp0kUdvLjcMxnoqa1lvGzkO_kzsx33K6DEvnbaZpc21gNah1HWVVNaD17npbN53YJLi_3shFl4oEhASdSO27HzolO43hTJ0WzrbGhQOMb2t1A3WIkArOFUprEpEBVBvIA", "width": 5000, "html_attributions": ["<a href=\"https://maps.google.com/maps/contrib/104830790367177263258/photos\">Mus\u00e9e Gr\u00e9vin</a>"], "height": 3328}], "formatted_address": "10 Boulevard Montmartre, 75009 Paris, France", "id": "ad4b7cebe781fa4b1282606a2fe8e57022767726", "types": ["museum", "point_of_interest", "establishment"], "icon": "https://maps.gstatic.com/mapfiles/place_api/icons/museum-71.png"}, {"rating": 4, "name": "Museum of the History of Medicine", "reference": "CmRRAAAAtGipr-ttB4y4qMr2yT7ImmeOPPAr88PkJMVDQczg2jIURoxkZlwiMs-IjYNT0tjZq2D5DJeGy4Ql1memYoFUZUmSP60bg8oR7n9YtxDzsSV4ObQII0ah3MrHaLhBWIjUEhD5LEUoKrVksaJprkUZq1U-GhS9y-mlp6nK-kQBzGC3svFeskPtuw", "geometry": {"location": {"lat": 48.8512506, "lng": 2.340761}, "viewport": {"northeast": {"lat": 48.8525570302915, "lng": 2.342048680291502}, "southwest": {"lat": 48.8498590697085, "lng": 2.339350719708498}}}, "opening_hours": {"weekday_text": [], "open_now": false}, "place_id": "ChIJgerDKdxx5kcRC6a8bQCNWBo", "photos": [{"photo_reference": "CmRaAAAAWa8TYON1qihjmyJo5hD3OKcTaZnDkGC1XQvArMyE6xw_eeW45S7JwTEwBCrZKftLyGVZrEAJ7pY0fGn88D9vs7Y7k1GbZZju8UUWJ56y4odt4R6luRbZZKaMmqLh8d2UEhDW-plvgFrljkiA7vVPqzHuGhT9jpkyUzhBQGkwJyiAjGprUSjOYg", "width": 1365, "html_attributions": ["<a href=\"https://maps.google.com/maps/contrib/116727698353915833264/photos\">Mus\u00e9e d&#39;Histoire de la M\u00e9decine</a>"], "height": 1362}], "formatted_address": "12 Rue de l'\u00c9cole de M\u00e9decine, 75006 Paris, France", "id": "c6ab7f9bfacf0ec3fc045da742ef83218c5abcc3", "types": ["museum", "point_of_interest", "establishment"], "icon": "https://maps.gstatic.com/mapfiles/place_api/icons/museum-71.png"}, {"rating": 4, "name": "Adam Mickiewicz Museum", "reference": "CmRSAAAAT3AIMTRxJXIs-KUMUjYWrwoRRnRVcOfOFsJoYTuH8u4Tt9PjrEVvrnQrKWH9nuAfkx7FGMTHmDgR9fl6Vq0tIWK53-AXYJwS8GiEZVHFDmO-VOkTuiEr-dvUxtdap0xGEhCnOr2kfgpAinfnstG2IeCZGhTd5S6R255uBXkJ3Vx7-LeLywaUUQ", "geometry": {"location": {"lat": 48.85137749999999, "lng": 2.3556273}, "viewport": {"northeast": {"lat": 48.85265693029149, "lng": 2.357017880291502}, "southwest": {"lat": 48.84995896970849, "lng": 2.354319919708498}}}, "place_id": "ChIJzUK0rvxx5kcRz3yZX9CdtNY", "photos": [{"photo_reference": "CmRaAAAAiF6PnK_sasSXO_3l3EZP2m-BCpPVMzKCW41J_nkJp6l_DAGXi46FSla6TRbT9j6wpqLzpz10nhSJ-3BtoxHy0F_qZ1dfVv_OCpW17FnfaA-v1nAVomUq1zjd0VNUUh8CEhB84bdzS4-C7k4DZ8zeANuUGhSk7Ow65CQQb9v8gYViBqqK9AaCxg", "width": 1310, "html_attributions": ["<a href=\"https://maps.google.com/maps/contrib/104198155525513925723/photos\">Endre Horv\u00e1th</a>"], "height": 785}], "formatted_address": "6 Quai d'Orl\u00e9ans, 75004 Paris, France", "id": "dd6482654401f3094b43ba666992db258c854269", "types": ["museum", "point_of_interest", "establishment"], "icon": "https://maps.gstatic.com/mapfiles/place_api/icons/museum-71.png"}, {"rating": 3.9, "name": "Choco-Story Paris - Mus\u00e9e du Chocolat", "reference": "CmRRAAAAa4bCBsHN-pCHpX9DFTHfTe33yPdCgn0Kfkhsd0GNvenM_k4UfPkZA8unucHmig5CVpIENJ8IAM6sUxvBUu2P6HZIPylhWrUXwe1t49cALIxTgDb_MztXo0nmCub037cmEhC3G9MCZbXzbAM3neUbPUySGhSWjbhiGuX3OzU6xnm9vFQCwgZb0Q", "geometry": {"location": {"lat": 48.8706183, "lng": 2.3500979}, "viewport": {"northeast": {"lat": 48.8718008802915, "lng": 2.351367480291501}, "southwest": {"lat": 48.8691029197085, "lng": 2.348669519708498}}}, "opening_hours": {"weekday_text": [], "open_now": true}, "place_id": "ChIJUeI3vBZu5kcRYj9XxE8ADVQ", "photos": [{"photo_reference": "CmRaAAAAjCkw-42Q2joeaRG70O_hu-cbC4yzzNYrZR-QQ1WbaDpmjjY-0CvAgQ7ZIIqWQq7v58Aw6VexHG4pg6oBlrAr5x84fbbQUizRmiqBWYZbB98SI-X3xU7IaNak-_LWl0bqEhCHPJXX1SsacGimrNV87HgeGhSKLdLc8dd1dqGejQPk9G2h0sjfJA", "width": 2048, "html_attributions": ["<a href=\"https://maps.google.com/maps/contrib/101968019975180514983/photos\">gary turner</a>"], "height": 1152}], "formatted_address": "28 Boulevard de Bonne Nouvelle, 75010 Paris, France", "id": "1f9611517d91f90354ff40cac42a4c9419277207", "types": ["museum", "food", "store", "point_of_interest", "establishment"], "icon": "https://maps.gstatic.com/mapfiles/place_api/icons/museum-71.png"}, {"rating": 3.8, "name": "Museum of Magic", "reference": "CmRRAAAAlH0-cJCxQ2Fq5pjmghZ8N_h3a626duewpAAhyC3mJuhBMto-U9jPgxiQ3qtMh2jEceMiPzcHpCJtLBWsxjTLT_ns-ODxlYB6Q7Wy_yPNofD8D_RvWXfeaYu6tLkuVhBzEhAbchKO0U2pdQa_eG63ZdjFGhR2rxrr8vuzrO3FcF58SEEOG4Bb6g", "geometry": {"location": {"lat": 48.853154, "lng": 2.36116}, "viewport": {"northeast": {"lat": 48.85446128029149, "lng": 2.362554830291502}, "southwest": {"lat": 48.8517633197085, "lng": 2.359856869708498}}}, "opening_hours": {"weekday_text": [], "open_now": false}, "place_id": "ChIJjRsmgv5x5kcR6yiewFFd1wk", "photos": [{"photo_reference": "CmRaAAAAxYyP-MGJ6rle8HUtHYlIGWWsHgmauWCeV76s1Io0NWqGy1QsJhKc0gzdo5ylYFDe__0N1PajDmom5hLqDbHYfnAvqNzxPfzA4uYIOmTejiWRorHYeNCQB3EhqVoAmxs-EhADPStf7olcXh7EnDSyLd4lGhSgQ28a6ZoNOvaLe5pL3ybnealYCw", "width": 1004, "html_attributions": ["<a href=\"https://maps.google.com/maps/contrib/102027903217181519853/photos\">Mus\u00e9e de la Magie</a>"], "height": 1005}], "formatted_address": "11 Rue Saint-Paul, 75004 Paris, France", "id": "27fb5eee5aeac5594bb5e50285d6fe7e14af3796", "types": ["museum", "point_of_interest", "establishment"], "icon": "https://maps.gstatic.com/mapfiles/place_api/icons/museum-71.png"}]