[{"rating": 5, "name": "Inception Gallery", "reference": "CmRSAAAAvEpj4OuIsnaReqAjCPnIOWkMiBoVwqp99aBfyUEPsSTcicVh5sIJ7_MsJZoPQ2feFqXSUvJ7dJNXencLvzL-eJQKk0DtUnQ4FDPaJF7tLQqISuDOJahET3U6VUOtCg7yEhCZsmoe2i0ynMvE6DzZcp2iGhSDPXXUnhHSpwHON47VIXC-lq97DA", "geometry": {"location": {"lat": 48.8616362, "lng": 2.3617508}, "viewport": {"northeast": {"lat": 48.8629851802915, "lng": 2.363099780291501}, "southwest": {"lat": 48.8602872197085, "lng": 2.360401819708498}}}, "opening_hours": {"weekday_text": [], "open_now": true}, "place_id": "ChIJiXSDHQRu5kcRisCr_VyOYfk", "photos": [{"photo_reference": "CmRaAAAAUYrq7tnY6UCvAE50LTWzlUBBklF5n0pjutMMTtL-IqbwR3CqiwkNubKARLLV7AtxsYw8zFHj5nFdSzlIt4xEGGoeb_VLKK5KwSKKoz7x1VP2A6_4mFnsqDr98DtFkBjwEhC6Zyv1jzkrIibWpS80hJ0iGhTFYYps93RSHLXhJX9wj6R0iWB5Mw", "width": 900, "html_attributions": ["<a href=\"https://maps.google.com/maps/contrib/117034876031974032689/photos\">Inception Gallery</a>"], "height": 854}], "formatted_address": "67 Rue Saint-Jacques, 75005 Paris, France", "id": "ae1e872ad74fc06622ba6a8f1e0b8264c4ec4ad1", "types": ["art_gallery", "point_of_interest", "establishment"], "icon": "https://maps.gstatic.com/mapfiles/place_api/icons/generic_business-71.png"}, {"rating": 5, "name": "Magda Danysz Gallery", "reference": "CmRRAAAAH8E7YRoq2pw_fzLLyN6cAtXhBogPnBlOBewdn21Gi1eacEqHP_zyzkD1d7vf_NcxhnK5dBJUjj1iTjZ6zwxccixX6hq_jGDLnyhkaT4miTfCRZApJdYyE_BLf_KmKMOpEhBWcv7KJGOsz1G1Zahs-26xGhQ5hnnCzG7VdWS2PZ6ogGjf-aZzLQ", "geometry": {"location": {"lat": 48.86064760000001, "lng": 2.3681058}, "viewport": {"northeast": {"lat": 48.8619833302915, "lng": 2.369344430291502}, "southwest": {"lat": 48.8592853697085, "lng": 2.366646469708499}}}, "opening_hours": {"weekday_text": [], "open_now": true}, "place_id": "ChIJZXkmBv5t5kcR63gt559KxUc", "photos": [{"photo_reference": "CmRaAAAA4_OPR_TS4QNemWuDYhjXaLpUloRjyd2IfkBbOnUKOay_7C-8Z0FeMwJmES1XGkLrdDcBoPhSibV51AgUEPUa7QukQGSsx2qNL8evqlCWNye3aqaTQeTDrAscXtLRIMa_EhBnEo4lqN0BU8gIY45AkvhhGhS1VOQlSym9i9CZ0emDF_U0k35pVQ", "width": 5184, "html_attributions": ["<a href=\"https://maps.google.com/maps/contrib/107984381174441912185/photos\">Lisa</a>"], "height": 3456}], "formatted_address": "78 Rue Amelot, 75011 Paris, France", "id": "2c7022451f61153af69972dc721a241e19e5c629", "types": ["art_gallery", "point_of_interest", "establishment"], "icon": "https://maps.gstatic.com/mapfiles/place_api/icons/generic_business-71.png"}, {"rating": 5, "name": "Lebenson Gallery", "reference": "CmRSAAAA67eyTxBEx_De7d5bf-KZR_8PuLaxYfT_GFKDkERvqGdGMpTdY4DnV2PvhsJ3m-HMX1W8hbAq1xAJMQ3y6-tBMNnGctm5NTbFMF0bCVJEX1ClR_tTOrPQcKDv6ESDKFr3EhAsdkw7gLPE6yhYpFtdQ4TCGhQV7E2Js_cQdukU7N73NzqjV_S6ZQ", "geometry": {"location": {"lat": 48.86410849999999, "lng": 2.353755699999999}, "viewport": {"northeast": {"lat": 48.8654666302915, "lng": 2.355110630291502}, "southwest": {"lat": 48.8627686697085, "lng": 2.352412669708498}}}, "opening_hours": {"weekday_text": [], "open_now": true}, "place_id": "ChIJeSmu-Rpu5kcRnRb0N92lkpI", "formatted_address": "56 Rue Chapon, 75003 Paris, France", "id": "29589a77654cee67860b1b13711e87c11dfc78ac", "types": ["art_gallery", "point_of_interest", "establishment"], "icon": "https://maps.gstatic.com/mapfiles/place_api/icons/generic_business-71.png"}, {"rating": 5, "name": "Modus Art Gallery", "reference": "CmRSAAAAzM__WjHNJKVPNklWGbORz4JKxPpxOSHnnu5Y97X82vzr1lrWABMd0sqa4uylKFoh2jodMa2FRPi8XDiZgvMygGGtKzsXk_RQsvFPrm6CDOG01qDxBCBHIp1Agaq0rgIpEhD_VBvoe51jB3dzgR6yUa8NGhQgQ7CZpzf-olGQee3ZIyZQQNPl8A", "geometry": {"location": {"lat": 48.856365, "lng": 2.365225}, "viewport": {"northeast": {"lat": 48.85767283029151, "lng": 2.366557930291502}, "southwest": {"lat": 48.85497486970851, "lng": 2.363859969708498}}}, "opening_hours": {"weekday_text": [], "open_now": true}, "place_id": "ChIJO6ypIwBu5kcRKlGBjcGwc6Q", "photos": [{"photo_reference": "CmRaAAAAEHViHtL8QKVoJ2bwagvd8wkvkiDCTYitJIZLpBYTzBMhjND1k6dMVazr5NtT1LPm_XsBtqleeVPun-1Jqc6_55kHbFDu4JKLCHxHjVSGkHgd7_xlrjNbd8Qrc8c_FF5eEhCDyMIR2qIBnGcgWSNeK5V0GhQgT3WR6s9PkSi4gg-8AKNAt2dNGw", "width": 896, "html_attributions": ["<a href=\"https://maps.google.com/maps/contrib/106661715473239211404/photos\">Modus Art Gallery \u2022 Contemporary Art Paris \u2022 Bruno Catalano \u2022 Banksy \u2022 Pimax \u2022 Jesus Curia</a>"], "height": 897}], "formatted_address": "23 Place des Vosges, 75003 Paris, France", "id": "9a20e243a1c7c0c4446cb7cf71c3e250d96618c3", "types": ["art_gallery", "museum", "point_of_interest", "establishment"], "icon": "https://maps.gstatic.com/mapfiles/place_api/icons/generic_business-71.png"}, {"rating": 4.8, "name": "BACKSLASH", "reference": "CmRRAAAAnFzQYwlxmOt0zKB-SMjsPDrHKsKLluXbJncC_jZAEwemBN5MUWv4zUk4CMJIcgTN5jEZCQRxkPXEuNJea2tPCAI2PJqdjh7Qo6-R2KVlBXzU_s51hliGP-EFxecL0MSxEhCyFO1EVQr6kaUQbAWQBRU1GhTJ6NfmQuxsZMSyOenw-yNhWOqaXA", "geometry": {"location": {"lat": 48.86730739999999, "lng": 2.358830799999999}, "viewport": {"northeast": {"lat": 48.86869568029149, "lng": 2.360167330291501}, "southwest": {"lat": 48.8659977197085, "lng": 2.357469369708498}}}, "opening_hours": {"weekday_text": [], "open_now": false}, "place_id": "ChIJ14CFog9u5kcROcBlAFAgpRQ", "photos": [{"photo_reference": "CmRaAAAAedD1mchl4Y1gp2LzBp-bLtx_t4sxGhWhSqVryYG0SUkuhBp7dJcdnMsrzdDVfGEjhDKCHKHs_DdgzFKtrnla94Hv0vSVmBw4b4IWW9GSRGDNXN-JiQipSXyZtl4KkdO2EhDAaceCKHNXGPusKDez0cOkGhR24qsi6rh6wFmWYEAZ3OMevHrAvg", "width": 1054, "html_attributions": ["<a href=\"https://maps.google.com/maps/contrib/102660723781009182229/photos\">BACKSLASH</a>"], "height": 1053}], "formatted_address": "29 Rue Notre Dame de Nazareth, 75003 Paris, France", "id": "3a47230446c79fbce4103390d2621a9e84399e77", "types": ["art_gallery", "point_of_interest", "establishment"], "icon": "https://maps.gstatic.com/mapfiles/place_api/icons/generic_business-71.png"}, {"rating": 4.7, "name": "Galerie Olivier Waltman", "reference": "CmRSAAAAPwZzx2DYOIGeAYJwQSfeS9ltJSFPT0F_OK9Ltfyxh_q49FcibAXgPInrRgBgzetfjTdMPmm_WG8pfQ2MrmW7roog3g0zQX5YJKopQdj9NUD6nPXyl1W2_YXE5L6ehXjHEhDWC_SV_WmcC6zkWJK3bDggGhTPeY2l2hn26URES4LY8t9gsoAfLw", "geometry": {"location": {"lat": 48.8541207, "lng": 2.3380256}, "viewport": {"northeast": {"lat": 48.8554855302915, "lng": 2.339465180291502}, "southwest": {"lat": 48.8527875697085, "lng": 2.336767219708499}}}, "opening_hours": {"weekday_text": [], "open_now": true}, "place_id": "ChIJG7Ut0dhx5kcR_QqFo72LpKU", "photos": [{"photo_reference": "CmRaAAAAAaCNkHYqI_TMbiaD8jMY9sUOubF2WkKc7MU-Sc4HsY3UzCIzRbZsktLbx-Q799vU_8N8AwHtH892kMM_cQggzYgwxU4Ow5TrL1EHQrX2WG3UQMn9M4zWifwHCRgJCEUCEhB4by9dLM3RO8IInalTsn5hGhRfNMCVauUcP3A5wH9iGTbQ3xzNoQ", "width": 570, "html_attributions": ["<a href=\"https://maps.google.com/maps/contrib/104839632256514808181/photos\">Galerie Olivier Waltman</a>"], "height": 570}], "formatted_address": "74 Rue Mazarine, 75006 Paris, France", "id": "f402cadad20fcbb9ee1a55216f18cf04561ca5da", "types": ["art_gallery", "point_of_interest", "establishment"], "icon": "https://maps.gstatic.com/mapfiles/place_api/icons/generic_business-71.png"}, {"rating": 4.6, "name": "French Paper Art Gallery", "reference": "CmRSAAAA0z7G9aexJ1qThFA0r0y734yXqN6Czd0rsgKf7HB1t-8xp5Cz8hw3o_W34lLUlYtEd_0dLmUfSBWN6qDVv27p8atHqxLgy3C5EOTfvN5uzUTDrwpzulS9wUrwreQHpHaEEhC-AIKu6wMY7gwlN1yfNtffGhRKi8X1KX9FH1CtOtLHw1hBqJLBZA", "geometry": {"location": {"lat": 48.8671945, "lng": 2.358355}, "viewport": {"northeast": {"lat": 48.8685413802915, "lng": 2.359712330291502}, "southwest": {"lat": 48.8658434197085, "lng": 2.357014369708498}}}, "opening_hours": {"weekday_text": [], "open_now": true}, "place_id": "ChIJV5vglQ9u5kcRl5lM9sY5788", "formatted_address": "51 Rue Volta, 75003 Paris, France", "id": "98f708691f9a83c1b4f6d62abdf69c3a5b190c21", "types": ["art_gallery", "point_of_interest", "establishment"], "icon": "https://maps.gstatic.com/mapfiles/place_api/icons/generic_business-71.png"}, {"rating": 4.6, "name": "Galerie Paris-Beijing", "reference": "CmRSAAAAEz4u96JkOjeKvRqWZ85H_eJOK9xmOuM69k8GwAabOtnGthJQIvFqmFYRUr29LuuKCxDS1XbPuxpvxig4kQl0wdiUz-MkxrMDyAE-R--hNUPGzPypoJYntbkxDjgWOkwiEhCyiXjUGco1MuWVz5P2rFvnGhR_pvFgLXMvomNS0ojSi2SDhqOCKQ", "geometry": {"location": {"lat": 48.8659076, "lng": 2.3587883}, "viewport": {"northeast": {"lat": 48.8673277302915, "lng": 2.360100030291502}, "southwest": {"lat": 48.86462976970851, "lng": 2.357402069708498}}}, "opening_hours": {"weekday_text": [], "open_now": true}, "place_id": "ChIJXQWs3g9u5kcRQ8ZG8wwyvtk", "photos": [{"photo_reference": "CmRaAAAAjlSktKnzkHpyMqIdTdowQsdjW7r_j5FsyYzb95ABqp-SSVy65zTwMoEjLAUw13-yO4QLxZLDwg42NYksldhJz_QZAqMOaI94MQfJqJyQq63DWyoufZAkHAGqvHj9xhXjEhABJwtz6JzBP5dNgowWAj93GhSHcMp6FrCQV7yI4rr0lGXmgbn4yQ", "width": 1600, "html_attributions": ["<a href=\"https://maps.google.com/maps/contrib/101955875064075409146/photos\">Galerie Paris-Beijing</a>"], "height": 1088}], "formatted_address": "62 Rue de Turbigo, 75003 Paris, France", "id": "549fcb94b4229f91e5a1a8dad3104a783dd287ee", "types": ["art_gallery", "point_of_interest", "establishment"], "icon": "https://maps.gstatic.com/mapfiles/place_api/icons/generic_business-71.png"}, {"rating": 4.5, "name": "Marian Goodman Gallery", "reference": "CmRRAAAAidWjF76p3w5BKdvksUcCjHh1dd58TNP9jtcMgyQmpYCgNjNLnwh2aiCh287t2uWQGS1FUYUDR7k8U9RnAdWDLqVci8fILmp-1t1Lk-btpTgb7bfUZvFbm10v2F_gqBj8EhCE9KZgxFG5ZhIrCHTF2WnAGhS-IkiuNqxZB52sPF5WQIwKirJXsg", "geometry": {"location": {"lat": 48.86153299999999, "lng": 2.3560143}, "viewport": {"northeast": {"lat": 48.8627091302915, "lng": 2.357322930291502}, "southwest": {"lat": 48.8600111697085, "lng": 2.354624969708498}}}, "opening_hours": {"weekday_text": [], "open_now": true}, "place_id": "ChIJ5eGqrARu5kcR_RALcQULvSA", "photos": [{"photo_reference": "CmRaAAAAEv31qRIzOZ_miDIBdsYCOP8JFxDGGK_d_wEbAOHLgFEudRPCAJp117EEVQZUnQR82LIbdiYGNjVMGBbxW6KESRmOgbnI2kXvY_58cxcvGVCEfUMf680ea9E_WM3OJnFkEhDjlV3ZteYZ0qiZeaXADdwLGhQPjuWvd9XUetArSI-msYu2Y9FKGw", "width": 4032, "html_attributions": ["<a href=\"https://maps.google.com/maps/contrib/110052026801749634977/photos\">Jay Swanson</a>"], "height": 2268}], "formatted_address": "79 Rue du Temple, 75003 Paris, France", "id": "453bc9697cc56b0f0877ed9aa50cf3b543433154", "types": ["art_gallery", "point_of_interest", "establishment"], "icon": "https://maps.gstatic.com/mapfiles/place_api/icons/generic_business-71.png"}, {"rating": 4.5, "name": "Lambert Yvon Galerie", "reference": "CmRSAAAARLTJY7cnTBisUlPHyF8FBZmhnnxuhIW2AIsvQfFoKgNLVF1SfEXcS22qDd3Pve9ZfjEous--7yYpZ2Rt7S26CnJSwlc9YRJEhnvYi8QBhMevqjcNIzjnbRDeyniSblNbEhAT9NMtORNPbc_nLz_NxUdUGhQRe4k8h948_miZn8rpm3uTKFdQWw", "geometry": {"location": {"lat": 48.8609271, "lng": 2.3627823}, "viewport": {"northeast": {"lat": 48.86231213029149, "lng": 2.364087430291502}, "southwest": {"lat": 48.85961416970849, "lng": 2.361389469708498}}}, "opening_hours": {"weekday_text": [], "open_now": true}, "place_id": "ChIJVV80tAZu5kcRkV3VxrEibIo", "photos": [{"photo_reference": "CmRaAAAANz0eYY_VUcOWdCsMNl51tqiBtvzkqg9Ninpk5y10cSeQcsxPb4ooqswqDdXvqUgSbKDM7Iya6vp7_r_N425im7-A7zYW6ttDT2xvbN-KV1viBudwU0pGmTAII_rWDafFEhBZTtDWggPI8jLxBzuAitKnGhQcmy1ljVgMGwzz-LdJ0zaIS7v-8w", "width": 2048, "html_attributions": ["<a href=\"https://maps.google.com/maps/contrib/110339251134382062957/photos\">Arrigo Torelli</a>"], "height": 1297}], "formatted_address": "108 Rue Vieille du Temple, 75003 Paris, France", "id": "7d8380deed3343981eadb9dcdf6c9ad4212cdbd4", "types": ["art_gallery", "point_of_interest", "establishment"], "icon": "https://maps.gstatic.com/mapfiles/place_api/icons/generic_business-71.png"}, {"rating": 4.5, "name": "Galerie d'Art Joyce", "reference": "CmRSAAAAgkIkDOsAoOsDOCpNNYoYRpb-03ciroZIqHqsz8kFH7u3moylbCf6f_8PTqCAwS2xwsrDyCEaXppmXHG40lNPd_9_VuXH_EXsjB3NqkyAzJeb5wuAMuH2YMelySj4oMPLEhCTRe8BSdf5fjvDbwq4ddj6GhRlA8EDWtjsJv2Ct_HVoNKdrvErjw", "geometry": {"location": {"lat": 48.8638959, "lng": 2.3378301}, "viewport": {"northeast": {"lat": 48.86525393029149, "lng": 2.339141880291502}, "southwest": {"lat": 48.8625559697085, "lng": 2.336443919708498}}}, "place_id": "ChIJrZNjXyRu5kcRQmCc6ky_UrI", "photos": [{"photo_reference": "CmRaAAAAJ8l5ABvKwBZ5t7x1jgqwD5fjrr5Wy0RIeqXs5Nda9qOVsMvpgJKs0vFtTZroRcZ5cwJgsAfCDqlgN-ERxk6Sevcy_eFxpIPu8ZU_SzbRUi7JXTKKOxAkPpQ68XRXbS2eEhBPyu6Sw4XuDQR-p-Cr3NeuGhTYM2_9g8-25aNjcY4ZPPR-aRf1fw", "width": 1377, "html_attributions": ["<a href=\"https://maps.google.com/maps/contrib/106244115112966901242/photos\">Jozef Halac</a>"], "height": 789}], "formatted_address": "168 Galerie de Valois, 75001 Paris, France", "id": "cd1c5d89e90d00f46b6d4bca1fde3cf9bcf61d42", "types": ["art_gallery", "store", "point_of_interest", "establishment"], "icon": "https://maps.gstatic.com/mapfiles/place_api/icons/generic_business-71.png"}, {"rating": 4.3, "name": "Gallery S. Bensimon", "reference": "CmRRAAAAYb4NT5Lz2OJe-vmwPohzlYbH8oMzEVAT4dIZVug-_xMvCgjKUcmusKkogJAv9cvRR3lrOIf9fRD6Z1y9tZRY3UzYoptvd7SHMBf4ohZCOoVyES5trIAT5kX611NpCBexEhCKzrn5PyxsBsrj66rRNRgyGhSFdmYPWKfrZG8O7ScqryztcDzNrg", "geometry": {"location": {"lat": 48.86244989999999, "lng": 2.364279}, "viewport": {"northeast": {"lat": 48.8637973302915, "lng": 2.365812180291502}, "southwest": {"lat": 48.8610993697085, "lng": 2.363114219708498}}}, "opening_hours": {"weekday_text": [], "open_now": true}, "place_id": "ChIJ7VB6_QZu5kcRHK5eGKB-5yI", "formatted_address": "111 Rue de Turenne, 75003 Paris, France", "id": "5ff83eba215aa0a89d1daa5906f451fe96327871", "types": ["art_gallery", "point_of_interest", "establishment"], "icon": "https://maps.gstatic.com/mapfiles/place_api/icons/generic_business-71.png"}, {"rating": 4, "name": "kamel mennour", "reference": "CmRRAAAA_oF9NTERHqJNLMJ6I2pa-I09gPGsY_qh8jBut795Wg6OviCHMMyOe6QK-3hbrLkgGk_AVfzcbM3ti93ZsBlaX8pq2NNJCJHRfsXMj1fAfds68IBOw6G9oZpRJATjmnkrEhDFb1bfELV7RfWzzx55lnDzGhSZ2xpzqNp73N8Cojvy0ugavv05hQ", "geometry": {"location": {"lat": 48.85340300000001, "lng": 2.3399656}, "viewport": {"northeast": {"lat": 48.8547835802915, "lng": 2.341321980291502}, "southwest": {"lat": 48.8520856197085, "lng": 2.338624019708498}}}, "opening_hours": {"weekday_text": [], "open_now": true}, "place_id": "ChIJCZmA3d5x5kcR_93au7VplSQ", "photos": [{"photo_reference": "CmRaAAAABiDHOLhOMDw4o_wdbkPQbEBybvuEjVWWA-NTZVqj7-Kyf-UGa6ZVAdOffPJqlAfdPukdEzuzIbcZirNlrxZfH0dK0dWuh_-sTBxvXyMZp5dcrSaWGMGNzqcJ4l8yk-3DEhD6z5hWi57spjf67JzYKdPEGhQa4EOY5Z5epOyAmuRfmeSuCI9NQw", "width": 1143, "html_attributions": ["<a href=\"https://maps.google.com/maps/contrib/105991587718193288711/photos\">kamel mennour</a>"], "height": 762}], "formatted_address": "47 Rue Saint-Andr\u00e9 des Arts, 75006 Paris, France", "id": "1a9400bced504581daf07f9b5b52ee745531e171", "types": ["art_gallery", "point_of_interest", "establishment"], "icon": "https://maps.gstatic.com/mapfiles/place_api/icons/generic_business-71.png"}, {"rating": 4, "name": "PRAZ - DELAVALLADE", "reference": "CmRRAAAAWGI4koqeN91ovZL6muSSWHquSPh3bdm3I4bSmBdNKhP32MXBr-heRB6GJ64ag24US5-I0TFoQQhyoYcNxyBMTC7VcZ1-FNNu-5VL5gutv7qe4X4EBkLpK8RjbniqR2c3EhCKUTqFT6dWaUQ9_AFvHPMwGhSMTF1SsRgt_2ZPXQ02m1knIAuD-g", "geometry": {"location": {"lat": 48.86153729999999, "lng": 2.3575583}, "viewport": {"northeast": {"lat": 48.8628927802915, "lng": 2.358915430291502}, "southwest": {"lat": 48.8601948197085, "lng": 2.356217469708498}}}, "opening_hours": {"weekday_text": [], "open_now": true}, "place_id": "ChIJ1-0mvQRu5kcRjyfyXfgbY2o", "photos": [{"photo_reference": "CmRaAAAAzdHd6Pda9uy5LcP2ideBIxZ75jFQMlwWIDqva21A-tBR7PnZyqguWf8GVp6SEMOwCcc8G7Hihg3lJRJQ2sI96ptbvm1Trnl7hhjJcvZU-9jfa_gB12JAcVrx135qO3_8EhDPoDODTkiic69pGgOkKs9PGhRWHEYeLdV7UBamb7b38CU9jpVZlg", "width": 522, "html_attributions": ["<a href=\"https://maps.google.com/maps/contrib/108515009479585292996/photos\">PRAZ - DELAVALLADE</a>"], "height": 343}], "formatted_address": "5 Rue des Haudriettes, 75003 Paris, France", "id": "488318da793aa69a55005a1904918d028d86c1ef", "types": ["art_gallery", "point_of_interest", "establishment"], "icon": "https://maps.gstatic.com/mapfiles/place_api/icons/generic_business-71.png"}, {"rating": 3.8, "name": "Almine Rech Gallery", "reference": "CmRRAAAAzsCi0sya2o7aKQk-uP9KuvsigyLokTDI4wjvldu5TGUtoiTK1hiH6HfvzGC29aQ-BC94S9OxMC5ASTV1ecY2jjZkCIPJ_vPT3-auEBNLFrTV7m2U_0x2cSZlVEqzewhAEhBhIWjW-jAcbMiAZix3-FmNGhRKulf9ebYXTm7Is0GBBD2Z98Lvfg", "geometry": {"location": {"lat": 48.8594794, "lng": 2.364659800000001}, "viewport": {"northeast": {"lat": 48.86082878029151, "lng": 2.365950680291502}, "southwest": {"lat": 48.85813081970851, "lng": 2.363252719708499}}}, "opening_hours": {"weekday_text": [], "open_now": true}, "place_id": "ChIJT4-mpAZu5kcRoqmxFuqkji8", "photos": [{"photo_reference": "CmRaAAAAY4OpZZnpuHBoaNoLBkRaS_n_RVjpkauR8kjYnqlB49BAVXaY1FL39GmSLlEqVWNR7MT-jRPIeBxJ3i9VF630VEoLdnBnC_xTFMKn_4OpKqm_9SMI15q9SGr5AxVX5dHLEhDvbPKHmcMY0-D0r2QghtK0GhRcaerYdqm9hJ-KmtALzz89xzJD-Q", "width": 4608, "html_attributions": ["<a href=\"https://maps.google.com/maps/contrib/112342739926698595395/photos\">Michel Sibilli</a>"], "height": 2592}], "formatted_address": "64 Rue de Turenne, 75003 Paris, France", "id": "21d0ef0da4241e2c628c3a8fa5d34ca7eebe7f9c", "types": ["art_gallery", "point_of_interest", "establishment"], "icon": "https://maps.gstatic.com/mapfiles/place_api/icons/generic_business-71.png"}, {"name": "Galerie Kamel Mennour", "reference": "CmRRAAAA3G-kmvZaoH-oVx2ns5acYRZ1tX4hbd21KpgpcNrGX332W_ypksdBdoffd-rmV4oBi79YSeGg2KZtYVnJ6smQi6iGnC1ObfGtqK8rDDa9TFZYpVvs7_XkRW1ffLcuV6t_EhBjxNVM6Q8uPDyn2OOKB5ZuGhSAsDlSk8s_qEH4gDrP_FcETSCCpA", "geometry": {"location": {"lat": 48.8553694, "lng": 2.340160500000001}, "viewport": {"northeast": {"lat": 48.8566718302915, "lng": 2.341438680291502}, "southwest": {"lat": 48.8539738697085, "lng": 2.338740719708498}}}, "opening_hours": {"weekday_text": [], "open_now": true}, "place_id": "ChIJddYBQt9x5kcRuOwCx1cS2AM", "photos": [{"photo_reference": "CmRaAAAAEHGB0mGvQpmHw1G2WyJMppqJ17teiCavZomjTaVe-aO5nmMNm8dpsSk3dlJqNQPJyrXDMohwmBU8lMJ7BufCh6QyH1ICHuEAYDSPwt9APAKd3BQr7q5Mdn7XejxK4zztEhCB6tCMpT5bbGto5Fb6qmYPGhScohYDW_eXF-eAHDHH1FWcfeTMGQ", "width": 3264, "html_attributions": ["<a href=\"https://maps.google.com/maps/contrib/112032313489218903309/photos\">Miguel Montilla</a>"], "height": 2448}], "formatted_address": "6 Rue du Pont de Lodi, 75006 Paris, France", "id": "538405464709db34f608dda414b70cce7c1a14b5", "types": ["art_gallery", "point_of_interest", "establishment"], "icon": "https://maps.gstatic.com/mapfiles/place_api/icons/generic_business-71.png"}, {"name": "Bendana Pinel Art Contemporain", "reference": "CmRRAAAAdPYgHerin6aqYhddx522nf7wD4yoiy_s5SWlMew02cFzF7YsMIGLiI9FCbBsMBPIIfxWcdmNI38J2RBnToMc5pOiWWkvoNgR7_ToZAL2BtEl6nukEcmQ50eqTNgrH9RtEhBoK0C0WjXGfnekCUVbz1-vGhRJ_tHc4pmsyTyBGOKmLaWOSz1Byw", "geometry": {"location": {"lat": 48.86068969999999, "lng": 2.3617115}, "viewport": {"northeast": {"lat": 48.8620143302915, "lng": 2.363025130291502}, "southwest": {"lat": 48.8593163697085, "lng": 2.360327169708498}}}, "opening_hours": {"weekday_text": [], "open_now": true}, "place_id": "ChIJnxUb_gNu5kcR83MOUkVtKiw", "photos": [{"photo_reference": "CmRaAAAAi0atG6Yz6OI87oMA_ugo6jRULQLCDx4MA6zEd-Bj_wdO6xOmz-0jCsLykSLJanr3JDF65GVVL-298-xfqYPmaMLuetqZeY_lH70Izh8Sp_FSc1sZ2zHWIzhK2Zr3BLF-EhCT0ghk041PmeEa__p9535iGhTGRrWGtE3hMon7yAG97FT6fvn5og", "width": 648, "html_attributions": ["<a href=\"https://maps.google.com/maps/contrib/101326339840501926310/photos\">Michaelle BOUCAUD</a>"], "height": 1152}], "formatted_address": "4 Rue du Perche, 75003 Paris, France", "id": "8882eda963517819049596da17012701dce62e75", "types": ["art_gallery", "point_of_interest", "establishment"], "icon": "https://maps.gstatic.com/mapfiles/place_api/icons/generic_business-71.png"}, {"name": "Galerie Mingei", "reference": "CmRRAAAA0PGM9MKzB8m9O45xdhh7WHujQVHlEu8rlLHvynlN2mJuRPqgmA4I15VCsHJoHCyBR18sSaoZgPxuEr6eEyeZJ8_ybdTir5gT6bXhxtxE64fg086LKfzYjEwU-UOiD2AsEhBCXc2ytNEbVvnozLof78CTGhS4iYzv9cqoVCsrtR3gZmiK1wtTCw", "geometry": {"location": {"lat": 48.8555951, "lng": 2.3361807}, "viewport": {"northeast": {"lat": 48.8570144802915, "lng": 2.337546380291502}, "southwest": {"lat": 48.8543165197085, "lng": 2.334848419708498}}}, "opening_hours": {"weekday_text": [], "open_now": true}, "place_id": "ChIJB7cDidhx5kcRx7YEfmVI8mU", "photos": [{"photo_reference": "CmRaAAAAvirZ_oVOS0QVbIW0eP-dICkIq4a3M_6IEpuBnnd6QU8iKMLoSGLuVhSPFLA31kmoCnK7v5bCJogHecs6z9dqjBEt3WAPuijuFnRvz00w7pc9LFpa1JGRVXHJrQD6SDfGEhCAsZfTvvMl8KCH-TltkWtaGhRowZ_Q34u0IR2cbqUz_rLhG-tQDQ", "width": 1542, "html_attributions": ["<a href=\"https://maps.google.com/maps/contrib/113530170504088554012/photos\">Galerie Mingei</a>"], "height": 1536}], "formatted_address": "5 Rue Visconti, 75006 Paris, France", "id": "c499de71c66f5e5038803e4b4e866e14254f6276", "types": ["art_gallery", "point_of_interest", "establishment"], "icon": "https://maps.gstatic.com/mapfiles/place_api/icons/generic_business-71.png"}, {"name": "Galerie Vivendi", "reference": "CmRRAAAAp81NQGJxKbMkf0jVygjZibb3aS67yL7EDKHi9lsMmn53ksxW3vx3DI2xHD_m-p1d8xtxuej2HuNTjUwyBrjd2X6iyBUzZ0-mNVITLne-ITv8JewC4xd_kz7IOmZEbVi1EhDo3kTgVUEb_J8eeU44h1oWGhQXP0rjHbD_m8xYM7wZDiZcUDfuqQ", "geometry": {"location": {"lat": 48.8562725, "lng": 2.3660412}, "viewport": {"northeast": {"lat": 48.85755983029149, "lng": 2.367367330291501}, "southwest": {"lat": 48.8548618697085, "lng": 2.364669369708498}}}, "place_id": "ChIJr28YGQBu5kcRevCLyfbILDA", "formatted_address": "28 Place des Vosges, 75003 Paris, France", "id": "35b236665d8967ff19c44c60c5d72ed19d95fb5d", "types": ["art_gallery", "store", "point_of_interest", "establishment"], "icon": "https://maps.gstatic.com/mapfiles/place_api/icons/generic_business-71.png"}, {"name": "Laffy Frederic", "reference": "CmRRAAAAvggNxcCMQG9safM8id8vqXXLVSgNCFq88UEFLaXn0yCJEjMvEQdYwOdfIRj3PnEtQTng1wS_d9UVLI0qiLkCauUw9laBJSIPQ-aySaFP4O31vGZswRTV2AyVZ8L-QNGoEhDE6JE0QsDBRi-84Ls1zktbGhTicGme26I79cPoR1evSlfw_HOlag", "geometry": {"location": {"lat": 48.8710588, "lng": 2.3447333}, "viewport": {"northeast": {"lat": 48.8724077802915, "lng": 2.346082280291502}, "southwest": {"lat": 48.8697098197085, "lng": 2.343384319708498}}}, "opening_hours": {"weekday_text": [], "open_now": true}, "place_id": "ChIJ0Qn3AURu5kcRHPAEF_PB_Q8", "formatted_address": "19 Boulevard Poissonni\u00e8re, 75002 Paris, France", "id": "c211fe4538205a92e46b72fddf20e10ec8d3c9f5", "types": ["art_gallery", "point_of_interest", "establishment"], "icon": "https://maps.gstatic.com/mapfiles/place_api/icons/generic_business-71.png"}]