[{"rating": 4.7, "name": "Louvre Museum", "reference": "CmRSAAAA5H7qeL6yvhT9rDZZG3iSRfIZlfheOGIrMUC-VFjr0BW83iRXEvlb9XiM7H8bJw6-OOdULxNc6occxbu5WI0uvU5NIel3rSzWX8Vts5LlBRHA1ASJmW055FuB69JDzrBIEhAx-MxVFgrWzuD39cxBYQa-GhSMKDkzKQAYtmnm1-1NAZsqsW8PEw", "price_level": 2, "geometry": {"location": {"lat": 48.8606111, "lng": 2.337644}, "viewport": {"northeast": {"lat": 48.86313575, "lng": 2.3391953}, "southwest": {"lat": 48.85976955, "lng": 2.3329901}}}, "opening_hours": {"weekday_text": [], "open_now": false}, "place_id": "ChIJD3uTd9hx5kcR1IQvGfr8dbk", "photos": [{"photo_reference": "CmRaAAAAN3-ETem37a_Mso47md3vLyysZn_l9MGBROkwTAL2oFT0IBgUWZiDf1Wtum3rIKDkJtUxoL8e-BueEUDrElYD3Z1g1sRfmhe3CacVlFAZnFLFoxtmpqo0d0sJUXmNwyVnEhBNdRfV_49O05zzVwJ-LeFyGhQhhbayIspZ9IMHNVu32NpwHIphEw", "width": 4288, "html_attributions": ["<a href=\"https://maps.google.com/maps/contrib/109983477559905217030/photos\">Christophe Jacquet</a>"], "height": 2848}], "formatted_address": "Rue de Rivoli, 75001 Paris, France", "id": "9a007d81ca8f47ed30ddaf39c4174ef773b351e0", "types": ["museum", "point_of_interest", "establishment"], "icon": "https://maps.gstatic.com/mapfiles/place_api/icons/museum-71.png"}, {"rating": 4.7, "name": "Mus\u00e9e d'Orsay", "reference": "CmRSAAAAyyzv4U62tfke_aJi9oK1963bIR_sZP0-PiPmlP09KLpJUJDOWkspDXhzBveCehuMGfVijAqpzWr-xjOivllYdkilfhGmR_JNGocUFszr7yBS9sK1Q91mmLBxJ_uyMh6nEhBNl5g6K3JzAk7YORm2ssUoGhTNJ6UTYGfZgLILtrHXKzN1mxCtVQ", "geometry": {"location": {"lat": 48.8599614, "lng": 2.3265614}, "viewport": {"northeast": {"lat": 48.8615291302915, "lng": 2.3275171}, "southwest": {"lat": 48.8588311697085, "lng": 2.3236943}}}, "opening_hours": {"weekday_text": [], "open_now": true}, "place_id": "ChIJG5Qwtitu5kcR2CNEsYy9cdA", "photos": [{"photo_reference": "CmRaAAAAVjkeAo5WPnAHWL5GU4tUYwYRL8v-6AoEoWoRJ3Q-mFWIBDOz9Coz_2SPYqBs3_pOLH4IReSoT-65DQpUsOH30fKiflIebUebN6w4yL_rBGHX16c_F9QY18fSATEgJ4ZAEhA87OGTHJ5c-leEFJlaiSYuGhTzttlXh4-BxJBvjOV4bD29JDT-_g", "width": 2848, "html_attributions": ["<a href=\"https://maps.google.com/maps/contrib/104198155525513925723/photos\">Endre Horv\u00e1th</a>"], "height": 2136}], "formatted_address": "1 Rue de la L\u00e9gion d'Honneur, 75007 Paris, France", "id": "324ebea255dabc1cb3a5ca92839d3949530e05e3", "types": ["museum", "point_of_interest", "establishment"], "icon": "https://maps.gstatic.com/mapfiles/place_api/icons/museum-71.png"}, {"rating": 4.5, "name": "National Museum of Natural History", "reference": "CmRRAAAA9juw0RALbe3gbXGmtJafw4IJAphOmbfXkljmlFeuKjj0k06oQB2BCUaBN4YxABwC8IivOCnOAZqfkYhzfAiFkr60Q4MmoQTAbrP-uA7Gl1f2x0rqAQgdhlGufcioYvAgEhDCkWC7dE6Nw6cpyu5Xk9-RGhRSFZ1pXMjgIRnEBOwfROI9ww5-MA", "geometry": {"location": {"lat": 48.8443425, "lng": 2.3562101}, "viewport": {"northeast": {"lat": 48.8456914802915, "lng": 2.357559080291502}, "southwest": {"lat": 48.8429935197085, "lng": 2.354861119708498}}}, "opening_hours": {"weekday_text": [], "open_now": false}, "place_id": "ChIJEURALfFx5kcR4cbxSSHWQ0c", "photos": [{"photo_reference": "CmRaAAAA6xKuPAP8gZgCL1cKJ_SsTvYbfCLtDtf3J5DgHUkKSif2N-3LjcZ3yUIqbFGUJJlcTByG6OJZD2_kSjQaCSZNftSck_rjPpCUvcHLUPXO7uqLG5HqTr76ZJgVPurRNcVDEhBSpG5nK1hZi0mmHfxtyzI5GhRRB05zn4-MLDgNV2Sc2k20TS7Dsg", "width": 4128, "html_attributions": ["<a href=\"https://maps.google.com/maps/contrib/116329647050068364523/photos\">Val\u00e9rie Payen10</a>"], "height": 2322}], "formatted_address": "57 Rue Cuvier, 75005 Paris, France", "id": "c9b20c83264c29f12d01829dad7b5117af7ecf3d", "types": ["museum", "point_of_interest", "establishment"], "icon": "https://maps.gstatic.com/mapfiles/place_api/icons/museum-71.png"}, {"rating": 4.5, "name": "Metiers Art Museum", "reference": "CmRRAAAApGjRJNMLfgbDzijCoEwILCg_Pk90boaO_jkK49tUJiZNery3MmPHJwXGhXPO1UUp-YYY-akAALd46pVs3Lu92UaFOH_1qCkZwEltOzrdAeyHNSG5smWAEcr--JtRMxIqEhDyaDjlEC7k_18jZ7cCQ3NdGhT-J3RBt2YCMws89U8qPxTuODlUkA", "geometry": {"location": {"lat": 48.86663919999999, "lng": 2.3554383}, "viewport": {"northeast": {"lat": 48.86814788029149, "lng": 2.356274980291501}, "southwest": {"lat": 48.8654499197085, "lng": 2.353577019708498}}}, "opening_hours": {"weekday_text": [], "open_now": true}, "place_id": "ChIJNUTIphpu5kcR4h07VuxFIHc", "photos": [{"photo_reference": "CmRaAAAAvd-WXrGuOWB1mKa-wuKVKNMehVtVyx7FdPtT9_jgxxMlehzYmVNwcYbzKWh66UWjHBgN10ajHWToMDD41BZ6pVNMw92GhaXUsG9kp0QZonQ07N31muwnnUyCucME3KEWEhBj5Nba5BNC5HzQu2DlJ8FKGhQ8uOqLfs4cBtn2Wb5HPkhg_Mhb1Q", "width": 378, "html_attributions": ["<a href=\"https://maps.google.com/maps/contrib/100087783093988552392/photos\">Mus\u00e9e des Arts et M\u00e9tiers</a>"], "height": 378}], "formatted_address": "60 Rue R\u00e9aumur, 75003 Paris, France", "id": "8361ea0e7cef57e52503ed18c71a9c3860a6fd5f", "types": ["museum", "point_of_interest", "establishment"], "icon": "https://maps.gstatic.com/mapfiles/place_api/icons/museum-71.png"}, {"rating": 4.5, "name": "Mus\u00e9e Curie - Institut Curie", "reference": "CmRRAAAA2cc4zNUo0DZV_i11VZhiuCO6GeWhPvvABU3ArzyeEu_jR8TkYRgwFBnz3y1tHpmJg5sTdBw1ASHfkiMKObtv2O_yfIOHBhC6rTpjUyELaCxjURLVD5agMnvNMqmJcRXNEhBgC1WQT6lnJ-pehFktdSLKGhQKxb-hvwFEbHLnrl2VAjTes0F2Sw", "geometry": {"location": {"lat": 48.84422350000001, "lng": 2.3448276}, "viewport": {"northeast": {"lat": 48.8456133802915, "lng": 2.346030680291502}, "southwest": {"lat": 48.8429154197085, "lng": 2.343332719708498}}}, "opening_hours": {"weekday_text": [], "open_now": false}, "place_id": "ChIJjU2KN-hx5kcR3wlTp_OOrXA", "photos": [{"photo_reference": "CmRaAAAAIo9MXZT74JXgLIXzG5aNWdjG65Q1vHbzVdiQTznvty1ZtNl1sXJut7oQpEM5Lfa0EdYnSrL1HSOY7islCMgCNFYl6WOCfcyWUD0uRhWwR_ljEbphV-0Cr9lieiwkf7ujEhBfteLHIdJIFj3Orfh4jHTjGhSKWNJMh4vapGVX97lHmeNQPhY14w", "width": 4640, "html_attributions": ["<a href=\"https://maps.google.com/maps/contrib/114582577591249035011/photos\">Meraj Khan</a>"], "height": 3480}], "formatted_address": "1 Rue Pierre et Marie Curie, 75005 Paris, France", "id": "b2f8dd7eb6dc8e4ba61da47a0b57faf5b887570a", "types": ["museum", "point_of_interest", "establishment"], "icon": "https://maps.gstatic.com/mapfiles/place_api/icons/museum-71.png"}, {"rating": 4.4, "name": "Museum of Decorative Arts", "reference": "CmRSAAAAQOv6mB6RSCoaY6oc14dfXXfp9PJNl7kHbFhLOmlUkfL3NoNg28CaGTG2xyaKA9ktm_n0eJVZycVUg_MCWALuJDKisimYAVN2Zorn8L-lt4ZaMiZEDMVKQ9QjdjDTjm1ZEhBdYwJ-1s4kfexm8ZR77Qb8GhRzXzdSH6C9mQQQBCuzbZVG3RnLfA", "geometry": {"location": {"lat": 48.863063, "lng": 2.3333951}, "viewport": {"northeast": {"lat": 48.86452403029151, "lng": 2.334805930291501}, "southwest": {"lat": 48.86182606970851, "lng": 2.332107969708498}}}, "opening_hours": {"weekday_text": [], "open_now": true}, "place_id": "ChIJ_QwlZC9u5kcRi6OALXVubvc", "photos": [{"photo_reference": "CmRaAAAA8fMTs6eAe2Aol8x73gjn8tH86ix5ksFd35QXwLnauCeHeZs__b28bkQuHya1SfwtayltEGddrW8zgDPpbjgJFkbgGje6cdD1-3-06i4OA1Fib1Pb8d6CjBUafgTAACx4EhDLbndmvXJvQOaV5nQ7F3zLGhTmUAYQRf_fmwUGj6-Tdo7MRRclTg", "width": 4160, "html_attributions": ["<a href=\"https://maps.google.com/maps/contrib/101898502475390465407/photos\">Coco Izzy</a>"], "height": 2340}], "formatted_address": "107 Rue de Rivoli, 75001 Paris, France", "id": "169658dccbc306c41bcd48121afd255e3be81510", "types": ["museum", "point_of_interest", "establishment"], "icon": "https://maps.gstatic.com/mapfiles/place_api/icons/museum-71.png"}, {"rating": 4.4, "name": "Cluny Museum - National Museum of Medieval Art", "reference": "CmRRAAAAOtzHuJ7tz6FFv7i_FiAaQFhKDNQofCCyCL36VAOFR594inbVtFVASil8AmQZA9hTyPGPSE13A3SeIyhAZxgI-_HNUOI5GtuXVRuU-SZ19ob3EGCy4eGBfPxtXNLEQiC3EhAb485Elp_5n9Mgm-OfHH7MGhSlGcbZBam0wu3DT1R9jfFumIhuzA", "geometry": {"location": {"lat": 48.8504833, "lng": 2.3440808}, "viewport": {"northeast": {"lat": 48.8517204802915, "lng": 2.345387780291502}, "southwest": {"lat": 48.84902251970851, "lng": 2.342689819708498}}}, "opening_hours": {"weekday_text": [], "open_now": false}, "place_id": "ChIJLxPh9d1x5kcRf7M1U0pu1gU", "photos": [{"photo_reference": "CmRaAAAAxHlYN2-lOkIjy2VBqEF1MEtTkuDNxmu7XlZdhdgsRhYGCYAApu3OZ7pd2GLN8tbPIz-KlD74AV04BNDcExpXaF-HSyQTZ8sNxrDBzfYbFDH1EYWu3cYFuIK7u2hXBJoSEhBZhkvUHEhk2bRYFHVdkiJlGhQVegRA9oGaucFJpR4K1QnrgjTguA", "width": 4320, "html_attributions": ["<a href=\"https://maps.google.com/maps/contrib/105787647052433885325/photos\">Jonathan Letzter</a>"], "height": 3240}], "formatted_address": "6 Place Paul Painlev\u00e9, 75005 Paris, France", "id": "ddc83c8b7be273cc7384a91c31dc4e375967aa44", "types": ["museum", "point_of_interest", "establishment"], "icon": "https://maps.gstatic.com/mapfiles/place_api/icons/museum-71.png"}, {"rating": 4.4, "name": "The Centre Pompidou", "reference": "CmRSAAAACsY0s-cpURR1qigtXA_vV_d4yKLf4-nJOeSo0kI47y_Pl4NB7Rnh2iakODG0SAptQvL98RZPr1VDUBjnGN4fQVE0gAvOhGVUEeXg9VuYTcmBL4HLFDMjc6JafFFmqnRcEhAjfQgv2e-zOwzlMuIpusYGGhRo5zcC7ZhWTuF70WEcQuuLHJ8wug", "geometry": {"location": {"lat": 48.86064200000001, "lng": 2.352245}, "viewport": {"northeast": {"lat": 48.86193895000001, "lng": 2.3541162}, "southwest": {"lat": 48.85891794999998, "lng": 2.3513682}}}, "opening_hours": {"weekday_text": [], "open_now": false}, "place_id": "ChIJoyC4CRxu5kcRRTPcWX5srLc", "photos": [{"photo_reference": "CmRaAAAAtCMUzDrVAA-48chC6TqpuUK02EYAUhrhMiwplVO50D9ZxsfxJbllrwfRPzM3cVwe7vWcdOeBSHhQ4aTVlNPNyqkIWI-7KUJmlNCE4tqcp4U9KpvMzn3nN5F-eCWB48GtEhC_PPJxQOwTsdyUs5kn1Ke7GhTGXHWzhTAU3sH1D9KTbjdIIxID0Q", "width": 2028, "html_attributions": ["<a href=\"https://maps.google.com/maps/contrib/106029497379210586274/photos\">Egil Johannessen</a>"], "height": 1350}], "formatted_address": "Place Georges-Pompidou, 75004 Paris, France", "id": "8546df4461a8d783d8452ed7272edbee05a591b0", "types": ["museum", "point_of_interest", "establishment"], "icon": "https://maps.gstatic.com/mapfiles/place_api/icons/museum-71.png"}, {"rating": 4.4, "name": "Biblioth\u00e8que-mus\u00e9e de l'Op\u00e9ra", "reference": "CmRRAAAAo8EuDLJZo1URAkDuRgLKpnB8yFX2hPHVc2uuivInqKykIhRNGxXI8ojYZTdHI0re8-a6Y-ZFuZjNgN-rt-0QMwn9xfnQFgWmhUJMKnSv0kBsCEFF75fDNIMnDHkjMpkuEhDtttlXwXPEBXBHxlmFoA5OGhQ5katocKCTSj78yCQnHA_DjDR42Q", "geometry": {"location": {"lat": 48.8720052, "lng": 2.331714099999999}, "viewport": {"northeast": {"lat": 48.8734470302915, "lng": 2.332601830291502}, "southwest": {"lat": 48.8707490697085, "lng": 2.329903869708498}}}, "opening_hours": {"weekday_text": [], "open_now": true}, "place_id": "ChIJ5S5QKjFu5kcRx5gcUAcDn34", "photos": [{"photo_reference": "CmRaAAAAkWmKVS4lADnIQtxsNvwVEmzxgwPCbdILQOATk8wQh4ShBFn-LjYfe17GDeDd8ltiU1NsRVuY_qWJRcL1TGyPzl6PU2ja-tNLw4DJ2sODAGN0nh1qGODFslG_OlDw6hRTEhD6pNRQKFTBSjy5eGomOlBGGhQnXtl_8o9p-JqfdKSvZtZSyFu9Mg", "width": 2048, "html_attributions": ["<a href=\"https://maps.google.com/maps/contrib/109104673503451209616/photos\">Vladas Portapas</a>"], "height": 1366}], "formatted_address": "Palais Garnier, 8 Rue Scribe, 75009 Paris, France", "id": "eb5cb03aa6024c679ced7bfe01076c99d6dcebdf", "types": ["museum", "point_of_interest", "establishment"], "icon": "https://maps.gstatic.com/mapfiles/place_api/icons/museum-71.png"}, {"rating": 4.3, "name": "Museum of Minerals MINES ParisTech", "reference": "CmRSAAAAUQJIUjhhH5BRqh5FQaV33pgqQQSZ9tJOe9MwN6yk2bEZhCU8u5o6IIc7-vVpZSOlVJVfCkVtsO7SGM5fI68ep3hLDi1vo3Pxp_tjBkhAYkJEIrBxM-e3bD2lErHWaRrUEhC0lexpfruamE93n6QS1bm-GhTcFG4d-eloBUR8SqBzzsLlOSo_Gw", "geometry": {"location": {"lat": 48.8451192, "lng": 2.3394016}, "viewport": {"northeast": {"lat": 48.8466545302915, "lng": 2.340997680291502}, "southwest": {"lat": 48.8439565697085, "lng": 2.338299719708498}}}, "opening_hours": {"weekday_text": [], "open_now": true}, "place_id": "ChIJd104OsNx5kcRqW8-Crk_dKk", "photos": [{"photo_reference": "CmRaAAAAuDEFsDlytoh8__uSy_Nce49Q7q11XuAA9xxve2ClR_O1qhOVtiV3T6JHcHH6c9HVt409dT_DIl7u4Ph63LsBtFvWRIqMC0oDaOAkNPpsix7dcRNhGnKrR5aWcDrvXTwiEhCOAYFTw3BTAIDk3wEpC8PqGhRhoT8_FSQESo045LiNtEVg-vUSmg", "width": 4752, "html_attributions": ["<a href=\"https://maps.google.com/maps/contrib/111187841734342765161/photos\">Enrique L\u00f3pez Ruiz</a>"], "height": 3168}], "formatted_address": "60 Boulevard Saint-Michel, 75006 Paris, France", "id": "2baae64c3b0d4cc01ff4c51b08c1901a0f7350a2", "types": ["museum", "point_of_interest", "establishment"], "icon": "https://maps.gstatic.com/mapfiles/place_api/icons/museum-71.png"}, {"rating": 4.3, "name": "Museum of Art and History of Judaism", "reference": "CmRSAAAAEEB8aInHk8WiDY5ac471ErJsuHWjjt9TCMraVdjwNXX6Cdb7V9efkSVsdCCM0mprGs9P-RxsIpvVFyDzFWiI6SWQxoMKtvll_hcKJhLBEjszVmnh1PkZMoL9IBI2EGESEhDxwl-XNINzBV7vePdEFA_UGhRSqj3Z7fvBE3HXAOYeHFWWWsnO-g", "geometry": {"location": {"lat": 48.86101019999999, "lng": 2.3556112}, "viewport": {"northeast": {"lat": 48.86233053029149, "lng": 2.357001580291502}, "southwest": {"lat": 48.85963256970849, "lng": 2.354303619708498}}}, "opening_hours": {"weekday_text": [], "open_now": true}, "place_id": "ChIJydDIqRxu5kcRqB6W-MQwcYU", "photos": [{"photo_reference": "CmRaAAAAu2WZRwPqL_-YCucjBaG64YurR8N-dwa5KdalxLTJFUUrPS671Cg8rYc6tuecy08Z0Lcse7HSja1s007-0WH_etP6Q73--ZE7jGASv8lfSuTX6phx9zO8NyhYvrDSdWJSEhDCRA8MfpQ4QGBeWJbSmsUcGhRT792uP794hR6uhYcQ6-F02tLlZg", "width": 5472, "html_attributions": ["<a href=\"https://maps.google.com/maps/contrib/111439998339572420275/photos\">Sebastian Stein</a>"], "height": 3648}], "formatted_address": "H\u00f4tel de Saint-Aignan, 71 Rue du Temple, 75003 Paris, France", "id": "d792857c93b46cdbf84a4471d25360372a219069", "types": ["museum", "point_of_interest", "establishment"], "icon": "https://maps.gstatic.com/mapfiles/place_api/icons/museum-71.png"}, {"rating": 4.2, "name": "Museum of Freemasonry", "reference": "CmRSAAAA_8ZHIuNhpA96h_C6tG7ktvzmB-pHeJyJra-CNp8wWNHOw3BwUwYWiToIZrWM-UXPqa853C1regLSD0ZtJkbCfVfOBHD3wW-EigB2QPES6_W0fNt3dLlHexMZ9h-lsTCxEhAac8Y1Oi5EiO3HMhgVB7l8GhR3gda9lCDjFFIDXN3PH8sbv6cLLA", "geometry": {"location": {"lat": 48.87488399999999, "lng": 2.34315}, "viewport": {"northeast": {"lat": 48.87625793029149, "lng": 2.344425030291502}, "southwest": {"lat": 48.8735599697085, "lng": 2.341727069708498}}}, "opening_hours": {"weekday_text": [], "open_now": true}, "place_id": "ChIJ5WeFCj9u5kcR7-yd40IpLKY", "photos": [{"photo_reference": "CmRaAAAA4zq3gpS9EdPjdkozj-Vejy5YWgOe75cYihafzwsyaU-TffJMhc0HVepiKB7PeQHEB69x-LKRLm9UIFAWdQYXhH-dp7pD6xMGpVzwcJtkNcbgD7pO01pQ0AGpD_G8iD75EhC-dHuzRbDb41xgRyIjkOZJGhSYnsS3VfshYBFltYzXI2Qdlg77gg", "width": 1000, "html_attributions": ["<a href=\"https://maps.google.com/maps/contrib/101367942260771836396/photos\">Mus\u00e9e de la franc-ma\u00e7onnerie</a>"], "height": 667}], "formatted_address": "16 Rue Cadet, 75009 Paris, France", "id": "589b462bda8717e4bd4d351aff3be8b4d72fbf0f", "types": ["museum", "point_of_interest", "establishment"], "icon": "https://maps.gstatic.com/mapfiles/place_api/icons/museum-71.png"}, {"rating": 4.2, "name": "Arab World Institute", "reference": "CmRSAAAAgC_Sqh4q-8zPMY_mp0KUqxHBcWfJ8V6A8_XkrQ7CPcN_t2qDei2LsBSNHon6kQ4_KgY12rzPV7ruhZx75Qt23PWTZSFJa_TSYfBno67dv5dv0KEhTPznkvzS1a8b0XOkEhB3aCFC8PvbB1xotLmvv0U7GhQ0HKEnUFWtl8dE8apKxJpjjhirJw", "geometry": {"location": {"lat": 48.8489257, "lng": 2.3572313}, "viewport": {"northeast": {"lat": 48.8504774302915, "lng": 2.357968730291502}, "southwest": {"lat": 48.8477794697085, "lng": 2.355270769708498}}}, "opening_hours": {"weekday_text": [], "open_now": true}, "place_id": "ChIJK-03I_tx5kcRdA4Cj8VV1b4", "photos": [{"photo_reference": "CmRaAAAAFg4QzxekOXqBxXbyHj-PQI0H24RuFD4jIiQPvZegNYRATcp9RckN72_iNvBAsAOP2LWqEioV7wzoVU7Llva2nqZsAfztYKmrTXvqIpRdl7Xi5cqQM814tF_1Dj7yB-ErEhAdv00Ww_Vo-8g6KNsTVB_zGhRSKdkFX5Q7CFThDHPm3PHXu4ocJw", "width": 7360, "html_attributions": ["<a href=\"https://maps.google.com/maps/contrib/107248789359318537950/photos\">Shalam Philip</a>"], "height": 4912}], "formatted_address": "1 Rue des Foss\u00e9s Saint-Bernard, 75005 Paris, France", "id": "a7777d0cf2d54e760b4dc330dc8be9e11aac147c", "types": ["library", "museum", "point_of_interest", "establishment"], "icon": "https://maps.gstatic.com/mapfiles/place_api/icons/generic_business-71.png"}, {"rating": 4.2, "name": "Mus\u00e9e du Luxembourg", "reference": "CmRRAAAA3At0ur9Z8bNe4jL_uR8FAMg7jRSm7qjsGVpeNLvy6gzx2AKaUTdJbeXFnXNHlSrK06pN9ug0vXOFwbtqUH4gUecCozv6UCVOp2Dwja8jeKMfhdwKwh9R7oyjNXjHsQF_EhCO70qpHKL3utcX_fubptZ_GhTxToBSNE2W6_LkBTBdrioEWAprYg", "geometry": {"location": {"lat": 48.8484382, "lng": 2.334057}, "viewport": {"northeast": {"lat": 48.8500518802915, "lng": 2.335244630291502}, "southwest": {"lat": 48.8473539197085, "lng": 2.332546669708498}}}, "opening_hours": {"weekday_text": [], "open_now": true}, "place_id": "ChIJLxJL9dpx5kcR927ocHiDVgI", "photos": [{"photo_reference": "CmRaAAAAwnRpapqaPenmc7S_hIkX9FIw_N41Y4Q9ri2nTJJjN56Tgne3GKkJ0d7MF_FgpkceWt0Wao8G9VwhKxQ0epOd58FdSsSUgAcCl1tTOkv2H7lx6ASLe9y-s0C-7I2Jfpj8EhBl7IHzfuCaGpOo3hkwCruWGhQ8LUQKrPB5Kqb4w8J64wB_8AN5Pg", "width": 3264, "html_attributions": ["<a href=\"https://maps.google.com/maps/contrib/105834880555089718048/photos\">Robert SOUBRE</a>"], "height": 2448}], "formatted_address": "19 Rue de Vaugirard, 75006 Paris, France", "id": "a29daacb537d5b6ba9f07748e0b0fa1ac31573f3", "types": ["museum", "point_of_interest", "establishment"], "icon": "https://maps.gstatic.com/mapfiles/place_api/icons/museum-71.png"}, {"rating": 4.1, "name": "Picasso National Museum", "reference": "CmRSAAAA0ko68JuSKzda1qC6WliItGA3yqlYAiqovYDqSGJN-qpPbPQg2oiZwiJbmTVGleX-2GuruZVNvD4Mc-jyx7iTMwu2nnMXqQA65jqiZe8z5mzFLbcqqvri0eWAc_FgO_5_EhCaH9vVclQmF88VmXHNyzIdGhQykSQnfeI2kDEPGAkvHLxFKWUWNw", "geometry": {"location": {"lat": 48.8598775, "lng": 2.362285}, "viewport": {"northeast": {"lat": 48.8611387802915, "lng": 2.363736030291502}, "southwest": {"lat": 48.85844081970851, "lng": 2.361038069708498}}}, "opening_hours": {"weekday_text": [], "open_now": true}, "place_id": "ChIJS2t0QgFu5kcR92388prakcE", "photos": [{"photo_reference": "CmRaAAAAD8SLswvqOmWH-ADzTUyYFbcvbgWCHXbVwIkzc14C_tHD-EiecTQUtw586E3YunUlAE-5JHzswFptxf7HlA-0TeFRv5nAZJJZMKrZaLa_YfH5R6ngl6heJMGU71chZ3kvEhAD5mLDVBhy_Z8q36NhwEwUGhQhmrl01iejTfAb0yIjhkeAzfx-6g", "width": 2688, "html_attributions": ["<a href=\"https://maps.google.com/maps/contrib/109220809679236070402/photos\">Cristina \u0218tefania</a>"], "height": 1520}], "formatted_address": "5 Rue de Thorigny, 75003 Paris, France", "id": "437d1813371792fb053268dfe95e2d30ed9c95d6", "types": ["museum", "point_of_interest", "establishment"], "icon": "https://maps.gstatic.com/mapfiles/place_api/icons/museum-71.png"}, {"rating": 4.1, "name": "Mus\u00e9e Gr\u00e9vin", "reference": "CmRRAAAAQF3Wczhg3wCwWEhV3QJ5_AG7k-vHJWBcFgoUs-RwjnUW_-oDV_cvV820aFMgNTD9UFhS5svzVtdFwKP5w4Pr0lNtxRwV04TKFKH_PQfYyUg0BF90nj94Mm7OqWB4C50REhBZFaVMdblEe4nBnS5D0AOzGhQhOSWLwdadAjxzRo_okFIYHkRz7Q", "geometry": {"location": {"lat": 48.87183779999999, "lng": 2.3422204}, "viewport": {"northeast": {"lat": 48.8730949802915, "lng": 2.343531730291502}, "southwest": {"lat": 48.87039701970851, "lng": 2.340833769708498}}}, "place_id": "ChIJVUrgmz5u5kcRWPSN-T8a730", "photos": [{"photo_reference": "CmRaAAAAKYHufNXCodfk9KIJ-KNHrjBJgW6Z2jhX6ifU58ZorjjYcoV_nt_ZMk004ppkZMJQ0EUdDcL53CT0WbOqOr8dvvoBDHL-0I-wsySAuNmTeRFuXEhDXMPGjcSX5TvzHe-AEhADVuy0wWQc8eE9KkgyGw_3GhTL5J_tb6cYx7oMqC_ri0YQxm731w", "width": 5000, "html_attributions": ["<a href=\"https://maps.google.com/maps/contrib/104830790367177263258/photos\">Mus\u00e9e Gr\u00e9vin</a>"], "height": 3328}], "formatted_address": "10 Boulevard Montmartre, 75009 Paris, France", "id": "ad4b7cebe781fa4b1282606a2fe8e57022767726", "types": ["museum", "point_of_interest", "establishment"], "icon": "https://maps.gstatic.com/mapfiles/place_api/icons/museum-71.png"}, {"rating": 4.1, "name": "Mus\u00e9e National Eug\u00e8ne Delacroix", "reference": "CmRSAAAAibFYpNXPeC3Dp1xPIuvAzrAxrHkNk7Fgji8NUDAmzDlIhh4cy2SCT2ARRTtSRjreOqDEdgjde9CChaQRKH5uQbwGkQyrs1MUS2b2VV8JIB5xX9jycBDgY4_PQ8ZR5qLOEhCuQkTignYf2IjQuds0oRcFGhSz7kgHiN08bOtQqZfpGzLBpAX4cA", "geometry": {"location": {"lat": 48.8544557, "lng": 2.3355825}, "viewport": {"northeast": {"lat": 48.8557639302915, "lng": 2.336977880291502}, "southwest": {"lat": 48.8530659697085, "lng": 2.334279919708498}}}, "opening_hours": {"weekday_text": [], "open_now": false}, "place_id": "ChIJrZP7V9hx5kcRQlLc0kYQo44", "photos": [{"photo_reference": "CmRaAAAA521gEpn4zAETIFRD4x_FkvOtY6aTGVfTXyBrF1kFtP3XyvYe7sBfbOcKPiEouqeMt3GyO25SjiUF5DbghQ9WS-G_ojcuZ4QXPlxcu9sE6zrxyS8lo_p8F3WAFi-XDrZZEhBnD5JioImXXVBu54U8QsT_GhRd4l5tdJd-rwaR0eq45b7Fyo1ayg", "width": 1920, "html_attributions": ["<a href=\"https://maps.google.com/maps/contrib/114394317161364068230/photos\">Io Kouki</a>"], "height": 2560}], "formatted_address": "6 Rue de Furstenberg, 75006 Paris, France", "id": "fe694b503242b37d1ac77decc7395b989aee10dd", "types": ["museum", "point_of_interest", "establishment"], "icon": "https://maps.gstatic.com/mapfiles/place_api/icons/museum-71.png"}, {"rating": 4, "name": "Museum of the History of Medicine", "reference": "CmRRAAAAc-4nOxD65Qlg5K4Rx0VBYu6NEgi7d37G1TDTBZMfucxDpvWPg0DCDmUvNgdxoKchL1D2Dqw0F6JDjPP3uSlwvRdKK_YVviEhARE_a3-NG2uIglP8rfZT3b2IwVGpZ90REhDI712v5LiG1P8KVjoxcTJDGhSlY5t7taFBJFdtx1tLUP5NSyjXXA", "geometry": {"location": {"lat": 48.8512506, "lng": 2.340761}, "viewport": {"northeast": {"lat": 48.8525570302915, "lng": 2.342048680291502}, "southwest": {"lat": 48.8498590697085, "lng": 2.339350719708498}}}, "opening_hours": {"weekday_text": [], "open_now": true}, "place_id": "ChIJgerDKdxx5kcRC6a8bQCNWBo", "photos": [{"photo_reference": "CmRaAAAAzL31SdfJih0Y09YnJKtkYXZpwvHgXUxSjWG6_JiLNuRt_gPWVN-kXR4NH_DzME_e5IGYTQ-mDVwdULYsQoRhoqvBOU4EvLZvhLJ4QLcExXTemItbfxOwgEqL7QeG0CBnEhDKF9tbBZKuBQIt9MRkawxZGhQQqZUzpAdFPL9C3NFIN_e9ezof5Q", "width": 1365, "html_attributions": ["<a href=\"https://maps.google.com/maps/contrib/116727698353915833264/photos\">Mus\u00e9e d&#39;Histoire de la M\u00e9decine</a>"], "height": 1362}], "formatted_address": "12 Rue de l'\u00c9cole de M\u00e9decine, 75006 Paris, France", "id": "c6ab7f9bfacf0ec3fc045da742ef83218c5abcc3", "types": ["museum", "point_of_interest", "establishment"], "icon": "https://maps.gstatic.com/mapfiles/place_api/icons/museum-71.png"}, {"rating": 4, "name": "Adam Mickiewicz Museum", "reference": "CmRSAAAA3qVJY_0O6GhFJZsSBpay4lRX6uqK4HeeaG40r1lbv_YOStn3xC08UvwX6tqviyFkZDVWwC5HpZVq61fVyZLGar-sESG6ahBSSjOCasOyKkZFtqOFQ0IB-a7MKuJxmMN9EhDQh2fdTkY1jvSLz_iavtCxGhR-qKS-p8POqbjpapdAbaz_uTnq6A", "geometry": {"location": {"lat": 48.85137749999999, "lng": 2.3556273}, "viewport": {"northeast": {"lat": 48.85265693029149, "lng": 2.357017880291502}, "southwest": {"lat": 48.84995896970849, "lng": 2.354319919708498}}}, "place_id": "ChIJzUK0rvxx5kcRz3yZX9CdtNY", "photos": [{"photo_reference": "CmRaAAAAjeuwZAxnZ73VEN4oq-_JBbJXr6QqkijSJUHMjhvclBCnegveyPVee4aK1PMpUeyg8qPXkXLDstMGIHr2kOtqysIRGN2noIrULokgPvKS2ktzAcJjrEh-pzQlEpRAhGMkEhDge0_0xBu3O97x6e1cG8PHGhRS7XlTrIsM8dk6H2PJyGzIEQvvbg", "width": 1310, "html_attributions": ["<a href=\"https://maps.google.com/maps/contrib/104198155525513925723/photos\">Endre Horv\u00e1th</a>"], "height": 785}], "formatted_address": "6 Quai d'Orl\u00e9ans, 75004 Paris, France", "id": "dd6482654401f3094b43ba666992db258c854269", "types": ["museum", "point_of_interest", "establishment"], "icon": "https://maps.gstatic.com/mapfiles/place_api/icons/museum-71.png"}, {"rating": 3.8, "name": "Museum of Magic", "reference": "CmRRAAAA7OJjZgS0ofS2swjMGiXq7mbRnoNGmFwn_CjPVsBXNjXq1rQKf8ciCQSdm_EtF4VFylUK9Tp2Chm-zvEPVfhGw1olUC_emPemspjOE0t_fzwrVuhT7Qp7RFOCP4_4njBvEhDkhx_E2UdPW1p0vh54JtSwGhTCCRvzpnmMBqZ7mAgFyeGSM7gnnQ", "geometry": {"location": {"lat": 48.853154, "lng": 2.36116}, "viewport": {"northeast": {"lat": 48.85446128029149, "lng": 2.362554830291502}, "southwest": {"lat": 48.8517633197085, "lng": 2.359856869708498}}}, "opening_hours": {"weekday_text": [], "open_now": false}, "place_id": "ChIJjRsmgv5x5kcR6yiewFFd1wk", "photos": [{"photo_reference": "CmRaAAAA53R5sYYGu2btISkthbQYM1TdUBZpJZ5vHZ1QHqiuZjOi8eVquKTF8y8MhWNs4UpnuNabHlTnZS-NbOFs3C0L8BSRisi2b4uwO8UcOBRWTyjuo2VPitCgFWHPOqqiCiWmEhAL529vM_EJHgToZT7hR3CeGhR-NKJPAT7TNAoh22lyImWuK-ZdqQ", "width": 1004, "html_attributions": ["<a href=\"https://maps.google.com/maps/contrib/102027903217181519853/photos\">Mus\u00e9e de la Magie</a>"], "height": 1005}], "formatted_address": "11 Rue Saint-Paul, 75004 Paris, France", "id": "27fb5eee5aeac5594bb5e50285d6fe7e14af3796", "types": ["museum", "point_of_interest", "establishment"], "icon": "https://maps.gstatic.com/mapfiles/place_api/icons/museum-71.png"}]