[{"rating": 5, "name": "Intimissimi", "reference": "CmRRAAAAPzabb5I88GpXjR51L_VRCdIK7fv-KnKrci5uidNNDwkoqDe4XAYk5naTOtEnAE-6TmmjGgDNK0f5lzKvrgroFZQ9680pp_8NuAOpW6dzd8XcODtWq2brwEZmqcdFKPkEEhAvjkGdTJosaE3mTh20TzWlGhQjVO6A-I0tML4Yh9y2EBI7_TZN_Q", "geometry": {"location": {"lat": 48.84817829999999, "lng": 2.2967168}, "viewport": {"northeast": {"lat": 48.84947843029149, "lng": 2.298114830291502}, "southwest": {"lat": 48.84678046970849, "lng": 2.295416869708498}}}, "opening_hours": {"weekday_text": [], "open_now": true}, "place_id": "ChIJY5dcNxhw5kcRd1_pckOx5VE", "photos": [{"photo_reference": "CmRaAAAAm2M_YwfPxjL9Jtccy5mjrPatR8w5s9Oub7cIE7rQpDhuwNNfS_hUqAh30HBSGX9af8YSN7l0587-NaiCC1scUvC3rSvroZ0q9ey2wL9lFH6SBx2TmRu88U6RRGpx8a7GEhAo5b2C9E2mRs0BR9EpcLfvGhRX7ZI_H8uYJ_WVKJu5IAS9YkqOiA", "width": 4032, "html_attributions": ["<a href=\"https://maps.google.com/maps/contrib/101926943882142224550/photos\">Freud Ieuric</a>"], "height": 3024}], "formatted_address": "PARIS RUE DU COMMERCE 16, 16 Rue Du Commerce, 75015 Paris, France", "id": "05a1d2dd1a3bb7b639042beb0a1887d87be2ceea", "types": ["clothing_store", "store", "point_of_interest", "establishment"], "icon": "https://maps.gstatic.com/mapfiles/place_api/icons/shopping-71.png"}, {"rating": 4.8, "name": "babyGap", "reference": "CmRRAAAAPKGp3S23rfX69DhOJ9LkQ1DTUl9rX-wPeQovRTkrjyfAt7jMi8S_hGVyZYHOfeblPJ0iwkWkBaL9_uqn1rxqymfccp0xQcvq9QbFnGGl_zhMyBpsSqTZowfreFaW_AynEhALQc7UhChU14hCPij6NGcGGhRX7oKj18XyOzXx5xJOLH4eMdiZNA", "price_level": 2, "geometry": {"location": {"lat": 48.85895509999999, "lng": 2.3478312}, "viewport": {"northeast": {"lat": 48.86031873029148, "lng": 2.349106830291502}, "southwest": {"lat": 48.85762076970849, "lng": 2.346408869708498}}}, "opening_hours": {"weekday_text": [], "open_now": true}, "place_id": "ChIJ-QIn-B5u5kcR2DmIfT5FgmA", "photos": [{"photo_reference": "CmRaAAAAt5D0QfAtAkX-6Imxt1H4kLpqU3BR4Ko7d5nbUp5aHfGz9R4_-O2CrziCP60DznHauleuEaeKv9dLxAVe2s06fRmlDTGvsaFGgMcld0sHmfi-64R-vttU-pc2Y4ve90hlEhCj4pwPrcek5zUNawfCi9n8GhSw1VdVvBPwkgBi82utkRonOzGn-A", "width": 320, "html_attributions": ["<a href=\"https://maps.google.com/maps/contrib/113136854540036659795/photos\">babyGap</a>"], "height": 320}], "formatted_address": "14 Rue St Denis, 75001 Paris, France", "id": "25b827c0e14a83e5890ee6a07d68bfddae85fbc8", "types": ["clothing_store", "store", "point_of_interest", "establishment"], "icon": "https://maps.gstatic.com/mapfiles/place_api/icons/shopping-71.png"}, {"rating": 4.5, "name": "Michael Kors", "reference": "CmRRAAAAG08V9tlYooKZawoGgSnnVkWaWjw2stP8eGH0i_Z_omhTXMChqOG5Eq1hKY8Hax6-DBzsfSlCOMASymkD7MbZCRnxpxkbRVxTngdRwBfZGecAKE621QiLwlnfG_dR8cVEEhBkMXSSV5dR2AyC-YHUGEIQGhT7qRHi2zEcETUAILBCDPSfWaOXQQ", "price_level": 3, "geometry": {"location": {"lat": 48.84891649999999, "lng": 2.282670899999999}, "viewport": {"northeast": {"lat": 48.85026548029149, "lng": 2.284019880291501}, "southwest": {"lat": 48.84756751970849, "lng": 2.281321919708498}}}, "opening_hours": {"weekday_text": [], "open_now": true}, "place_id": "ChIJWX4P6QVw5kcReAnfJop64FM", "photos": [{"photo_reference": "CmRaAAAAhu2ukg6bd-XrOUKnYUz1R3NYyIF95A0mpZ-rlZFwHL-hJUU8eir9qZPeS-UDp-qBrjXcy8BNWF9g2Euz5RxBa7vb7h6IRcAPM9KgPVmRAow7VLgiRm6NIAWCTPGIrTRpEhAHVxNooTJzH41P6GzXudioGhT4pq20alIE0vrhDE2eEiF0DZSygg", "width": 1600, "html_attributions": ["<a href=\"https://maps.google.com/maps/contrib/104722455988817668041/photos\">Cl\u00e9ment POiSSON</a>"], "height": 900}], "formatted_address": "Suite B24, 15 Rue Linois, 75015 Paris, France", "id": "0e9003793f89166f9ca34c09ec7a7ab475c74be2", "types": ["shoe_store", "jewelry_store", "clothing_store", "store", "point_of_interest", "establishment"], "icon": "https://maps.gstatic.com/mapfiles/place_api/icons/shopping-71.png"}, {"rating": 4.4, "name": "Carrousel du Louvre", "reference": "CmRSAAAAvzrsNp2l-6N-mQ6DKpIMLmfPBRhkFvd2PjjIUOsHQ6yWFX_pJ_b6p9VdnsG1GwsmuXz4qCydbgjbCspqJZ2DwIFm1kaUcoyUFmzaqp7uuHbZIruQ2nWXeTXvD9nC7xDaEhCb6xwxFAhrr-3RveYO7N3RGhSwPD5BEVVbKWFEsAVTsjOVAb-xyQ", "geometry": {"location": {"lat": 48.86257800000001, "lng": 2.3349703}, "viewport": {"northeast": {"lat": 48.86401903029149, "lng": 2.336388230291502}, "southwest": {"lat": 48.8613210697085, "lng": 2.333690269708498}}}, "opening_hours": {"weekday_text": [], "open_now": true}, "place_id": "ChIJ6SJcCP5x5kcRJt8m9_lR7_Q", "photos": [{"photo_reference": "CmRaAAAAtup0Nkw8rUuX7TOgjk-cnIbPEufawsiyMQWsnGAT3MP3xp76l28TQwQx4hw69JTE7vCEwFmpe_1DnubfZYnA1ppx6ET0FXN884PiahAdm4Estj0P2j_sqYXho_GqcBvVEhDyKoi0KVZiYmXP7ZHUUGkeGhSCaF9kjHNKSpz2r4VyhakjcOcVEA", "width": 2048, "html_attributions": ["<a href=\"https://maps.google.com/maps/contrib/103555611056117706567/photos\">M\u00e1rton Gyenes</a>"], "height": 1365}], "formatted_address": "99 Rue de Rivoli, 75001 Paris, France", "id": "90f4c5a33914a4f8c018a728ef6e1d95f9de13a6", "types": ["shopping_mall", "point_of_interest", "establishment"], "icon": "https://maps.gstatic.com/mapfiles/place_api/icons/shopping-71.png"}, {"rating": 4.4, "name": "Michael Kors", "reference": "CmRRAAAABRp51DqEhQix_a3XAHYbnAyTwYEVG4jI7gQERyv1hc9ZZ1sgGhw97-SbtvD-FvwHsEUWwkYCUXMCMH0NFiX4WnSlrI1ZmqULm_40GVTLf8WLGOAa9K2EDu374MQplDSREhAhRtVVu_WeeMZtKn9ChFAlGhQOTeV1BunmvDlVxWSZ9rt4ydHd9w", "price_level": 3, "geometry": {"location": {"lat": 48.8680071, "lng": 2.3238821}, "viewport": {"northeast": {"lat": 48.8694233302915, "lng": 2.325294080291501}, "southwest": {"lat": 48.8667253697085, "lng": 2.322596119708498}}}, "opening_hours": {"weekday_text": [], "open_now": true}, "place_id": "ChIJ7ao7xzJu5kcR14QvsmgJQUg", "photos": [{"photo_reference": "CmRaAAAA6_8NUmiSoGSP8w7cEZPCGvhXlpoX7ZwfWEirfnY8L0a434qcp9MnhNSw0jEpAXj2WyavQHEQ1ejniOY92-a0Mxo0LqRwEwftKUYTk8rzQyHVJRIU2imnibSKJJXqgQ7YEhB8gvlpnRgpkzs-Cu6q0E4rGhSvqzvVo3x0RSOf61nOBHniCJkZVQ", "width": 1152, "html_attributions": ["<a href=\"https://maps.google.com/maps/contrib/116801789512402176421/photos\">Paola MARY</a>"], "height": 648}], "formatted_address": "279 Rue Saint Honor\u00e9, 75008 Paris, France", "id": "4f7e798aa2e94d4aa6b33e9da33ff7b82a4ce66c", "types": ["shoe_store", "jewelry_store", "clothing_store", "store", "point_of_interest", "establishment"], "icon": "https://maps.gstatic.com/mapfiles/place_api/icons/shopping-71.png"}, {"rating": 4.3, "name": "Desigual", "reference": "CmRSAAAAkpvW4ZMUsW6-pcs6fcY9x-Eu0C1xl5mYwXrr1aKUzttzRcPZ5NJYEiHgqPlNxGXsWC7TKDpKVCrCABBuvhxNTkl5a9RDNEWoiuWfJ0pJ8sQEm8qlZdsUCgGs2IYZYwc4EhBaA819Ogjv3Sx6ORdV2OzkGhTGmQKg0dWHptO9ykOgg6F0GGOOYQ", "geometry": {"location": {"lat": 48.8603339, "lng": 2.3497627}, "viewport": {"northeast": {"lat": 48.8617540802915, "lng": 2.351151730291502}, "southwest": {"lat": 48.8590561197085, "lng": 2.348453769708498}}}, "opening_hours": {"weekday_text": [], "open_now": false}, "place_id": "ChIJea-Lvx5u5kcRdJNTOMso_4w", "photos": [{"photo_reference": "CmRaAAAAEBZ_DaguPRT1aiR6oFpKTwhJ-QKlYRwVUMmR9Z8sUJqU4jil5-OR6JaZSUrD-bkZ5zSjXBRMSpNQVkj9F77OChGvFoLeLHkiXN6chphXkjW9a3NqSnpm_oWOiV8u4QzVEhDoR0SZfcWQAHyNMZ-O2OodGhQshlbVyCVr4VXExMhsFwZBo3Oi3Q", "width": 5312, "html_attributions": ["<a href=\"https://maps.google.com/maps/contrib/116863151959019634340/photos\">Olger Semper</a>"], "height": 2988}], "formatted_address": "27 Rue Aubry le Boucher, 75004 Paris, France", "id": "486554bdaf9e1e139519d863e4ff4b348ca49df8", "types": ["clothing_store", "store", "point_of_interest", "establishment"], "icon": "https://maps.gstatic.com/mapfiles/place_api/icons/shopping-71.png"}, {"rating": 4.2, "name": "Intimissimi", "reference": "CmRRAAAAUorfyBS_pqcJlJDzrgG8ajJ-JUknhJp3UVZfWPMBy66nzhgH8NQxlsOt9CVNdsE2CNZn-VPMiXSu1_P7jPnx11_AjpZLqWShPg-NIKCAbF3Af14v4j6VYlxmK3oT65vFEhA11JVNgfKXUZJUz874RxyAGhQhd_ZrmaVj6IAbwzwPNFUHcZuMXw", "geometry": {"location": {"lat": 48.8449714, "lng": 2.3247358}, "viewport": {"northeast": {"lat": 48.8463203802915, "lng": 2.326084780291502}, "southwest": {"lat": 48.8436224197085, "lng": 2.323386819708499}}}, "opening_hours": {"weekday_text": [], "open_now": true}, "place_id": "ChIJAQCMvM1x5kcR3BltXvAUMjg", "photos": [{"photo_reference": "CmRaAAAAJpRn-JPw2SN9uBRKg2PRHQtmCucXsWVTk5GXxG7bGyajORXLULqB9ZDslBZOgrP91hYMGhNRojr9hjMynM_5koMT6Lhhiatc610vNJY2IdL-qi2QVvO2iQN28dvSLoN-EhCxhwbO5x7cGOjuptCi-e2iGhTdCD_U4nlaD8yiAPxdIHO2PvGlSg", "width": 5312, "html_attributions": ["<a href=\"https://maps.google.com/maps/contrib/100932843012820415477/photos\">Fr\u00e9d\u00e9gonde ABOUT</a>"], "height": 2988}], "formatted_address": "146 Rue de Rennes, 75006 Paris, France", "id": "5a5862f07c91f6f5b71b2169b00d98e04973d126", "types": ["clothing_store", "store", "point_of_interest", "establishment"], "icon": "https://maps.gstatic.com/mapfiles/place_api/icons/shopping-71.png"}, {"rating": 4.2, "name": "H&M", "reference": "CmRSAAAAzWi03zrnP7A3f6dmWIGv1TQigxeP3yu6vFjw7SK4zGh7Ug9KqYRoRa3_mtiFGlPHrHNuQXYt9WTnNOEaw8RuoEcfFIQg07tok8GpXsGnfmrG6JZn7wFAs9zZqzlxs39MEhDW4XPYaIaq_tAyVtDQAQjUGhSujvJPbX-ZDWteOWB3n2gIqt6h7g", "price_level": 1, "geometry": {"location": {"lat": 48.87336690000001, "lng": 2.3334146}, "viewport": {"northeast": {"lat": 48.8746083802915, "lng": 2.334724280291502}, "southwest": {"lat": 48.8719104197085, "lng": 2.332026319708498}}}, "place_id": "ChIJCWafbTdu5kcRlcqtv4ZIC6E", "photos": [{"photo_reference": "CmRaAAAA2zGR0w-FLqaHICFE6EG6H_QKGPnL-Am3yx5sb4i7tJEM7rYpoWaHPHIM3oTD7LrFJyB0ChVGZ7RELpIKnNaP0v_0YLDFg5ZV9DK9QHQ6P39C9tzZVAZy75wb8GwYEVhVEhCzBJCZTVS205LCl7HjqEuxGhSMsEcwcOwa_jEfLsErQRl8F4Clkg", "width": 2448, "html_attributions": ["<a href=\"https://maps.google.com/maps/contrib/113452807570838002647/photos\">Antonine</a>"], "height": 3264}], "formatted_address": "1-3 Rue la Fayette, 75009 Paris, France", "id": "717af774de0767d2a19e66cfa5acb53568b69f34", "types": ["clothing_store", "store", "point_of_interest", "establishment"], "icon": "https://maps.gstatic.com/mapfiles/place_api/icons/shopping-71.png"}, {"rating": 4.1, "name": "Abercrombie & Fitch", "reference": "CmRSAAAAWJ6bWJPktpddX6zHnUvBv_9yYxITTq0d7pDwdtK4ul_xezP_FHlodpN3mLQbQ7na7f29ID6GqwBP_Ah1rn3PjkO_QFfrFNaHALkjuwe28uv4HUeSbe-HhN5gMZ35B2OiEhCiyLnePB_eJ-ggLz2VGyKnGhQzrZIxTyMgXiEcFQztes3ZEx0Gjw", "price_level": 3, "geometry": {"location": {"lat": 48.86924, "lng": 2.307876}, "viewport": {"northeast": {"lat": 48.87077843029149, "lng": 2.309367180291501}, "southwest": {"lat": 48.8680804697085, "lng": 2.306669219708498}}}, "opening_hours": {"weekday_text": [], "open_now": true}, "place_id": "ChIJR9f99cRv5kcRV-OUsl7ZatA", "photos": [{"photo_reference": "CmRaAAAAoSkW5YL-Q2vMZZB_h3jU_x7rMd4RtrJbAGk_9yHo2Ok1ZKc_67EaUMGwlSArKkUVptFJqh1NjmNDKwhTe8dysevXHWlSGBFU1y-GTzfnihjvg-KbIB0lCSllBohgbNErEhDRIhNxtEqD0MDUB8ZcdnycGhRh-OFwHN_F4e1-qprjCT_mgQUUoA", "width": 6344, "html_attributions": ["<a href=\"https://maps.google.com/maps/contrib/105315407393829034135/photos\">Lionel Renimel</a>"], "height": 2522}], "formatted_address": "23 Av. des Champs-\u00c9lys\u00e9es, 75008 Paris, France", "id": "ce3a62af4deb6dc7264cb3e72072450e759d5a34", "types": ["clothing_store", "store", "point_of_interest", "establishment"], "icon": "https://maps.gstatic.com/mapfiles/place_api/icons/shopping-71.png"}, {"rating": 4, "name": "H&M", "reference": "CmRSAAAARfA5HwFwwwJKxLi4XB3GUiQx-DnrKRM6MbRBTrx1TxJdj62Q6QL9l5SNVTD7J_6o4Lur_BmvkTuJ7c00ViEfbElyhbwCqmfim0Kyg0GDcedrsw9gAdP4azT8SQWI85ncEhC142PWHm_S5QB_rAQ1Uv4iGhS09Dte4qNAUe1ZBStOIvdt771p2A", "geometry": {"location": {"lat": 48.851499, "lng": 2.342013}, "viewport": {"northeast": {"lat": 48.85293848029149, "lng": 2.343412030291502}, "southwest": {"lat": 48.8502405197085, "lng": 2.340714069708498}}}, "opening_hours": {"weekday_text": [], "open_now": true}, "place_id": "ChIJ_aZzC95x5kcRzSmBlW6zX44", "photos": [{"photo_reference": "CmRaAAAAeeguwKCovAoZlgGvabb1RYOpfkquz48ImQNvbPMCnX5_oXkPu0dp6IFdkM02n6k_5IH8vGiXi7mm4vYQiNh9GzFVfh0uhZ4Mip6DprCrkA1SdBbO0jsBAO3fWZ-jQrnCEhDfQuM9NT7glgZCFrfEiuDgGhQMj373ydJnlfvFjwooKMW9f-oajQ", "width": 4128, "html_attributions": ["<a href=\"https://maps.google.com/maps/contrib/101464145705820691088/photos\">Arnaud Corbier73</a>"], "height": 2322}], "formatted_address": "77 Boulevard Saint-Germain, 75005 Paris, France", "id": "70d3825960eb4e80464801e3432b032aa6e7070d", "types": ["clothing_store", "store", "point_of_interest", "establishment"], "icon": "https://maps.gstatic.com/mapfiles/place_api/icons/shopping-71.png"}, {"rating": 3.9, "name": "H&M", "reference": "CmRSAAAAMSpt1m1CaBENOGcssBznlwjpa04_Nmv3EMChIgxpsW7j9EK-qhAqKITt_rtRZ5qjC144ARl2e4CijeahAqkHNDP3Ikd3BaMLnytXTL9z6lKBb4xFBNAb5r8RgxGJ6BrfEhA5Ae4Ay8rvx2EEvSONpTOmGhQ0J_Wl1d9L0ID3v83Iegwdh8KiSQ", "price_level": 1, "geometry": {"location": {"lat": 48.8583107, "lng": 2.3493416}, "viewport": {"northeast": {"lat": 48.8595975302915, "lng": 2.350642930291502}, "southwest": {"lat": 48.8568995697085, "lng": 2.347944969708498}}}, "opening_hours": {"weekday_text": [], "open_now": true}, "place_id": "ChIJwzYPZR5u5kcR3OTAuo7qCJU", "photos": [{"photo_reference": "CmRaAAAAOlDXP_PARuFKXJid_Fxp3KrBqi7t_mipSpxGmPEDxZIFl5Puq3Jmb_Y8zfxl0Sqwt9j-9lBe_qN0VotxicaINKUud8FIzxCA-6-SMBY-EuCes2d7nImYSjCdY9XSd_HbEhAdIBx9wovQsVIiWzXmxLkiGhRwH8FbHhPUe9CLxowkxjelTg42nw", "width": 1536, "html_attributions": ["<a href=\"https://maps.google.com/maps/contrib/110852941887996048961/photos\">Nelly Say</a>"], "height": 2048}], "formatted_address": "88 Rue de Rivoli, 75004 Paris, France", "id": "e4c6374239ba6dc28dfd75507f719e9f66de92d8", "types": ["clothing_store", "store", "point_of_interest", "establishment"], "icon": "https://maps.gstatic.com/mapfiles/place_api/icons/shopping-71.png"}, {"rating": 3.7, "name": "H&M", "reference": "CmRRAAAAEaxq4flq8wO2hdEXDUnPUUcLouhR-iU2u-o_RyLnTHUYlL_lnwa8BqZhMRbAMHo2_U6whowKEnBlA8heePdljY-KWx7dl428ViYmG9_5opLOKlEyJQ_IBbAXTg-TP5BcEhD79iaaI8qLt_bEzeoT8JXwGhS76rWOcVjwoyLc9N8aEigN4yz1RA", "price_level": 1, "geometry": {"location": {"lat": 48.8618463, "lng": 2.3474626}, "viewport": {"northeast": {"lat": 48.8631952802915, "lng": 2.348811580291502}, "southwest": {"lat": 48.8604973197085, "lng": 2.346113619708498}}}, "opening_hours": {"weekday_text": [], "open_now": true}, "place_id": "ChIJ_X80uxhu5kcRD384HUinXz0", "photos": [{"photo_reference": "CmRaAAAAMmuePrsVRmCZ0jLL0X7530Z4upqxmc9UYiYpsex-VyJnhut2RtJjoBiYUb7r7S8286OKtgDbY29k8EeSchN8ueso-qipy2SP5uVn3fAMCUBbmWgoywMdzGNQjkfCd3yfEhDKUPn67-JGikRmL9_a6aylGhTxgUTiptwFvIjL4D2NLxVCFLIIUg", "width": 4128, "html_attributions": ["<a href=\"https://maps.google.com/maps/contrib/101307544611728812585/photos\">Philippe Platteau</a>"], "height": 2322}], "formatted_address": "1 Rue Pierre Lescot, 75001 Paris, France", "id": "50d3688b94a35ff177662713b2d10f26bb1336e3", "types": ["clothing_store", "store", "point_of_interest", "establishment"], "icon": "https://maps.gstatic.com/mapfiles/place_api/icons/shopping-71.png"}, {"rating": 3.7, "name": "Forever 21", "reference": "CmRSAAAAA4M98L8cyV6a-gNO-uqjqLy0QVGcf8bg5aG-Cdf46frPt60NDIr4wPi7Lo6R_82bHhaTRBlKMsa1zt8mppgo1auF19mzlXH0h-RfnMJ40-NaFXB3aWXF4lL1xvNNJtEAEhBV1a3FGrwgTymfVBXntOrTGhTbZnU-U_3ZnpvBRFTaMMrRZLenJg", "price_level": 1, "geometry": {"location": {"lat": 48.8604618, "lng": 2.3426843}, "viewport": {"northeast": {"lat": 48.8617547302915, "lng": 2.343927480291502}, "southwest": {"lat": 48.8590567697085, "lng": 2.341229519708498}}}, "opening_hours": {"weekday_text": [], "open_now": true}, "place_id": "ChIJzSvpliFu5kcRgdUlYWTeIos", "photos": [{"photo_reference": "CmRaAAAANzNl6aoEn7o9LpOlPd2-SK3rSGo6odRQFX7XHL5lEj_XPXPeuWmmVENoS8A3Efpz15O4WqiQCbzBHxqLPYqnqcndoGPDAa1uzvmHCCNzOYzysdlsmqS8sLYNm1n3ht9mEhB-WnVVUA0CFBjMAmmiG1CkGhT6i63kiV25Xgc-cVs2U8j-LHBZfA", "width": 3968, "html_attributions": ["<a href=\"https://maps.google.com/maps/contrib/104690041237536370227/photos\">alexis leducq</a>"], "height": 2976}], "formatted_address": "144 Rue de Rivoli, 75001 Paris, France", "id": "e7ee4d8e8ff8898b1f7b8d9ee24e403a0b73b98c", "types": ["clothing_store", "store", "point_of_interest", "establishment"], "icon": "https://maps.gstatic.com/mapfiles/place_api/icons/shopping-71.png"}, {"rating": 3.7, "name": "H&M", "reference": "CmRSAAAAK2yWs2WUzskebycK7QIdglO29PksGnpnrzrgFQv_7CNSwg6rkMZx4HcgDMMB6xbHiyK48anwKyB8kTE-Gg3_zvplLPunw6t-kEpR_4_cW7VUY4uqsXwNlijVnCnGTnGREhCv3CreDCUl46-51U0CVsazGhSzF_demtjiGAeU1Cu1hHcrXyB_0w", "price_level": 1, "geometry": {"location": {"lat": 48.85949799999999, "lng": 2.345905}, "viewport": {"northeast": {"lat": 48.86085548029151, "lng": 2.347235380291501}, "southwest": {"lat": 48.85815751970851, "lng": 2.344537419708498}}}, "opening_hours": {"weekday_text": [], "open_now": true}, "place_id": "ChIJHa_7cR9u5kcRXwbPx4ST2KY", "photos": [{"photo_reference": "CmRaAAAA3hYueXUAz658a-IX2Oc9p1vHDxVRNkiNovpRo_glbAumvyeKBQY4R_CwMgxg8d-f-RPugALNPG3tew9r9Rm0JyJRHdPTvSWyqosrNCGIj_-kv00fjUdU_CF8uv0HforpEhCxwR0Is_NQrz0vS6vl-8lmGhQOpCowfCBv5CvTzP_cc7kVQ9E0zw", "width": 4160, "html_attributions": ["<a href=\"https://maps.google.com/maps/contrib/114505106068478012058/photos\">Sissoko Awa</a>"], "height": 2336}], "formatted_address": "120 Rue de Rivoli, 75001 Paris, France", "id": "0e6e61085b9459da75198e3a00b28825a1dd6b13", "types": ["clothing_store", "store", "point_of_interest", "establishment"], "icon": "https://maps.gstatic.com/mapfiles/place_api/icons/shopping-71.png"}, {"rating": 3.6, "name": "Forever 21", "reference": "CmRRAAAAAnATEnzg0DL2Z4BEaG5QI-9FVMA0xbJREhvUPTIFFYbxkfo2N-CWU_ADYyIMF2gr0DD2YFEy6Nrls98H5HG0egoBJM_bH4g-BaxItKdZjYPZvLdULR0E7fYPSgCt7bysEhBreW54CYyqC_I0AEsS4kZhGhSJeH7NjwHVJPn5BQICuKSm9lKoRQ", "price_level": 1, "geometry": {"location": {"lat": 48.86238259999999, "lng": 2.3472027}, "viewport": {"northeast": {"lat": 48.86373158029149, "lng": 2.348551680291501}, "southwest": {"lat": 48.86103361970849, "lng": 2.345853719708498}}}, "opening_hours": {"weekday_text": [], "open_now": true}, "place_id": "ChIJZ7cS3Rhu5kcRXiXmIpivQEU", "photos": [{"photo_reference": "CmRZAAAASSE8zGflh_HT9r6BB-ThrVU-oOwwooWqgkmb7wBrOG4jP5trQ45wCmzIceKinS0q9WqHM8EWJT_9fSl8SVzBtvi-clqUUQGK9pBTXdhbGjxWsEXcq_ayN5ZuSUoYzYp8EhBjvbxfzBWhDcgfquBbMVb5GhTED-ewDrayj0VQU9b9pZH4XKoZbg", "width": 5312, "html_attributions": ["<a href=\"https://maps.google.com/maps/contrib/112784456377886246662/photos\">Naim Avraham</a>"], "height": 2988}], "formatted_address": "101 Rue Berger, 75045 Paris, France", "id": "9c26b4e7bb2c1fed7bb96600192970c21c8c9dc8", "types": ["clothing_store", "store", "point_of_interest", "establishment"], "icon": "https://maps.gstatic.com/mapfiles/place_api/icons/shopping-71.png"}, {"rating": 3, "name": "Dolce&Gabbana", "reference": "CmRRAAAAdcRofwgxrz2oIVBwWMThcr3_JurqqIeWiALA3Ach152r16c-ogKElQz_UxNPB5Fq5Sxdwf_azXABuiz2Ete5aeqJpjhEWMCHrWgqOATpHVtMbv80BglbNfC6yEEFgRUREhCh9vM6AVesX8h77Ms_EHx0GhRUWs4TjnuHhZFj8ur9s1gB2Y8ZSw", "geometry": {"location": {"lat": 48.8711576, "lng": 2.3062205}, "viewport": {"northeast": {"lat": 48.8724396302915, "lng": 2.307647430291502}, "southwest": {"lat": 48.8697416697085, "lng": 2.304949469708498}}}, "place_id": "ChIJC9539sNv5kcRvsd3zMJhlB0", "formatted_address": "124 Rue La Bo\u00e9tie, 75008 Paris, France", "id": "ab17aae60b0dcaf104972314c106c9c32b37e181", "types": ["clothing_store", "store", "point_of_interest", "establishment"], "icon": "https://maps.gstatic.com/mapfiles/place_api/icons/shopping-71.png"}, {"name": "Intimissimi", "reference": "CmRSAAAACW4UzJ8nHSkVYGS7L8BLvGWLM4sxud1iV2jr26FOwe133v92OTf6f8bLtLbThdSlcHGxnWBIy3AfEQCCNR7Z2v5F8-HHzRxCgJ01OJY5b5j0Yxmyy195E8T-sgy9O6nXEhApuGhu-PP0SRVRInbslpUUGhTVSsIHzXKlf6lPGxxU1vvQpGVGsQ", "geometry": {"location": {"lat": 48.8598839, "lng": 2.3083042}, "viewport": {"northeast": {"lat": 48.8612328802915, "lng": 2.309653180291502}, "southwest": {"lat": 48.8585349197085, "lng": 2.306955219708498}}}, "opening_hours": {"weekday_text": [], "open_now": true}, "place_id": "ChIJ___Dqdlv5kcRnrH3qR39M7o", "formatted_address": "68 Rue Saint-Dominique, 75007 Paris, France", "id": "d078515dca3a098d463bb6edfa194b6296473d5e", "types": ["clothing_store", "store", "point_of_interest", "establishment"], "icon": "https://maps.gstatic.com/mapfiles/place_api/icons/shopping-71.png"}, {"name": "Soci\u00e9t\u00e9 M K", "reference": "CmRSAAAAyPapJHC_V3ZhTeuEw5wufkdvI9l6SNTLZaL34GUwfNGdd3su0L0E-gVgRXf69VJ1AyDmIxaGaglpn4eZvraX1kh9KRebwGCO9rPJuC4AHPHRIn9SudMFmHEGOnSqMLU7EhB_0QZdZccThqqS3-Q0bcSkGhTli2oHjHmWapTo67I8U9ShZYLQ7Q", "price_level": 3, "geometry": {"location": {"lat": 48.8937241, "lng": 2.2689775}, "viewport": {"northeast": {"lat": 48.8952110302915, "lng": 2.270178130291502}, "southwest": {"lat": 48.89251306970851, "lng": 2.267480169708498}}}, "place_id": "ChIJvQXl4nll5kcR--R8Jp7luNw", "formatted_address": "68 Boulevard Bourdon, 92200 Neuilly-sur-Seine, France", "id": "d2b9359268805ed520673ad61dde6d5134005e7a", "types": ["clothing_store", "store", "point_of_interest", "establishment"], "icon": "https://maps.gstatic.com/mapfiles/place_api/icons/shopping-71.png"}, {"name": "Acne Studios Galeries Lafayette", "reference": "CmRRAAAAY3kz74V6Ly0N4XnZxT0gwvDW3ZAXk0X3EH4vUpHHnQRiQmHJJ5OFNapjyZE4flk9ZpwKgvptAKRz0pcxzs5rVLeFpGf6h1U71aycy11IGX-nLX97UGSud6eH_5eP43l1EhCwS1vCaigccwz-r42ibIwvGhScA452xU6Qe9_1znuphRq9MWvyaw", "geometry": {"location": {"lat": 48.8736435, "lng": 2.3322379}, "viewport": {"northeast": {"lat": 48.8747109302915, "lng": 2.333514280291502}, "southwest": {"lat": 48.8720129697085, "lng": 2.330816319708498}}}, "opening_hours": {"weekday_text": [], "open_now": true}, "place_id": "ChIJHbRkBDdu5kcRHT9uaD8s2y8", "formatted_address": "Galeries Lafayette, 40 Boulevard Haussmann, 75009 Paris, France", "id": "f793cc0fb546b970402267c47ffa1408a9b58b64", "types": ["clothing_store", "store", "point_of_interest", "establishment"], "icon": "https://maps.gstatic.com/mapfiles/place_api/icons/shopping-71.png"}, {"name": "H&M", "reference": "CmRRAAAA4Zv8DVYu2vreCxgJ-p9lTEGKWR-RtqmkARP6ltiN0sVzo5hmNRi5VsmrGQQiYYx9Vr2JwHoel0ueDr_p-IzmUZh7-h1DuwNhw5T0zn9CoE-RFT_MmQlvq_vbMjXZeL8tEhBScVrJoviWce55KLcZzVH5GhQpGfFpBvYwDWVW_I0ZdRw4pDeoPA", "price_level": 1, "geometry": {"location": {"lat": 48.8462173, "lng": 2.3264572}, "viewport": {"northeast": {"lat": 48.8476121302915, "lng": 2.327697780291502}, "southwest": {"lat": 48.8449141697085, "lng": 2.324999819708498}}}, "place_id": "ChIJRwqp_s1x5kcRDVUIG8y7K1g", "formatted_address": "135 Rue de Rennes, 75006 Paris, France", "id": "68c686430f44935da688f78dc0421a45d62d7263", "types": ["clothing_store", "store", "point_of_interest", "establishment"], "icon": "https://maps.gstatic.com/mapfiles/place_api/icons/shopping-71.png"}]