[{"rating": 4.8, "name": "Museum Air France", "reference": "CmRSAAAAQOhBRwHq8JSWvTKYeyOOYutICo_8hT4pCgyJZsSDuYLW6j3mNTdU6XoSTiHBAWSXLSvjYxa4cIQwUCIoSiBnHXVWg0MnZlBzSjLPwyb-X4DpYBj2yzFy9lrDuzlWCFLeEhBkyqyiGiNnUYgzaqn5HK0bGhS3tQjs52bzmsWCnwLZ0SNLTP4hHg", "geometry": {"location": {"lat": 48.86248930000001, "lng": 2.3147536}, "viewport": {"northeast": {"lat": 48.8638268302915, "lng": 2.316298380291502}, "southwest": {"lat": 48.8611288697085, "lng": 2.313600419708498}}}, "opening_hours": {"weekday_text": [], "open_now": false}, "place_id": "ChIJ_WcgK9Fv5kcR1B5EkLqQoJg", "photos": [{"photo_reference": "CmRaAAAAfrCckooNbbrobkSym70QHiizYj2itRWsEAA-F7FTh3Z-A7y32p_W99KfdNwbCj9elN1OGi-oC7kfaTDXe_bnRW_rLU59uR-78XA7JJIX2Af-RDUz0M01UxhgDqfVFV9LEhDkh1ihdwa1oE4ZVoNwTP3xGhS1uA9iGx24nO6AwTtWv5c-bDmmUg", "width": 2048, "html_attributions": ["<a href=\"https://maps.google.com/maps/contrib/109104673503451209616/photos\">Vladas Portapas</a>"], "height": 1365}], "formatted_address": "2 Rue Robert Esnault-Pelterie, 75007 Paris, France", "id": "c5aa8370c854e546522c083fc467ad701573aa8f", "types": ["museum", "point_of_interest", "establishment"], "icon": "https://maps.gstatic.com/mapfiles/place_api/icons/museum-71.png"}, {"rating": 4.7, "name": "Louvre Museum", "reference": "CmRSAAAA8o3VTW-qCS012cJhQ5lSR0GX7oS0julFsSkQHmAzJyRBkwpvt_578pBHXylUyRL1cDUO4dXaNwqo9AKae_VtxxdqRbTNsBpGWKfMyhi-3dgan_Yl7nOH9eutA2XCFuJcEhBulBUaHXXxgQ8V6ISpg_OCGhRoelH8F2t60WcYsIGAh8O8dVLihw", "price_level": 2, "geometry": {"location": {"lat": 48.8606111, "lng": 2.337644}, "viewport": {"northeast": {"lat": 48.86313575, "lng": 2.3391953}, "southwest": {"lat": 48.85976955, "lng": 2.3329901}}}, "opening_hours": {"weekday_text": [], "open_now": true}, "place_id": "ChIJD3uTd9hx5kcR1IQvGfr8dbk", "photos": [{"photo_reference": "CmRaAAAAGHtRh-RmYJ5tgJbUic2B_q7gadlFd1HbJvjNu984ZAkKaHaXD16AZM14X1E4wsJrcQBImPW9WYokFdA6rRjiXR40PmjTQBYpRlPYLx_34FQtFicLJAoD-LuPoljp5NnkEhA5i8hYnXD1a9h4mfPUjJrnGhT1b_7aGAj7yL5rc2u6FiXcKgg_0A", "width": 4288, "html_attributions": ["<a href=\"https://maps.google.com/maps/contrib/109983477559905217030/photos\">Christophe Jacquet</a>"], "height": 2848}], "formatted_address": "Rue de Rivoli, 75001 Paris, France", "id": "9a007d81ca8f47ed30ddaf39c4174ef773b351e0", "types": ["museum", "point_of_interest", "establishment"], "icon": "https://maps.gstatic.com/mapfiles/place_api/icons/museum-71.png"}, {"rating": 4.7, "name": "Mus\u00e9e d'Orsay", "reference": "CmRSAAAAPKeasAwOGK40C2AwhRULuwLsy3cmNXlkyMkcOuZoTUWhkq5rGCrUMn6_fYqAV50VB0i8Kh34C-Gf4KG7kKZavOldOb03Zt4nBtVSme6ZcZm2O34bhwbO1JCkO5p0nqYIEhBr_GOjVauFksIOF5ThzO6qGhSZ7pi1aa75N6UOmAcfjp_R5IYMrw", "geometry": {"location": {"lat": 48.8599614, "lng": 2.3265614}, "viewport": {"northeast": {"lat": 48.8615291302915, "lng": 2.3275171}, "southwest": {"lat": 48.8588311697085, "lng": 2.3236943}}}, "opening_hours": {"weekday_text": [], "open_now": true}, "place_id": "ChIJG5Qwtitu5kcR2CNEsYy9cdA", "photos": [{"photo_reference": "CmRaAAAA2jhuibbwkMVH4lhm-GCbDc7S_IZ0HC09hwn0KD4JaqWTXbGJJ8-nDQezYdi7pEA1ZD3ST-I-OAHSShO92_7NePfSG2dwG0lpT6DeIH_hg-yjeafg7FwNo5KehklVsxEJEhDi-WBClPyEofEnHNf-H9X9GhRayli8tLXjEsnOI0PKKEpdva0AlA", "width": 2848, "html_attributions": ["<a href=\"https://maps.google.com/maps/contrib/104198155525513925723/photos\">Endre Horv\u00e1th</a>"], "height": 2136}], "formatted_address": "1 Rue de la L\u00e9gion d'Honneur, 75007 Paris, France", "id": "324ebea255dabc1cb3a5ca92839d3949530e05e3", "types": ["museum", "point_of_interest", "establishment"], "icon": "https://maps.gstatic.com/mapfiles/place_api/icons/museum-71.png"}, {"rating": 4.6, "name": "Mus\u00e9e Nissim de Camondo", "reference": "CmRSAAAAZMd6ULhRaT8-Ym_jSIo3UGEeGQo909a1_UmMrUVoBvtn53KA0KBxj2sUKMPlJVlZRHyUFYq45eBn8NC-ELf0Eb5lkS-q4eV4FLyUfQguNdEUfo3d-d_xVuycJvv3U7VyEhDILkQd2kQvG88T_ve2vjYTGhQJTRKri90LB3hZAMqh1VwMvsVD2A", "geometry": {"location": {"lat": 48.87892909999999, "lng": 2.3126731}, "viewport": {"northeast": {"lat": 48.88019123029149, "lng": 2.314118930291502}, "southwest": {"lat": 48.87749326970849, "lng": 2.311420969708498}}}, "opening_hours": {"weekday_text": [], "open_now": true}, "place_id": "ChIJ6VmGh7dv5kcR32uxgrtK3Z4", "photos": [{"photo_reference": "CmRaAAAAGMyha6o8v40IS6goHbJq3tEJ7x3qf2tBC_WaVDpNdcoINE9IOtzgwwPFc7qHxbvn4IytehyKCoBlOFfiZ-7nNFkFVUATLBmVCLdAYHF_QkMeu10_sJM66BcPHOdUQG-sEhCz9WmYmY_Q8hoWlUmgid0mGhQI_vjm7TR-cNnnzjMzFMSmcq58XQ", "width": 1024, "html_attributions": ["<a href=\"https://maps.google.com/maps/contrib/109559724969120083154/photos\">Laurent D. Ruamps</a>"], "height": 637}], "formatted_address": "63 Rue de Monceau, 75008 Paris, France", "id": "5818bdfd3b4e137611fb13e75e920fe130030dad", "types": ["museum", "point_of_interest", "establishment"], "icon": "https://maps.gstatic.com/mapfiles/place_api/icons/museum-71.png"}, {"rating": 4.6, "name": "Orangerie Museum", "reference": "CmRSAAAA8H-0baPD8t1-MU8JjDp0e0gRgHJUuV1mvHgOU6pRWOdcFKGGbziA7Z1TQWJDgN6GqGU9TCD5FR_LK-a43TpH49nJYM7qJbrV00FHZ_i72mY-u5LAofpk4f5uO_xcID8nEhDuLMp8e43UXgV34e65oLKiGhRkIODj4wS8r14_RPQDNpNsKuIBPw", "geometry": {"location": {"lat": 48.86378839999999, "lng": 2.3226724}, "viewport": {"northeast": {"lat": 48.86588105000001, "lng": 2.323712480291502}, "southwest": {"lat": 48.86309084999998, "lng": 2.321014519708498}}}, "opening_hours": {"weekday_text": [], "open_now": true}, "place_id": "ChIJo6qq6i5u5kcRCpYBp4rQP9w", "photos": [{"photo_reference": "CmRaAAAAVY7P3aQZHLxlwo2eUYnbojdC6UNdloD0wTxqVM4yS6z8h918fDwW6ajzIOot-dMYHrRPBuE_lteQIlope9tkytwTqu0Hf7YVULNTmPeNu6XwHJK6r1NlwxIigEcO3vDHEhCk9b_YI_FWoDZK6sMZF6OnGhQNmc5nP90jgFc7vhVW4R7oSoVXow", "width": 4160, "html_attributions": ["<a href=\"https://maps.google.com/maps/contrib/101185860719511680643/photos\">Giuseppe Lucania</a>"], "height": 2340}], "formatted_address": "Jardin Tuileries, 75001 Paris, France", "id": "bfd8989fc626265fe8150c9db81de9025ee3dc1e", "types": ["museum", "point_of_interest", "establishment"], "icon": "https://maps.gstatic.com/mapfiles/place_api/icons/museum-71.png"}, {"rating": 4.5, "name": "National Museum of Natural History", "reference": "CmRRAAAApirSh2mKDGW8ZW7voZ7KuFNZ7rNaIAP9j3fI1Gl8aIYN5zpKHvBNBKJVvz8yNHgFWfUtfHshqpygZOtBFI81Vh3vecUqDzt9EGyh7liv5hDkCGL_reGOIAZEmp4y-RVyEhDSDiycOP5khzretqFaY5enGhTr8tEeHrxnWBQrkr8CCzWX0snGNw", "geometry": {"location": {"lat": 48.8443425, "lng": 2.3562101}, "viewport": {"northeast": {"lat": 48.8456914802915, "lng": 2.357559080291502}, "southwest": {"lat": 48.8429935197085, "lng": 2.354861119708498}}}, "opening_hours": {"weekday_text": [], "open_now": true}, "place_id": "ChIJEURALfFx5kcR4cbxSSHWQ0c", "photos": [{"photo_reference": "CmRaAAAAxOZn0ijS0gnaO6YectxfvY-b8oejK5xEklT_RSIYhk2w7Ibkx_zk1hAzKftTSmYKDbBlWoERPpcjNw2aWBAtQdzFL3uHRRxfkAZ3KpTKLaqCjjVl8xSbUT25KNa0JzCCEhAorjgSK9v6PZ5gTGUFBgOqGhS7gjppF-wiQFk_aKV2UkP-yk2C_w", "width": 4128, "html_attributions": ["<a href=\"https://maps.google.com/maps/contrib/116329647050068364523/photos\">Val\u00e9rie Payen10</a>"], "height": 2322}], "formatted_address": "57 Rue Cuvier, 75005 Paris, France", "id": "c9b20c83264c29f12d01829dad7b5117af7ecf3d", "types": ["museum", "point_of_interest", "establishment"], "icon": "https://maps.gstatic.com/mapfiles/place_api/icons/museum-71.png"}, {"rating": 4.5, "name": "Rodin Museum", "reference": "CmRRAAAAkMaOwad3buFNa9FzxpfWUjoZXxT2nOHQupTNQXLBuP5AB04XU_vNPp2u04dbmt-_FN3FG2UsEhezLvFkGmFS0SYqt_MJfUeOngPzu0K6dUvJ1y_m51vZxsgiaa-YpKuWEhBcIYQ6ye0Twl798OnC4hEtGhQhSym9GEBUUgFfvku2paltWeSXtA", "geometry": {"location": {"lat": 48.8553072, "lng": 2.3158354}, "viewport": {"northeast": {"lat": 48.85697428029149, "lng": 2.317364780291502}, "southwest": {"lat": 48.85427631970849, "lng": 2.314666819708498}}}, "opening_hours": {"weekday_text": [], "open_now": true}, "place_id": "ChIJQ9vMHipw5kcRWHC2ESjYaGQ", "photos": [{"photo_reference": "CmRaAAAAwGj6xo3Nmx40B618Furtr4dn1YRXQGJ7mjhAtzBuBMNVSkb8ArsjBOHwtPSuV4DP4bkA_8a-ihdexUkwqglXLZtyB1VZLFX1h_TjD_DeC53biRmLIVs0pms7nbZPBPMQEhBqKYfGeFqMHxBZS_STOxeXGhTuIBieI6rl9gyH6PUE4Oc6EryQLw", "width": 1920, "html_attributions": ["<a href=\"https://maps.google.com/maps/contrib/104976517356691726555/photos\">Petar Stoimenov</a>"], "height": 1080}], "formatted_address": "79 Rue de Varenne, 75007 Paris, France", "id": "8faebb8edfa1b017742611c829e9593330ffa552", "types": ["museum", "point_of_interest", "establishment"], "icon": "https://maps.gstatic.com/mapfiles/place_api/icons/museum-71.png"}, {"rating": 4.5, "name": "The Army Museum", "reference": "CmRRAAAA51mjLAVv2yycbDr6q8g4CtkQWZ7LsWw2Eq1YkVWu8a6Ah0cFsHxX0_hkpC1YXVcDi1IEgQAlpp_Pqq2TphYkk2W7b7_wNOW01Jd40RP2vkbaQqxstlbNNWeLDLUVab8VEhDf2a_e1zz-jp7muL8WIobjGhQznY0_Qt1V6AhpQ_d3-DLCgnsxug", "geometry": {"location": {"lat": 48.85579329999999, "lng": 2.3125934}, "viewport": {"northeast": {"lat": 48.86072129999999, "lng": 2.313960630291502}, "southwest": {"lat": 48.85151170000001, "lng": 2.311262669708498}}}, "opening_hours": {"weekday_text": [], "open_now": true}, "place_id": "ChIJv-rX7Ndv5kcRJ0IdTc55HnY", "photos": [{"photo_reference": "CmRaAAAAnvzw5FoH9pYo2BNTDI8Yo2Hs8Ak2mTHxBHNwnNHCBaQWdxck0kIRhBIDiuV62NU_2fh1NPDFlLo0j_I7FtVHrl2VFNVyDvDfIpyaux0PmGIJ54oZZQ5Uw82D9XzOISoNEhCCpuYGbayV76jRl7bK5dIUGhT8u5T-NOZt79CbTRWZWa-0VchzAg", "width": 1600, "html_attributions": ["<a href=\"https://maps.google.com/maps/contrib/106402983051561510033/photos\">lidija jembrih</a>"], "height": 1198}], "formatted_address": "129 Rue de Grenelle, 75007 Paris, France", "id": "e044781d452a6d02b78584179dceac1badffbfd7", "types": ["museum", "point_of_interest", "establishment"], "icon": "https://maps.gstatic.com/mapfiles/place_api/icons/museum-71.png"}, {"rating": 4.5, "name": "Metiers Art Museum", "reference": "CmRRAAAAwm8HnmqOWXz-_6EZPwUlXhHPW69s2Nr376g-_kHc39O7bsMF2eQyBPoxjiBorZq_r3a-kRcbsVwrEhdvGGg7gp_p1JnxTnkshWBdELt-xdyKAoCNS6ziO_OTWC6TkOQwEhATPARto4va-0o_bkSwVpXWGhQE3eAdwd9oOknYs3V3e7myw0WxlQ", "geometry": {"location": {"lat": 48.86663919999999, "lng": 2.3554383}, "viewport": {"northeast": {"lat": 48.86814788029149, "lng": 2.356274980291501}, "southwest": {"lat": 48.8654499197085, "lng": 2.353577019708498}}}, "opening_hours": {"weekday_text": [], "open_now": true}, "place_id": "ChIJNUTIphpu5kcR4h07VuxFIHc", "photos": [{"photo_reference": "CmRaAAAA5bnTlCSq-YhFV22XGEy0tZZlwBMA6qIwgsLv7O45C3DusH1pCtQ0sqCHl1RBKZ77g5BbqE5kWSfCDG_zQRJUMj8BeyDsvhiKnokjN2Vf6JbOkAZu_A-hpdZDNOPa9bztEhDSoEpSjCQMbRk3jnWaakkkGhSwyTl2YRIeQCB_i3B9I3T_J_Nd0A", "width": 378, "html_attributions": ["<a href=\"https://maps.google.com/maps/contrib/100087783093988552392/photos\">Mus\u00e9e des Arts et M\u00e9tiers</a>"], "height": 378}], "formatted_address": "60 Rue R\u00e9aumur, 75003 Paris, France", "id": "8361ea0e7cef57e52503ed18c71a9c3860a6fd5f", "types": ["museum", "point_of_interest", "establishment"], "icon": "https://maps.gstatic.com/mapfiles/place_api/icons/museum-71.png"}, {"rating": 4.4, "name": "Museum of Decorative Arts", "reference": "CmRSAAAA5In2ppbydZ_6oGEEJGgEZcZNgmBRJ92t8Ld7xvqaOYBHhkG4h3AqjP14_p3N2eCYJ38a97RnceyYcQPdUE0YFgkBkNvdsAy-SIrBPhMaU6Qj0sUHLNAPhCnM861tj0RZEhB0rJjRXxJNx7RJ5NsKfndyGhS-Bb6Aq-kilzV_-YS1FPzUV3dhDQ", "geometry": {"location": {"lat": 48.863063, "lng": 2.3333951}, "viewport": {"northeast": {"lat": 48.86452403029151, "lng": 2.334805930291501}, "southwest": {"lat": 48.86182606970851, "lng": 2.332107969708498}}}, "opening_hours": {"weekday_text": [], "open_now": false}, "place_id": "ChIJ_QwlZC9u5kcRi6OALXVubvc", "photos": [{"photo_reference": "CmRaAAAAxOuZTdu6t07zInV0RlAEWR2tM2ZWV6vTyknZ7aRm-sA1YVAO0Yhkteh524gxW8oX6S8AKglaGlAITdk9Zdq9MbaEqWHcA1bx2qsmL883UNrj9XoTLF6F2ZSjJGWKJYUnEhAfo6dSiV_DxPLGZ77KUXn9GhQNL3ql5YLRQLnCQB_ini9ehGt5TA", "width": 4160, "html_attributions": ["<a href=\"https://maps.google.com/maps/contrib/101898502475390465407/photos\">Coco Izzy</a>"], "height": 2340}], "formatted_address": "107 Rue de Rivoli, 75001 Paris, France", "id": "169658dccbc306c41bcd48121afd255e3be81510", "types": ["museum", "point_of_interest", "establishment"], "icon": "https://maps.gstatic.com/mapfiles/place_api/icons/museum-71.png"}, {"rating": 4.4, "name": "The Smoking Museum", "reference": "CmRRAAAAnImt-mH7XNdcevG-Vr-F6FwYfdIHatmskMKHPreSwimxyg3CMOPFyM8ByaSNuPjw_7DmUn0LPJ0h1gOF6dFsw5kWdPBuPnEdeXG-zWdfcxXEnt9_JOO3Arzi94texjUzEhBste0yOFsaoMdfp9o6bqh0GhR7hXHrwg3p5fZV_9txgjQVwlbXGA", "geometry": {"location": {"lat": 48.858649, "lng": 2.3822261}, "viewport": {"northeast": {"lat": 48.8599817802915, "lng": 2.383633480291501}, "southwest": {"lat": 48.8572838197085, "lng": 2.380935519708498}}}, "opening_hours": {"weekday_text": [], "open_now": false}, "place_id": "ChIJB6j77fZt5kcRZP2QGdWKjmw", "photos": [{"photo_reference": "CmRaAAAADMr6yloUesIAR4eiIQMz0m6D-oqUJfyWtj_35zD5gJdtVf9N2KlWgKN6IaEZj3QLXMjUTbjGvDxbK2vJPj_dosuGR5EvkSNxmESpS2pypjAFBETnoItAdTCeWqcqgX2WEhAyV-hbn4rkSL8nZEba7KHhGhRSAwxDioRCaw2J3vRLFGO0-7_WKw", "width": 4128, "html_attributions": ["<a href=\"https://maps.google.com/maps/contrib/102117716785986901640/photos\">Le Mus\u00e9e du Fumeur</a>"], "height": 2322}], "formatted_address": "7 Rue Pache, 75011 Paris, France", "id": "788af6a11d718387759d7fdd03d66e05e910bd39", "types": ["museum", "store", "point_of_interest", "establishment"], "icon": "https://maps.gstatic.com/mapfiles/place_api/icons/museum-71.png"}, {"rating": 4.4, "name": "Cluny Museum - National Museum of Medieval Art", "reference": "CmRRAAAArKSmU1mE4Psrdpnt-fBXH0aMaimU4m2CPCYWVkl3cAIk5gY9vsLpnZl0KhKejRRcS8PYRCaVGar2cu2fKzhAMmEBtAkb2XqolEglpHK9-JoTDyyQnC28ucZ3uThC_UJBEhDHOyVPOhP2lXCIrqEVRGZOGhQW62RLfy87G520kSK5Enx2Ql5czA", "geometry": {"location": {"lat": 48.8504833, "lng": 2.3440808}, "viewport": {"northeast": {"lat": 48.8517204802915, "lng": 2.345387780291502}, "southwest": {"lat": 48.84902251970851, "lng": 2.342689819708498}}}, "opening_hours": {"weekday_text": [], "open_now": true}, "place_id": "ChIJLxPh9d1x5kcRf7M1U0pu1gU", "photos": [{"photo_reference": "CmRaAAAA0M_5suYCxWHk0dQWeYtcFohOiAztYLYOzTmrvS2941SdTBX1JZ2Pj0Y6_BHpRbtseX-PrmQHm3DKzzE3NfwQU-VPWg9PLu2gMNqx331XY7Uib-h3U73RbPTUlNJJxGlLEhAyW2c1GYCczHjcrKNBYa2cGhS925ccsv5WnmpaUfNibMMOhL5nzg", "width": 4320, "html_attributions": ["<a href=\"https://maps.google.com/maps/contrib/105787647052433885325/photos\">Jonathan Letzter</a>"], "height": 3240}], "formatted_address": "6 Place Paul Painlev\u00e9, 75005 Paris, France", "id": "ddc83c8b7be273cc7384a91c31dc4e375967aa44", "types": ["museum", "point_of_interest", "establishment"], "icon": "https://maps.gstatic.com/mapfiles/place_api/icons/museum-71.png"}, {"rating": 4.4, "name": "Mus\u00e9e de Montmartre", "reference": "CmRRAAAAYfTr-8yEQTMka6x-M55CcDB27y7ZEIY6vLL9Z4Vxo3sCFbsswNPRfLwVYK8OGP7_nAIVndQxfEGPTdRw6FZMas2m5EdZ8YmrbvtikOK2FQUuoAwuNaWjenkerXoGYpQdEhCoayTqDMnkHexonJ0Jv_DwGhSJoT1xmc6RGPBw6ZG_6A-tP43I5g", "geometry": {"location": {"lat": 48.887709, "lng": 2.340673100000001}, "viewport": {"northeast": {"lat": 48.88904728029151, "lng": 2.342018280291502}, "southwest": {"lat": 48.88634931970851, "lng": 2.339320319708498}}}, "opening_hours": {"weekday_text": [], "open_now": true}, "place_id": "ChIJWcXsQltu5kcRbqfaH0NhNxE", "photos": [{"photo_reference": "CmRaAAAAg3GixfUm4quOkCMfAdnAp9SRkiVzr2AUYEKf60rhRNbjyy4uL4G5E6sw3df042sejEm_Vj2Lu6a34Pm9T24jRgVhFncQp_lZ_wmF2k95aHU7Pj7h55Q5xZNA5Dbd4Ti5EhBsnL65hHtKIja0hBv3nLJ2GhQw8UD_9NIu5owUe5a7GpGxTf_0Jw", "width": 800, "html_attributions": ["<a href=\"https://maps.google.com/maps/contrib/107434888065831975637/photos\">Eric duarte</a>"], "height": 534}], "formatted_address": "12-14 Rue Cortot, 75018 Paris, France", "id": "61f49fa6c6e4d9894f917af4e1eca6eb701a13f0", "types": ["park", "museum", "point_of_interest", "establishment"], "icon": "https://maps.gstatic.com/mapfiles/place_api/icons/museum-71.png"}, {"rating": 4.4, "name": "The Centre Pompidou", "reference": "CmRSAAAAbXPnmYlDsOFWSlWzRCREX_DxQwpgyMWKTTfOJgF_zrDa6md_txmFMUmYemVS9waVx7ZQxHDIMt1gMc5YRDftDp4FMGlB5ZpwjC_kS_CiICvLFlARhIeVn2LXMELL4tqVEhA2Ej3de9cmWYPX0-l5MUbNGhQUVmB7olraGZEGKrkBoqFX5ynWWw", "geometry": {"location": {"lat": 48.86064200000001, "lng": 2.352245}, "viewport": {"northeast": {"lat": 48.86193895000001, "lng": 2.3541162}, "southwest": {"lat": 48.85891794999998, "lng": 2.3513682}}}, "opening_hours": {"weekday_text": [], "open_now": false}, "place_id": "ChIJoyC4CRxu5kcRRTPcWX5srLc", "photos": [{"photo_reference": "CmRaAAAAlhl5ATf9l0wsWh2KlZnGpE8P-e8mS89ZG_ecEGaklV2kZ6Opqqm9MX4xWkN8HgLdJoVN-XVPfvEQJ2NtSPWLfJoP1MP4L2M_zXFO9-EE-qR5FZI--fkf2HWgLNwG6lh8EhB9-_oTAYB6Y80-qyzheFcHGhSpkx6EhXf4jO82bV4YOfTqS7Af8g", "width": 2028, "html_attributions": ["<a href=\"https://maps.google.com/maps/contrib/106029497379210586274/photos\">Egil Johannessen</a>"], "height": 1350}], "formatted_address": "Place Georges-Pompidou, 75004 Paris, France", "id": "8546df4461a8d783d8452ed7272edbee05a591b0", "types": ["museum", "point_of_interest", "establishment"], "icon": "https://maps.gstatic.com/mapfiles/place_api/icons/museum-71.png"}, {"rating": 4.3, "name": "Museum of Minerals MINES ParisTech", "reference": "CmRSAAAAqQHZnk94PxTESWSQxngNmnTQ3e3lthhLh90l7g3t7kje91wXdNSJ6esokIwS744AfldGGkh_4fAAySCBfIXBw6v8M2dAXVPFKLDhVMa6JEFWR47hFdEf-SX0ELG1oXHQEhAFLflX9MWf-T_5ibDGgtSIGhTPknCnf-KTyeDUuKNctm7Q8vZxBA", "geometry": {"location": {"lat": 48.8451192, "lng": 2.3394016}, "viewport": {"northeast": {"lat": 48.8466545302915, "lng": 2.340997680291502}, "southwest": {"lat": 48.8439565697085, "lng": 2.338299719708498}}}, "opening_hours": {"weekday_text": [], "open_now": false}, "place_id": "ChIJd104OsNx5kcRqW8-Crk_dKk", "photos": [{"photo_reference": "CmRaAAAA9w_-TYFxAJNsl_QSq5wYXkm3MDUH-T7uCyDSUllGnPY8nug62W2CXJLNGgNsVXi2e7TvQnMfjTwPGufuGi5wMhxvKRNgH-t3Nwk_3XNrtVaZDqycNw2NYuKBZoA9UVTDEhASOChRKqmvbATymXhSlLycGhTHuNhPAfc4JLwzN9OTiZb0_uMHaw", "width": 4752, "html_attributions": ["<a href=\"https://maps.google.com/maps/contrib/111187841734342765161/photos\">Enrique L\u00f3pez Ruiz</a>"], "height": 3168}], "formatted_address": "60 Boulevard Saint-Michel, 75006 Paris, France", "id": "2baae64c3b0d4cc01ff4c51b08c1901a0f7350a2", "types": ["museum", "point_of_interest", "establishment"], "icon": "https://maps.gstatic.com/mapfiles/place_api/icons/museum-71.png"}, {"rating": 4.3, "name": "Bourdelle Museum Balenciaga", "reference": "CmRSAAAAkmarOfu3XW0MDoUeRcD-Odw-wDSF2XVtfFrIbMsP0Km4ZOjn80zywTqyrwqdVKchS1rPmHG_cISkBH4X7m1QvPHWD98IQ_hWghmkV_TAVXuvavb03R29JcW2nB8X2jmsEhBc3xB3p4hek0vXtwI5LHINGhRqU-5j3cINyaH6_UcjsbD6_KRBRw", "geometry": {"location": {"lat": 48.8431782, "lng": 2.3186781}, "viewport": {"northeast": {"lat": 48.84441313029149, "lng": 2.320077680291503}, "southwest": {"lat": 48.8417151697085, "lng": 2.317379719708499}}}, "opening_hours": {"weekday_text": [], "open_now": true}, "place_id": "ChIJneWSEjNw5kcRrpbgsvMnPIs", "photos": [{"photo_reference": "CmRaAAAAQCQYOelRmygaGrTSESPuqJDbw5SXMHpWkDJqHp3b8Wjaki_abARiIxqForRf_Y1_QeOAd27lb5d_93ArRKHSFR7H47FsfiyobfAWWoLlpsyBWfEI-Y_u0iwCjzzlRRbGEhA12lFTqTiirpYZ_C6XaUkJGhTIwr5yN3Wovzf_Y1iOG4a_9PrHig", "width": 4032, "html_attributions": ["<a href=\"https://maps.google.com/maps/contrib/102310706429772679349/photos\">\u0410\u043d\u0430\u0441\u0442\u0430\u0441\u0438\u044f \u0425\u0438\u0436\u043d\u044f\u043a</a>"], "height": 3024}], "formatted_address": "18 Rue Antoine Bourdelle, 75015 Paris, France", "id": "4bd9b7437fbb1a244247ef3b1252651778b6434d", "types": ["museum", "point_of_interest", "establishment"], "icon": "https://maps.gstatic.com/mapfiles/place_api/icons/museum-71.png"}, {"rating": 4.3, "name": "Museum of Art and History of Judaism", "reference": "CmRSAAAAWZDKNlLIn-gXog9N0Lg-d-vxZ-Bnt9vfEGAYDm4LHn8MQui5VlLxOQkidWkp-5cxss0QeJnNj92B9RODnIO_Pwv_V0NnPJvSMdJGtUPRLmFZ-vrxHy1XcX4vHNrhHOIHEhAQM2W4jRdpSMLsVtnjdZoAGhSXlbawzjreZw3fnr6OKQ7Db6HXBQ", "geometry": {"location": {"lat": 48.86101019999999, "lng": 2.3556112}, "viewport": {"northeast": {"lat": 48.86233053029149, "lng": 2.357001580291502}, "southwest": {"lat": 48.85963256970849, "lng": 2.354303619708498}}}, "opening_hours": {"weekday_text": [], "open_now": false}, "place_id": "ChIJydDIqRxu5kcRqB6W-MQwcYU", "photos": [{"photo_reference": "CmRaAAAA3U2ZDfjSqwMgna_VDrAv20TD1_Ag8hpuxqmh_EPkecidLzOlSm9ZQSrwnkJXYwCFdzrPorw9h04gc3YSuslmpvUEDjJVWDAfUh5TXUiKAOn08CcFKFyFGgUvDsfmZfwzEhCohLXhyenJa1avkz5t0GARGhRGHjzZ569UmzYLyqo4OveXJTHocQ", "width": 5472, "html_attributions": ["<a href=\"https://maps.google.com/maps/contrib/111439998339572420275/photos\">Sebastian Stein</a>"], "height": 3648}], "formatted_address": "H\u00f4tel de Saint-Aignan, 71 Rue du Temple, 75003 Paris, France", "id": "d792857c93b46cdbf84a4471d25360372a219069", "types": ["museum", "point_of_interest", "establishment"], "icon": "https://maps.gstatic.com/mapfiles/place_api/icons/museum-71.png"}, {"rating": 4.1, "name": "Picasso National Museum", "reference": "CmRSAAAAIWvQs2SJ37gDFzgUIZ8ofgjD0falV_OZ3lBWIxohqEOPTen-DHfD0ZRCko55UMAN3NzyqJFUMBDcl_-paP6sw3zAoGXZXoF6vQSTmZXWnEH17v7OpvKFZBJuV1DRlzy3EhB0_2Zw5Lr-gzDg78fdtsIIGhR-4oCS51BKuU5R7Uw25SrWWgQXTw", "geometry": {"location": {"lat": 48.8598775, "lng": 2.362285}, "viewport": {"northeast": {"lat": 48.8611387802915, "lng": 2.363736030291502}, "southwest": {"lat": 48.85844081970851, "lng": 2.361038069708498}}}, "opening_hours": {"weekday_text": [], "open_now": true}, "place_id": "ChIJS2t0QgFu5kcR92388prakcE", "photos": [{"photo_reference": "CmRaAAAAMcp8hb75CmfDqNgubJAEwwkY_2R3EJfMep-N2nx22hhjMHhdmr5dWOBsYzmpWw1UtBD-R1Ctff6t7MgEpuj3j7Fu3mIm4zF3N3rfrAULlVC0MmZRULZWiPs1GmSnnPITEhAcHNv8_qpvwQAobvU0jaYIGhQCoH-UhAwPAaKQM4ctsu_KbP375g", "width": 2688, "html_attributions": ["<a href=\"https://maps.google.com/maps/contrib/109220809679236070402/photos\">Cristina \u0218tefania</a>"], "height": 1520}], "formatted_address": "5 Rue de Thorigny, 75003 Paris, France", "id": "437d1813371792fb053268dfe95e2d30ed9c95d6", "types": ["museum", "point_of_interest", "establishment"], "icon": "https://maps.gstatic.com/mapfiles/place_api/icons/museum-71.png"}, {"rating": 4.1, "name": "Mus\u00e9e Gr\u00e9vin", "reference": "CmRRAAAAOwI8dMyTAnfHmCBxFVLMivkOe3KuEfQ0Z7Wzczay20jJZ40U0dQDZ1DYJtam1vHBnPDUJGsygbFteP4qMloPfZIxQQozEXIe_0eyUiecRUsxjvGuXhCOQQNK5E6R5VtmEhDcvp-SS8vfHRItwxT4Ohl_GhTedPRpnJfkc3qxWU9_cAKdoLtjyg", "geometry": {"location": {"lat": 48.87183779999999, "lng": 2.3422204}, "viewport": {"northeast": {"lat": 48.8730949802915, "lng": 2.343531730291502}, "southwest": {"lat": 48.87039701970851, "lng": 2.340833769708498}}}, "place_id": "ChIJVUrgmz5u5kcRWPSN-T8a730", "photos": [{"photo_reference": "CmRaAAAAyWPemBVyCyRwLXoquGJnKvrs3vfMQUaYZpFPHYGkIIVMZ9er1x4Rv5F8tflwKbqXLNT0g_0dIcnzPG37f_Uqzi_NQSbtez9oFv8t7Pq0CKyFiXC3_8zSfruFECnie8_qEhC9nz3vjMuAaf9A_jG0pkaFGhQt24K7F_-GYvO5LjS6Ufcgvf1Yaw", "width": 5000, "html_attributions": ["<a href=\"https://maps.google.com/maps/contrib/104830790367177263258/photos\">Mus\u00e9e Gr\u00e9vin</a>"], "height": 3328}], "formatted_address": "10 Boulevard Montmartre, 75009 Paris, France", "id": "ad4b7cebe781fa4b1282606a2fe8e57022767726", "types": ["museum", "point_of_interest", "establishment"], "icon": "https://maps.gstatic.com/mapfiles/place_api/icons/museum-71.png"}, {"rating": 4.1, "name": "Paris Sewer Museum", "reference": "CmRRAAAA4Wk0To_NlecRPyMHND6CEYtAxCB3aO5tnagL-nQRt7AzBh9J1Dg_CMCzqytMtwLKHtA2SjJ6j09x-9F4ipdP23KIbttNtf5VwnOybdbUP1KmljHfJXoq2fSeQ5wp20EjEhB-4XzpY0iNIMSChVqe1_pBGhQ8vIFJKhq_LCiRbiphe_JuL8kUiw", "geometry": {"location": {"lat": 48.86264, "lng": 2.302601}, "viewport": {"northeast": {"lat": 48.8639889802915, "lng": 2.303949980291502}, "southwest": {"lat": 48.8612910197085, "lng": 2.301252019708498}}}, "opening_hours": {"weekday_text": [], "open_now": false}, "place_id": "ChIJAYllBdpv5kcRI5PocXj8I2c", "photos": [{"photo_reference": "CmRaAAAAnJnOzlKPdwIg_2SSbj-U32P_Wvj5HNvL4CDWxAyZXMdrC1yYaPB7QMPcdIeyTlbh-FrXnM07-nXNyuWiOLfKOUYkrH-8eRqJWHtg2nkRtDAN18yTp-qgKBLBLnZzo-OHEhAdHExwh4YtYyXRyhszVmBbGhQpQLLm0EcD6t4ifVJ1aLS5PzRsJg", "width": 2048, "html_attributions": ["<a href=\"https://maps.google.com/maps/contrib/102278651379265235944/photos\">Visite des \u00e9gouts</a>"], "height": 1382}], "formatted_address": "Place de la R\u00e9sistance, 75007 Paris, France", "id": "ace8152e7839c8745be8664c3e8c4e524566cb47", "types": ["museum", "point_of_interest", "establishment"], "icon": "https://maps.gstatic.com/mapfiles/place_api/icons/museum-71.png"}]