[{"rating": 4.7, "name": "Louvre Museum", "reference": "CmRSAAAA_b16gzslnfTsgVivh5_i_jzIl0EbIugtYuyBLjFd-9MDSe7O4prIvwUHAdVOBGq8DryK7KEM6wIoLcIHseg9L9UJ1TjuWAixtJPbZj5CjpRp84Ih2lmi-X8emPLJYQtNEhBAtl3istvodoJyPq1id7hcGhT0sAznQk73yh5cuEcTyObuYvXs2Q", "price_level": 2, "geometry": {"location": {"lat": 48.8606111, "lng": 2.337644}, "viewport": {"northeast": {"lat": 48.86313575, "lng": 2.3391953}, "southwest": {"lat": 48.85976955, "lng": 2.3329901}}}, "opening_hours": {"weekday_text": [], "open_now": false}, "place_id": "ChIJD3uTd9hx5kcR1IQvGfr8dbk", "photos": [{"photo_reference": "CmRaAAAAcv5WC_-pHhttIJK-DjeqVSbxhxCAAFL5by3GqUk6gkiI5WuU2DehfSlFq7WOllW0xe51vTPX_ia7HExZKlDAmKn4LRiKSwBFrwwdw8tbvB0NO8pMjnE_80jo_Yn4CSImEhAbYnuzByPOvXrwzLLPawQjGhSFJwr8wNBF4CBgr04mEWDj6wKW2Q", "width": 4288, "html_attributions": ["<a href=\"https://maps.google.com/maps/contrib/109983477559905217030/photos\">Christophe Jacquet</a>"], "height": 2848}], "formatted_address": "Rue de Rivoli, 75001 Paris, France", "id": "9a007d81ca8f47ed30ddaf39c4174ef773b351e0", "types": ["museum", "point_of_interest", "establishment"], "icon": "https://maps.gstatic.com/mapfiles/place_api/icons/museum-71.png"}, {"rating": 4.7, "name": "Mus\u00e9e d'Orsay", "reference": "CmRSAAAA51FQrsy6_4QuBMDHVy_kJIjZJySEQQ6XVLv0XVerd70JefdQTxZ8eRYHDGnKEuOYS9ldAbkwOIQEDu6wT0iZe6IilnXLEI0R9CBp5PNn9_Rhss8tNdjzr79oI-MgVXo9EhD9YFOntGJFWXQv6V5w7KTVGhTtN0BSBfox2_gfBHc4ZsMrO2E2SQ", "geometry": {"location": {"lat": 48.8599614, "lng": 2.3265614}, "viewport": {"northeast": {"lat": 48.8615291302915, "lng": 2.3275171}, "southwest": {"lat": 48.8588311697085, "lng": 2.3236943}}}, "opening_hours": {"weekday_text": [], "open_now": true}, "place_id": "ChIJG5Qwtitu5kcR2CNEsYy9cdA", "photos": [{"photo_reference": "CmRaAAAA4BlO5CKxMYm6frSquPfarFmugDz5OJf8aeao3gTMxuzoN3yuanPEwQ1cWdRSh5Ih9BBLADe2GXBlTxJpESlNu7v8RwC0YC8QLazFL0LlK56gIDZEzp__-ojSEr4BtzguEhBeEoiIG4uzedZHqubUljIfGhQYRj_KbIJOeOKwNzJjEAnzm0p_uA", "width": 2848, "html_attributions": ["<a href=\"https://maps.google.com/maps/contrib/104198155525513925723/photos\">Endre Horv\u00e1th</a>"], "height": 2136}], "formatted_address": "1 Rue de la L\u00e9gion d'Honneur, 75007 Paris, France", "id": "324ebea255dabc1cb3a5ca92839d3949530e05e3", "types": ["museum", "point_of_interest", "establishment"], "icon": "https://maps.gstatic.com/mapfiles/place_api/icons/museum-71.png"}, {"rating": 4.5, "name": "National Museum of Natural History", "reference": "CmRRAAAA51SrOamutZV8vTaT4qzGerI-0wxHG04A2rxjsOErkqHFCzDopExiRHM6uAehF7d_TrcmDC03L0JTfhAKoEOYInFN73GYxgr-7JxfdspWwEg0fC-gTulNPhc7uVtg7HD_EhBGlhFXFO0VLh7aJIGoLUh6GhQEHC--zws-bXWKpjYHUpYRWkqrUQ", "geometry": {"location": {"lat": 48.8443425, "lng": 2.3562101}, "viewport": {"northeast": {"lat": 48.8456914802915, "lng": 2.357559080291502}, "southwest": {"lat": 48.8429935197085, "lng": 2.354861119708498}}}, "opening_hours": {"weekday_text": [], "open_now": false}, "place_id": "ChIJEURALfFx5kcR4cbxSSHWQ0c", "photos": [{"photo_reference": "CmRaAAAAogyCWro3c0_llsSFxbg14jYllbkbwT5Czm37BngqQBLUE2pzWuYr-StmK7UUXWvthTNts9nDcbsVs8Bl3IAAwfZ7nQBHx0oIpBRI9MBM9dUN0NMwaTJWyi4Ib_ThJsgZEhD1mZEAgW9XTdaOIn8nFin4GhRyZMHvQOtsKVGifj-d5i3zvrsThQ", "width": 4128, "html_attributions": ["<a href=\"https://maps.google.com/maps/contrib/116329647050068364523/photos\">Val\u00e9rie Payen10</a>"], "height": 2322}], "formatted_address": "57 Rue Cuvier, 75005 Paris, France", "id": "c9b20c83264c29f12d01829dad7b5117af7ecf3d", "types": ["museum", "point_of_interest", "establishment"], "icon": "https://maps.gstatic.com/mapfiles/place_api/icons/museum-71.png"}, {"rating": 4.5, "name": "Metiers Art Museum", "reference": "CmRRAAAAJhkV1_vUkffrM6j3GqhRCJTJsWIO_XH99sdUlO1ueG4v5EM3o_wbHMJM26vtaXQt23GMChs7rbs1MYIcnwZjpVIV7cCh8ukUvsTgjXHEa7wyMvEqncvznLvhi6cg9afWEhAzl1LyubJZR9Gq0DJOWTkvGhRnkyj1vTqajmMOkjuwbfqGVViv_Q", "geometry": {"location": {"lat": 48.86663919999999, "lng": 2.3554383}, "viewport": {"northeast": {"lat": 48.86814788029149, "lng": 2.356274980291501}, "southwest": {"lat": 48.8654499197085, "lng": 2.353577019708498}}}, "opening_hours": {"weekday_text": [], "open_now": true}, "place_id": "ChIJNUTIphpu5kcR4h07VuxFIHc", "photos": [{"photo_reference": "CmRaAAAADEdtvH33T0vJ3n1ezSktNP2q_DXrx61dtDNB2UuPXA96lbd2q_HIdSubrFDWfuwysqr064Ms9gtnbvod0DaE8ZXrloBugxXAvaBI26Kr-ZeMaY1eM6HxDi1325sfqmFMEhBawjJy0eG1pi88Qxktv758GhQjq-ZQyjrmbMhE9twI8Ijwf5Kdaw", "width": 378, "html_attributions": ["<a href=\"https://maps.google.com/maps/contrib/100087783093988552392/photos\">Mus\u00e9e des Arts et M\u00e9tiers</a>"], "height": 378}], "formatted_address": "60 Rue R\u00e9aumur, 75003 Paris, France", "id": "8361ea0e7cef57e52503ed18c71a9c3860a6fd5f", "types": ["museum", "point_of_interest", "establishment"], "icon": "https://maps.gstatic.com/mapfiles/place_api/icons/museum-71.png"}, {"rating": 4.5, "name": "Mus\u00e9e Curie - Institut Curie", "reference": "CmRRAAAA-1dXwIIdy0Bi90IXa5GBPSH8lM5Sv9ibZ246EbEItobnjMblAAo6p6_W3ruQmKRzSm0gSJH-CHdWA_ySDkWZBLoOGoWOJOMg7NXpdy-2nYiyV3m6W1Q-dA-8tCjwakITEhADx0Km9zavWWvDe7bkqumYGhR3RMIPKAO40gK8dY6OdrQV48kpFA", "geometry": {"location": {"lat": 48.84422350000001, "lng": 2.3448276}, "viewport": {"northeast": {"lat": 48.8456133802915, "lng": 2.346030680291502}, "southwest": {"lat": 48.8429154197085, "lng": 2.343332719708498}}}, "opening_hours": {"weekday_text": [], "open_now": false}, "place_id": "ChIJjU2KN-hx5kcR3wlTp_OOrXA", "photos": [{"photo_reference": "CmRaAAAAsOVmotPKOx0TEZ1QAc35ZsdkzGrIUWWryW2AIIRa5qKvriVC6e9O3CDTC2TPa62dvEKbZVGSyNDGc6c99zr9X6_GrRmgzWq14bTYs-zRKmnwed41yRcpr4TI6PP6_gSXEhCAij-gQ6OIY0W0j1prIw8uGhRV1arEnozfsndthVY8rmdvd79sVQ", "width": 4640, "html_attributions": ["<a href=\"https://maps.google.com/maps/contrib/114582577591249035011/photos\">Meraj Khan</a>"], "height": 3480}], "formatted_address": "1 Rue Pierre et Marie Curie, 75005 Paris, France", "id": "b2f8dd7eb6dc8e4ba61da47a0b57faf5b887570a", "types": ["museum", "point_of_interest", "establishment"], "icon": "https://maps.gstatic.com/mapfiles/place_api/icons/museum-71.png"}, {"rating": 4.4, "name": "Museum of Decorative Arts", "reference": "CmRSAAAAez9WTz4gkT_tBwNb1LipBfZhmUf9O19Pq-t9kYiNAsACqcGgiOjDwNNPW3hhvd7J6WwzEh-2Z7AxUBK0lW8qxXX_RryV5i4m0mT54mKrFliuGxnIjO0H-uVBPqfYTR9REhA_qW-iqom_T94kZJxU6DEKGhTm4ACNY6OKTv2bdEavAGcCpO5i6A", "geometry": {"location": {"lat": 48.863063, "lng": 2.3333951}, "viewport": {"northeast": {"lat": 48.86452403029151, "lng": 2.334805930291501}, "southwest": {"lat": 48.86182606970851, "lng": 2.332107969708498}}}, "opening_hours": {"weekday_text": [], "open_now": true}, "place_id": "ChIJ_QwlZC9u5kcRi6OALXVubvc", "photos": [{"photo_reference": "CmRaAAAAkuruZ-aIAsRpp1pB5-V7Xp9FSiexpm9OYwNg5lJl3V8MdHpmHWtJK4wDRZN39QksGQfEs2Ghswf0OuaLyyVNTlOGhVEh4s_aJjUzeknjDRRNFv8BvNzCcXBZ_K7NznkXEhDEj7NNp87WgTBF9fpi1PqzGhTnOc4PpE6nmaFadp574kymezEYRA", "width": 4160, "html_attributions": ["<a href=\"https://maps.google.com/maps/contrib/101898502475390465407/photos\">Coco Izzy</a>"], "height": 2340}], "formatted_address": "107 Rue de Rivoli, 75001 Paris, France", "id": "169658dccbc306c41bcd48121afd255e3be81510", "types": ["museum", "point_of_interest", "establishment"], "icon": "https://maps.gstatic.com/mapfiles/place_api/icons/museum-71.png"}, {"rating": 4.4, "name": "Cluny Museum - National Museum of Medieval Art", "reference": "CmRRAAAAY3OmIeUAuIr8eUTt8rfNCWSgk2c0dlhm7cVngTxI3AsOtMJaHS2_M4DKUQyga-VD4k5Q38FruhmjdvjZA-LFLILLVVDTLiHmsA3A2UG2Fnu54gapAypgssxM3pJlMv90EhDEfbF2JnEgswVaj40hISduGhTARDx8wy3NoaE5_tjCn_a_gyTFhw", "geometry": {"location": {"lat": 48.8504833, "lng": 2.3440808}, "viewport": {"northeast": {"lat": 48.8517204802915, "lng": 2.345387780291502}, "southwest": {"lat": 48.84902251970851, "lng": 2.342689819708498}}}, "opening_hours": {"weekday_text": [], "open_now": false}, "place_id": "ChIJLxPh9d1x5kcRf7M1U0pu1gU", "photos": [{"photo_reference": "CmRaAAAApPHx0YI3vPsVavkymIC-vViK0SgxNZh5WrguIW6iVBHLfUweE3VFvujsbQSIsnFDXt_X6-mmYS1woV48-EeRGBvO552-307JaesbGbQWCQzJNhp-wU7xI_juCb2o20H-EhBPu5hy7iAkHbgN3NZy8X7eGhTMoXDHEYcVuq9SV7Prh9yqTJLm7A", "width": 4320, "html_attributions": ["<a href=\"https://maps.google.com/maps/contrib/105787647052433885325/photos\">Jonathan Letzter</a>"], "height": 3240}], "formatted_address": "6 Place Paul Painlev\u00e9, 75005 Paris, France", "id": "ddc83c8b7be273cc7384a91c31dc4e375967aa44", "types": ["museum", "point_of_interest", "establishment"], "icon": "https://maps.gstatic.com/mapfiles/place_api/icons/museum-71.png"}, {"rating": 4.4, "name": "The Centre Pompidou", "reference": "CmRSAAAAwklGJ_nV7uNZ2ZnhouyKWuzS3F-A-5MZMEOymK_s5YGFm5iBfgvHQxxCgi8rZdbZnfIDA3o8SGwKXtitXhLPY5Xo9O0PDEbl8Ug-jPZQPnBb53FharzualFQk61kU1JNEhCMzN5intl4TPqEPfXpe5GUGhTNidH_W9PnTRga6oBg7ao5Bx0Bkw", "geometry": {"location": {"lat": 48.86064200000001, "lng": 2.352245}, "viewport": {"northeast": {"lat": 48.86193895000001, "lng": 2.3541162}, "southwest": {"lat": 48.85891794999998, "lng": 2.3513682}}}, "opening_hours": {"weekday_text": [], "open_now": false}, "place_id": "ChIJoyC4CRxu5kcRRTPcWX5srLc", "photos": [{"photo_reference": "CmRaAAAA1dz9zG8BTbdEJ9MQNAx6ybqrbbcDEcJPEnzY711S3BXDZueZ_XwN7AfdEhZbxAOf9uVysGQaQDUe-1AWilNWMYGaXQlM_pYSV3FQPN_66XzKzIKNezdFV6BLSpnsjHAbEhB40ib8GTfEt4_1CmLZaUgiGhQO0GKgacb86KDcbzacXI8thfB2pQ", "width": 2028, "html_attributions": ["<a href=\"https://maps.google.com/maps/contrib/106029497379210586274/photos\">Egil Johannessen</a>"], "height": 1350}], "formatted_address": "Place Georges-Pompidou, 75004 Paris, France", "id": "8546df4461a8d783d8452ed7272edbee05a591b0", "types": ["museum", "point_of_interest", "establishment"], "icon": "https://maps.gstatic.com/mapfiles/place_api/icons/museum-71.png"}, {"rating": 4.4, "name": "Biblioth\u00e8que-mus\u00e9e de l'Op\u00e9ra", "reference": "CmRRAAAA4hp1VGJVZZfekTK7rEMlsaJHxDMT8665SaSlEzXaUNatMRrKtFxWz5IVA9WPOvORbFPJiZXZ-1S8BOq5Wp07zHwO8LtYwj5ajzCcHy_rj5afcEoGvqRPd0wSrdG3kjvwEhAJtfROsMki-NVZ-7jNKOL-GhQEDK99LbDWE5adFRUZ8pye5G_y_Q", "geometry": {"location": {"lat": 48.8720052, "lng": 2.331714099999999}, "viewport": {"northeast": {"lat": 48.8734470302915, "lng": 2.332601830291502}, "southwest": {"lat": 48.8707490697085, "lng": 2.329903869708498}}}, "opening_hours": {"weekday_text": [], "open_now": true}, "place_id": "ChIJ5S5QKjFu5kcRx5gcUAcDn34", "photos": [{"photo_reference": "CmRaAAAAnyDXywiOFSMkm_9sY-OMpONI0uKTv4ICxoZMpH8LlezjH0zjAXMAAyMPFb6wobn_Qn5krSs0MZR3ienG8BlM0PvhgwNphkMBJaulxnZgZa2h4GQrCMp5D9USf8sqzpQKEhC2kVgRrq36O8OqdwBn1fMJGhSwvbdRDT5cjKaslN2EK7BXQqWjCw", "width": 2048, "html_attributions": ["<a href=\"https://maps.google.com/maps/contrib/109104673503451209616/photos\">Vladas Portapas</a>"], "height": 1366}], "formatted_address": "Palais Garnier, 8 Rue Scribe, 75009 Paris, France", "id": "eb5cb03aa6024c679ced7bfe01076c99d6dcebdf", "types": ["museum", "point_of_interest", "establishment"], "icon": "https://maps.gstatic.com/mapfiles/place_api/icons/museum-71.png"}, {"rating": 4.3, "name": "Museum of Minerals MINES ParisTech", "reference": "CmRSAAAAlWFt7vThxNfgDXAqUD7Osyyu3aTf0Y3EF9Ee_Z_rQAz_8W5usXk1L--Az6XO2pNCoAPOC4RxdlWCC8APuHnCP389jZGUJ-q6xJxoLVPjzv0vQf-UpvV3LFX7M5D-trZiEhC3wOwoOWpbipRk6fv-HmMjGhQY_Jkut402eyqiTTHoKMAVV2_VsA", "geometry": {"location": {"lat": 48.8451192, "lng": 2.3394016}, "viewport": {"northeast": {"lat": 48.8466545302915, "lng": 2.340997680291502}, "southwest": {"lat": 48.8439565697085, "lng": 2.338299719708498}}}, "opening_hours": {"weekday_text": [], "open_now": false}, "place_id": "ChIJd104OsNx5kcRqW8-Crk_dKk", "photos": [{"photo_reference": "CmRaAAAAMNWcBvw-_RBqg_AMEdEFB0IYH98IOF0RFm6TQFiFix8g7_Ypmx0I1sLXNuNT4XC25o53aIdzpLMA_TXibMkgYtJnUZQIdQy7EXwtZo9pFKIqyb5phU_BIhvS7XPYPLXzEhDcAFVoQd1mwwVHvAK9N7pPGhSWIBsRvXnrEjfiH9V5r5VTap49mw", "width": 4752, "html_attributions": ["<a href=\"https://maps.google.com/maps/contrib/111187841734342765161/photos\">Enrique L\u00f3pez Ruiz</a>"], "height": 3168}], "formatted_address": "60 Boulevard Saint-Michel, 75006 Paris, France", "id": "2baae64c3b0d4cc01ff4c51b08c1901a0f7350a2", "types": ["museum", "point_of_interest", "establishment"], "icon": "https://maps.gstatic.com/mapfiles/place_api/icons/museum-71.png"}, {"rating": 4.3, "name": "Museum of Art and History of Judaism", "reference": "CmRSAAAAsnIuPohlvHcFnLG2y32tFQ_IDLC1dmx_6hV7FL4IAYAoK4_c3A8627mmmdQUjl5n9uiJXiH-R-SZ_TqP-mMWvu3aTd0-95IHePKLGYTNuz1RrXSWWecczLBRFZCySnjnEhATXu7T6mRrWGJTfbOqKMKqGhRs7jxAPrvbfWG_wNvHQBPbeqdvMQ", "geometry": {"location": {"lat": 48.86101019999999, "lng": 2.3556112}, "viewport": {"northeast": {"lat": 48.86233053029149, "lng": 2.357001580291502}, "southwest": {"lat": 48.85963256970849, "lng": 2.354303619708498}}}, "opening_hours": {"weekday_text": [], "open_now": true}, "place_id": "ChIJydDIqRxu5kcRqB6W-MQwcYU", "photos": [{"photo_reference": "CmRaAAAADaSkWt6t9CEU2QYvYT3pisyHPatM6av-Ga7wAdEn3Nt4chwVzSgJARvfE1PGtbFa5aRRV2b4pBo7b8B4Hcydvkhw_CWl75LpJtTj86_sOcwyikWNrY1D9szYBqyS9DXIEhDc6MPIFJNzh-Uoy9bH5z8mGhTnT-uvSDJN-MC7kXjXRQ-bzOXe6w", "width": 5472, "html_attributions": ["<a href=\"https://maps.google.com/maps/contrib/111439998339572420275/photos\">Sebastian Stein</a>"], "height": 3648}], "formatted_address": "H\u00f4tel de Saint-Aignan, 71 Rue du Temple, 75003 Paris, France", "id": "d792857c93b46cdbf84a4471d25360372a219069", "types": ["museum", "point_of_interest", "establishment"], "icon": "https://maps.gstatic.com/mapfiles/place_api/icons/museum-71.png"}, {"rating": 4.2, "name": "Museum of Freemasonry", "reference": "CmRSAAAAoJSICUXqn_1ixmKpEQebwe-7nEvT6oaW53ZYeBWTyvECPKi0ttSNVG2GsraG19RedcX0TYQoDI0nwAsZyuIYCHATwx_pQKg2FVivZiboNW3MNkao8dHiokeK44nQ5OtwEhDeJKiBd2TASRIjcE_dkKheGhQkULHrjHNzQjqftTYZ6XVupbgkrw", "geometry": {"location": {"lat": 48.87488399999999, "lng": 2.34315}, "viewport": {"northeast": {"lat": 48.87625793029149, "lng": 2.344425030291502}, "southwest": {"lat": 48.8735599697085, "lng": 2.341727069708498}}}, "opening_hours": {"weekday_text": [], "open_now": true}, "place_id": "ChIJ5WeFCj9u5kcR7-yd40IpLKY", "photos": [{"photo_reference": "CmRaAAAAYowP7u4phGcRiZYSLLvGPkIXu-tJU0zn1O1LYe7EIZegKoK9cw7nzu7uVKTbb-9FR8eBylyNCQ16RMgB6_nQzXcEDW6_vtTPyFx6ObX5g49IykpyYpDxI2LMTfTb3TMLEhDIyWk0VLTvwNzTu9JS0wKVGhQutCKI49-zSa_t8MX5CUZycA_QTQ", "width": 1000, "html_attributions": ["<a href=\"https://maps.google.com/maps/contrib/101367942260771836396/photos\">Mus\u00e9e de la franc-ma\u00e7onnerie</a>"], "height": 667}], "formatted_address": "16 Rue Cadet, 75009 Paris, France", "id": "589b462bda8717e4bd4d351aff3be8b4d72fbf0f", "types": ["museum", "point_of_interest", "establishment"], "icon": "https://maps.gstatic.com/mapfiles/place_api/icons/museum-71.png"}, {"rating": 4.2, "name": "Arab World Institute", "reference": "CmRSAAAAUSa9OJd8XWYMQVWfIfsRi_ErOYocFfLMSbb0VSii0bdqED8RW8WFovczQj2K3ECyMd54e2sOmfvz39aclRjHvmV742-2Ay8oCM2cEATG9PVhpKb5Sfh-Oieyz42j6zwcEhB_Ug2ZhDvmnQMn7WysidSUGhQnuHRydLbvmmwVVsDxalctGwhAQg", "geometry": {"location": {"lat": 48.8489257, "lng": 2.3572313}, "viewport": {"northeast": {"lat": 48.8504774302915, "lng": 2.357968730291502}, "southwest": {"lat": 48.8477794697085, "lng": 2.355270769708498}}}, "opening_hours": {"weekday_text": [], "open_now": true}, "place_id": "ChIJK-03I_tx5kcRdA4Cj8VV1b4", "photos": [{"photo_reference": "CmRaAAAAPvc_zpckInVXrAaL8p-W5vMG79qzdFlv-04EsfKC4xXStcdVasznIK8xmIjqddeWU2w9fjA1CuiJgfbyIdZMwXTNibqyKd9xDxqAayOAN20t1Ay15s-JaQbLLUWV9uP5EhBRfbzPNv0GkkvfKU0WtBpQGhTadncgNhSY4lpi-LnzmGNDiOnQFA", "width": 7360, "html_attributions": ["<a href=\"https://maps.google.com/maps/contrib/107248789359318537950/photos\">Shalam Philip</a>"], "height": 4912}], "formatted_address": "1 Rue des Foss\u00e9s Saint-Bernard, 75005 Paris, France", "id": "a7777d0cf2d54e760b4dc330dc8be9e11aac147c", "types": ["library", "museum", "point_of_interest", "establishment"], "icon": "https://maps.gstatic.com/mapfiles/place_api/icons/generic_business-71.png"}, {"rating": 4.2, "name": "Mus\u00e9e du Luxembourg", "reference": "CmRRAAAAQnZyoX_qJ5mlrT3BiSz2RWylhziXO3S-BG2lsReTaru29YgblvMOM-W9rgZGiwizOYPFFVeggGLlgSnuOYQc2nGvE9kQD_M715wrjY7viNmaDZpEKogL4vP4PBNZwwpQEhC-R5782Tnfn_uFi0IkoHgjGhQcwdpX3u_3akw9gFN0D8hwaWWl-g", "geometry": {"location": {"lat": 48.8484382, "lng": 2.334057}, "viewport": {"northeast": {"lat": 48.8500518802915, "lng": 2.335244630291502}, "southwest": {"lat": 48.8473539197085, "lng": 2.332546669708498}}}, "opening_hours": {"weekday_text": [], "open_now": true}, "place_id": "ChIJLxJL9dpx5kcR927ocHiDVgI", "photos": [{"photo_reference": "CmRaAAAAito5KCErkohaWoLDfFLzRAAZqP7POtJRx3Wo0WOQIAPD4jmi79Q4Zz012xZpvAys7_kXILoXTNicYhVFOOgcB-K-OG0tb_cLrCxOtpHKcdneDZ-XEWtJzid0_GpEkE4uEhAe7WizOmaX5XyST-542xMZGhQIqcQP3HTqbeo001cKwigCDLUo9w", "width": 3264, "html_attributions": ["<a href=\"https://maps.google.com/maps/contrib/105834880555089718048/photos\">Robert SOUBRE</a>"], "height": 2448}], "formatted_address": "19 Rue de Vaugirard, 75006 Paris, France", "id": "a29daacb537d5b6ba9f07748e0b0fa1ac31573f3", "types": ["museum", "point_of_interest", "establishment"], "icon": "https://maps.gstatic.com/mapfiles/place_api/icons/museum-71.png"}, {"rating": 4.1, "name": "Picasso National Museum", "reference": "CmRSAAAA8qOFOhbBxA4sk3q05nbN0_Mn75_CI6n9IjqWZ4Ez32F3FH73QdF5QQhu6oB47pzOwVYuT95W6tDSeZ3QoI7tp1ttMmFXelcPKVezbjNJ7BOU89CtZyl6DvWMbmK-QXGsEhDd8xC7XqqSD2Lu6crfEOMYGhSRGr7brdpUP39iCf6KF_nBkF889A", "geometry": {"location": {"lat": 48.8598775, "lng": 2.362285}, "viewport": {"northeast": {"lat": 48.8611387802915, "lng": 2.363736030291502}, "southwest": {"lat": 48.85844081970851, "lng": 2.361038069708498}}}, "opening_hours": {"weekday_text": [], "open_now": true}, "place_id": "ChIJS2t0QgFu5kcR92388prakcE", "photos": [{"photo_reference": "CmRaAAAAg-6n-1LFCxAVMAVVgUihM6occzWTkOabHDEKwIcJu4QOsIPmKOb6dUfeENoMVdKCn5uvoo9RX03AYR5MOLlySlfGxFwGa1yVATYiLQGJ_sT8HXt026APJaoyaxpVyJ72EhDmh75PSkX2LQ17NfvfCi3PGhSzC6_WmUiVBFHzs4hgbPkpR2ScQA", "width": 2688, "html_attributions": ["<a href=\"https://maps.google.com/maps/contrib/109220809679236070402/photos\">Cristina \u0218tefania</a>"], "height": 1520}], "formatted_address": "5 Rue de Thorigny, 75003 Paris, France", "id": "437d1813371792fb053268dfe95e2d30ed9c95d6", "types": ["museum", "point_of_interest", "establishment"], "icon": "https://maps.gstatic.com/mapfiles/place_api/icons/museum-71.png"}, {"rating": 4.1, "name": "Mus\u00e9e Gr\u00e9vin", "reference": "CmRRAAAAdCTLujoL86XiyzuOCDbNgVjsyl_CoIm8oS7FBuoqUapD6478acnwIO9L_Y3VxwR8t6wPjvJn5iBEtwV5a1CCtIxIAN_Qeb2X_j3tIKP8C274utW9J0DxBUafpH1mJdq3EhCALW9MFDIFF-T2-O-2RI0hGhSzapbPBwjh6RoFO2kRsmKEbHLsVg", "geometry": {"location": {"lat": 48.87183779999999, "lng": 2.3422204}, "viewport": {"northeast": {"lat": 48.8730949802915, "lng": 2.343531730291502}, "southwest": {"lat": 48.87039701970851, "lng": 2.340833769708498}}}, "place_id": "ChIJVUrgmz5u5kcRWPSN-T8a730", "photos": [{"photo_reference": "CmRaAAAA_jDr3D-EwuVRo2bweS4ta-636ykk9_LFurgntrs1lZNx-QdqMiJAmfsMkABM2Bhr_e9_H5L-r9e1MaYg64w9Lcx4RNQiSfauQekclKUtLk9arjEY_6C6hUExKs5B8_4kEhAOFTew2408QWMjvUd7hreSGhQyyzuiQ-IYEZJUNF6XaADovpcOUg", "width": 5000, "html_attributions": ["<a href=\"https://maps.google.com/maps/contrib/104830790367177263258/photos\">Mus\u00e9e Gr\u00e9vin</a>"], "height": 3328}], "formatted_address": "10 Boulevard Montmartre, 75009 Paris, France", "id": "ad4b7cebe781fa4b1282606a2fe8e57022767726", "types": ["museum", "point_of_interest", "establishment"], "icon": "https://maps.gstatic.com/mapfiles/place_api/icons/museum-71.png"}, {"rating": 4, "name": "Museum of the History of Medicine", "reference": "CmRRAAAAO2SG1vQAWLTSXZyVBfujRsUER7QNEzF-mXcLCrduLeMLq2cs4Ekqj0ZWfNy9vKirNAPb7OitKbk4ag9rliEoYKWCzjlSs-cm4rOmRde6dzD-Q_vbH4D29Zbz1BdulaNOEhBOAIYy8hUZatIShrglVU2FGhQldODTOqbiHD6USEmoqOTrg0Ya5Q", "geometry": {"location": {"lat": 48.8512506, "lng": 2.340761}, "viewport": {"northeast": {"lat": 48.8525570302915, "lng": 2.342048680291502}, "southwest": {"lat": 48.8498590697085, "lng": 2.339350719708498}}}, "opening_hours": {"weekday_text": [], "open_now": false}, "place_id": "ChIJgerDKdxx5kcRC6a8bQCNWBo", "photos": [{"photo_reference": "CmRaAAAA7VInSnvfqKQc1nsKYU7ZKmrpe5_DseB7vaAjrfeNS2HcddK8c5EFRBmu2AkuEUYq7LuO9zpD18_BqE00fZBcKmOGz2xv0Iu3PaZaRQRorFIjJly_dWYDjGVAwppcoAiMEhBUyIVGPe_9xgj8wiQmAFXLGhQPGZYB5aFWqcO89jaF9W94edUvgw", "width": 1365, "html_attributions": ["<a href=\"https://maps.google.com/maps/contrib/116727698353915833264/photos\">Mus\u00e9e d&#39;Histoire de la M\u00e9decine</a>"], "height": 1362}], "formatted_address": "12 Rue de l'\u00c9cole de M\u00e9decine, 75006 Paris, France", "id": "c6ab7f9bfacf0ec3fc045da742ef83218c5abcc3", "types": ["museum", "point_of_interest", "establishment"], "icon": "https://maps.gstatic.com/mapfiles/place_api/icons/museum-71.png"}, {"rating": 4, "name": "Adam Mickiewicz Museum", "reference": "CmRSAAAAvI2xGzx_3y2AnbcwLZcO16RDBJOLg0oU1QkN0FbvGA16BJ0FTmXBp611KkJHe_fPr1D8Lk7vfujaE_44ypzdLWx554Trwoz_BemmeO-plBqkEPwgWDpIbvbXe6GwT2sBEhDaRbIP1fSSxQGb2RHMGLcaGhQSBbAj5uyj_8I9DuQl_3kZMnYwmA", "geometry": {"location": {"lat": 48.85137749999999, "lng": 2.3556273}, "viewport": {"northeast": {"lat": 48.85265693029149, "lng": 2.357017880291502}, "southwest": {"lat": 48.84995896970849, "lng": 2.354319919708498}}}, "place_id": "ChIJzUK0rvxx5kcRz3yZX9CdtNY", "photos": [{"photo_reference": "CmRaAAAAmOcj5KngO9fQSaLPVGnlNMvdQuK3MsurLC0U3beplkcw_RsRcY66rNNBQoKv8WlIjfIq1YpixfM7PE159cTs7rdPm0sJ862OdHb8bTAsomK1Wt_c_csWqtDYPKOBYIyQEhB7Byw0__d-v69YPVFagAuRGhT6lXRfS0YAAjV21oV_ewRIkaOK1A", "width": 1310, "html_attributions": ["<a href=\"https://maps.google.com/maps/contrib/104198155525513925723/photos\">Endre Horv\u00e1th</a>"], "height": 785}], "formatted_address": "6 Quai d'Orl\u00e9ans, 75004 Paris, France", "id": "dd6482654401f3094b43ba666992db258c854269", "types": ["museum", "point_of_interest", "establishment"], "icon": "https://maps.gstatic.com/mapfiles/place_api/icons/museum-71.png"}, {"rating": 3.9, "name": "Choco-Story Paris - Mus\u00e9e du Chocolat", "reference": "CmRRAAAAav2kSH2KFdlw6z5Pbd9MGFkL8uOcnXK2-r__ZiMYPNWmswZt8sRyZLdvYHggR-KuWd7DifuBBJb1CnSnazyTmms9nns2GFjCE4DP9QEmhvASCyW1GH4AFfyjMtzrZRCkEhCHCz0kHQhP335LzXLOQ_OSGhSNXwLOP_9GK2E9dXn9EbFAGtXN4w", "geometry": {"location": {"lat": 48.8706183, "lng": 2.3500979}, "viewport": {"northeast": {"lat": 48.8718008802915, "lng": 2.351367480291501}, "southwest": {"lat": 48.8691029197085, "lng": 2.348669519708498}}}, "opening_hours": {"weekday_text": [], "open_now": true}, "place_id": "ChIJUeI3vBZu5kcRYj9XxE8ADVQ", "photos": [{"photo_reference": "CmRaAAAAzQEFZtKNK9ujgIk1rYWUaCUmgB9Zy0Znxi54DtmAD6uTkA1PAvODbZ8C_N-MgXmljvPxZimkMt4QVUCvw6Bg1FA4iXYVEGjdtMBgyLy3iPw1AL818D3P7NNaNR5x8EGbEhCe4anDo5zpQiw8PCKT61cDGhRPcZ5tLTIwRMsTCdV8uEZue7QCKg", "width": 2048, "html_attributions": ["<a href=\"https://maps.google.com/maps/contrib/101968019975180514983/photos\">gary turner</a>"], "height": 1152}], "formatted_address": "28 Boulevard de Bonne Nouvelle, 75010 Paris, France", "id": "1f9611517d91f90354ff40cac42a4c9419277207", "types": ["museum", "food", "store", "point_of_interest", "establishment"], "icon": "https://maps.gstatic.com/mapfiles/place_api/icons/museum-71.png"}, {"rating": 3.8, "name": "Museum of Magic", "reference": "CmRRAAAAd_hetefYc7GeFQD9nXDWrYA2rOJIhs8Ng3TIx7hwo7byhx8tSmcTpSibstqGk1fIpBJNB-VyEBULXup7DMp0F1TWwvf21uz9EuJ_gyOGM31vLN1_Hq0vTE66FYEvJFopEhAJjCb0KFC8YqtX4Og3KW_WGhQMZLQsgOOYOvlTZ5E8BkX8K0LlIg", "geometry": {"location": {"lat": 48.853154, "lng": 2.36116}, "viewport": {"northeast": {"lat": 48.85446128029149, "lng": 2.362554830291502}, "southwest": {"lat": 48.8517633197085, "lng": 2.359856869708498}}}, "opening_hours": {"weekday_text": [], "open_now": false}, "place_id": "ChIJjRsmgv5x5kcR6yiewFFd1wk", "photos": [{"photo_reference": "CmRaAAAA6XZeFYPGv0mRntbf4DXeOskJoRiQkeTNyWd4C-5g5wCZaMTAGRZgpMM1vhJAPXuQ0yWbfjsJcEDO83CaJJDvsLyFwBpyd3Njl-uoUFwTcyjdxV0BdDGb3qGsar4FQ0anEhBuwcXH3UGBD4kN5u3-wrxnGhT_hFadgXzR5VRb-kZHYOkqZO0Peg", "width": 1004, "html_attributions": ["<a href=\"https://maps.google.com/maps/contrib/102027903217181519853/photos\">Mus\u00e9e de la Magie</a>"], "height": 1005}], "formatted_address": "11 Rue Saint-Paul, 75004 Paris, France", "id": "27fb5eee5aeac5594bb5e50285d6fe7e14af3796", "types": ["museum", "point_of_interest", "establishment"], "icon": "https://maps.gstatic.com/mapfiles/place_api/icons/museum-71.png"}]