[{"rating": 5, "name": "Intimissimi", "reference": "CmRRAAAAQKhzBAa6jKwwGbz0GWv4oT5oG2s_SdaPKH9x5X36HOH9X6KL1-F_xmam5K1fAkQAw22mYuAkuBwn15RwR3oODasJhxGrkvSk7ruZxu6vAkNwP8y7EiyorshgRMZ6WHkMEhAMhYEX8WdFv6U4Qk9tfuLrGhRE8p34qXoGZCfRGXOdo2TK-jc3dA", "geometry": {"location": {"lat": 48.84817829999999, "lng": 2.2967168}, "viewport": {"northeast": {"lat": 48.84947843029149, "lng": 2.298114830291502}, "southwest": {"lat": 48.84678046970849, "lng": 2.295416869708498}}}, "opening_hours": {"weekday_text": [], "open_now": true}, "place_id": "ChIJY5dcNxhw5kcRd1_pckOx5VE", "photos": [{"photo_reference": "CmRaAAAAMCa-Ji5nq5oguejBQHabjfiCoh2XgUMMW51bhvA_Ejuuf-rjHkeMhNsHUj_b8I4y8iSCiYCeH6w9gVVU7ByKnyS7xQXN44ym8l52ZBTNGGKyyZ8hbMY-bqCn6aYMWJhbEhAvvueJDzRFIRdcFY4Wb5tLGhRjKPNU6_-TincirKL5xkmCTt4NEQ", "width": 4032, "html_attributions": ["<a href=\"https://maps.google.com/maps/contrib/101926943882142224550/photos\">Freud Ieuric</a>"], "height": 3024}], "formatted_address": "PARIS RUE DU COMMERCE 16, 16 Rue Du Commerce, 75015 Paris, France", "id": "05a1d2dd1a3bb7b639042beb0a1887d87be2ceea", "types": ["clothing_store", "store", "point_of_interest", "establishment"], "icon": "https://maps.gstatic.com/mapfiles/place_api/icons/shopping-71.png"}, {"rating": 5, "name": "lululemon", "reference": "CmRSAAAA7-4zh5B2kveCCKlL993KbaPQdIYNY1Jhtf2s1xutCv7QFN2jEW3zuibnJrEYKGzOECKC6mPwV1k--Mv2tW378o8AVbS8UFcNzyLLtHNkr_dr6DVLRBNHiOVuxUyU65IcEhBDqYiZIIViyhcLgTzUfgLrGhSDnM6D1xuGgyvrwNM2gGvQZLRRxQ", "geometry": {"location": {"lat": 48.85149, "lng": 2.334146}, "viewport": {"northeast": {"lat": 48.85271418029149, "lng": 2.335401380291502}, "southwest": {"lat": 48.85001621970849, "lng": 2.332703419708498}}}, "opening_hours": {"weekday_text": [], "open_now": true}, "place_id": "ChIJ14AV9dlx5kcRZUi_lHS_rJY", "formatted_address": "6 Place Saint-Sulpice, 75006 Paris, France", "id": "8378027242991a0529999a584bd4372852015c86", "types": ["clothing_store", "store", "point_of_interest", "establishment"], "icon": "https://maps.gstatic.com/mapfiles/place_api/icons/shopping-71.png"}, {"rating": 5, "name": "lululemon", "reference": "CmRRAAAAgRKVBMIh0ATwSz7KkMlF2FE1Mhb6M9tc0-aFSBsED10Vz5-QmNL9kM0xLd3s5qCd32Fc8Z8TQqD_jgaunWv5YR2D06l5u6z2Dax0qaMwE7EVMqeMh0LjTK_bNsiAfN9mEhBHykYcL24pXiX5hMTy0AynGhQcAB1ua5tsWk9HD6S3o0ftG06LaQ", "geometry": {"location": {"lat": 48.8562658, "lng": 2.3609635}, "viewport": {"northeast": {"lat": 48.8576502302915, "lng": 2.362354030291502}, "southwest": {"lat": 48.8549522697085, "lng": 2.359656069708498}}}, "opening_hours": {"weekday_text": [], "open_now": true}, "place_id": "ChIJTxJ1BAJu5kcRfrOD6ztOq2g", "photos": [{"photo_reference": "CmRZAAAA0zTiDwbQytGneFbcLNNQYbSHUaQQKX6IRZH0AWNyepiNNIV63h2xsJIGEmALr-7t7lMXoDvO5ydsGEkbxZxyqRdjMjggftpapiFETsHs0vvY8VTGEIYObAtq1xRPKLtIEhAyd4vXziApdbqfjQxWyacYGhSgcxtBa4QWYYBsJzEZkEDA66FPDw", "width": 3024, "html_attributions": ["<a href=\"https://maps.google.com/maps/contrib/105671864799631037745/photos\">Claus L. Bardenfleth</a>"], "height": 4032}], "formatted_address": "3 Rue des Rosiers, 75004 Paris, France", "id": "a4a84ab46dcb0582dccc53feac9b13bc9f38dddc", "types": ["shoe_store", "gym", "health", "clothing_store", "store", "point_of_interest", "establishment"], "icon": "https://maps.gstatic.com/mapfiles/place_api/icons/shopping-71.png"}, {"rating": 4.8, "name": "babyGap", "reference": "CmRRAAAA1u6aaIIplG0XJc1HoZcsVWqCn-zJ7bnPmURWats0SykeaREgSVn6ATlg9YC_2S7NoDyjzMoWfOW0yuoKDp8nOeEl9tbtivxezedwto5mzUpQQMmk3TIcLs3jGpeMPqz7EhAQJwBSDZi_jZEaS2VZ-BfCGhSHHh-MBSw8Epvev7CKhJVfNnjCoA", "price_level": 2, "geometry": {"location": {"lat": 48.85895509999999, "lng": 2.3478312}, "viewport": {"northeast": {"lat": 48.86031873029148, "lng": 2.349106830291502}, "southwest": {"lat": 48.85762076970849, "lng": 2.346408869708498}}}, "opening_hours": {"weekday_text": [], "open_now": true}, "place_id": "ChIJ-QIn-B5u5kcR2DmIfT5FgmA", "photos": [{"photo_reference": "CmRaAAAArEgJn9BoHjhbg1-SUMLYL05IYRJzBkMHmLtsxu4un_iIsoj8tdwBnWy8IKUDJuienxpmdEqx5m-1RndddVuUDQQk3ksvvZF48djlEBL2dB35h01K6Pce98NFYFW2HvbnEhB6OpjF4F9opsNpelPajtt-GhQ19ew1Cs-dfOHPcq8OXV--qwy1Zw", "width": 320, "html_attributions": ["<a href=\"https://maps.google.com/maps/contrib/113136854540036659795/photos\">babyGap</a>"], "height": 320}], "formatted_address": "14 Rue St Denis, 75001 Paris, France", "id": "25b827c0e14a83e5890ee6a07d68bfddae85fbc8", "types": ["clothing_store", "store", "point_of_interest", "establishment"], "icon": "https://maps.gstatic.com/mapfiles/place_api/icons/shopping-71.png"}, {"rating": 4.7, "name": "PUMA", "reference": "CmRRAAAAASf6CIQDe_RVaCRbL05QxOoZ72rM-LJ4_UuwFOtSxTmDwF0fz-VHGoyMKdH3DQ3gGOehONyszLci5IdRdZPCJFr0VoBSgwe5SwiNJmQ_zy81ralnjLfjJJ9jqlEnJXI-EhCpZMPxDaBXToq8tmAs_CyXGhRxHGxydpRhacB35jif1rgz_uqd6A", "geometry": {"location": {"lat": 48.87460249999999, "lng": 2.3290978}, "viewport": {"northeast": {"lat": 48.87595148029149, "lng": 2.330446780291502}, "southwest": {"lat": 48.87325351970849, "lng": 2.327748819708499}}}, "opening_hours": {"weekday_text": [], "open_now": true}, "place_id": "ChIJLU6DeDZu5kcREd5WmM1--ng", "formatted_address": "56 Rue de Caumartin, 75009 Paris, France", "id": "e1af73323f615732b25cefe252a3a6efcf198e24", "types": ["clothing_store", "store", "point_of_interest", "establishment"], "icon": "https://maps.gstatic.com/mapfiles/place_api/icons/shopping-71.png"}, {"rating": 4.4, "name": "Carrousel du Louvre", "reference": "CmRSAAAAcXcEzWjKhvojSKc8keMBFokQRjrvj_JwBLEv7PfvqPdyjToiCnDgrwN2542DA0-ioUMc-D4U7NIZap0BV1CUSx0Yjj68liWkvHwBkR-bNBN1rc8jXeK_AexZ5b3vPhoSEhAn6hdyd39pWj6dwwq8lvvzGhRKoktKOYOgj1FgcMrW0jgvdgVbbg", "geometry": {"location": {"lat": 48.86257800000001, "lng": 2.3349703}, "viewport": {"northeast": {"lat": 48.86401903029149, "lng": 2.336388230291502}, "southwest": {"lat": 48.8613210697085, "lng": 2.333690269708498}}}, "opening_hours": {"weekday_text": [], "open_now": true}, "place_id": "ChIJ6SJcCP5x5kcRJt8m9_lR7_Q", "photos": [{"photo_reference": "CmRaAAAAgcis7JgRd1qBRWMc7_JhSaPZ787ayArKx2XHsENAkcgFX_7gRFDJCsF4MycJr6dSWvG_z70ka86yXhK5E3HKUwBAmbDOfxqqm3JyDWB1bRMlqDWKueBP7uUXx1TYU4qQEhDNo12O2a5OhH6s71qvcYasGhRJz7fU1Debxpjl6laT8k2uAqL8Ow", "width": 2048, "html_attributions": ["<a href=\"https://maps.google.com/maps/contrib/103555611056117706567/photos\">M\u00e1rton Gyenes</a>"], "height": 1365}], "formatted_address": "99 Rue de Rivoli, 75001 Paris, France", "id": "90f4c5a33914a4f8c018a728ef6e1d95f9de13a6", "types": ["shopping_mall", "point_of_interest", "establishment"], "icon": "https://maps.gstatic.com/mapfiles/place_api/icons/shopping-71.png"}, {"rating": 4.3, "name": "Michael Kors", "reference": "CmRRAAAAQLYil5xFQralOkZSfi6W_a2U9HCiWc7RKRDwmg3UJuwvsdZgVruoa6WOQIIHZ8cqGhY8rnrhE-ULP80gosfdGahjz3Mnl1yweAWFauj_wUwhxFQtqBcwKIY6fERLnPrEEhB96THnTMoM6WTbELETm2waGhSm2vjCXrxBeKlJEzqrgU5_w_02Wg", "price_level": 3, "geometry": {"location": {"lat": 48.8579582, "lng": 2.3598826}, "viewport": {"northeast": {"lat": 48.8593520302915, "lng": 2.361281480291502}, "southwest": {"lat": 48.8566540697085, "lng": 2.358583519708498}}}, "opening_hours": {"weekday_text": [], "open_now": true}, "place_id": "ChIJ1VG3SAJu5kcRq8PhhsNtSGc", "photos": [{"photo_reference": "CmRaAAAA238v3FPPb_eUF7ZTFbUjm5BKx5gQWYlsd8ZYoeXZDGSNkFpCuKNdRUYHBrFpHxEKeaX1bpi2SMBb3PUa4hCFTOwkFUDbo0h2TkeUEESebuDTNPZT4-gB7-xLPSUxZUApEhCsCbaNnH1iNBi4EF36dBNbGhR7xAghjYRMjO43_PdmfnfUc3t-uw", "width": 2240, "html_attributions": ["<a href=\"https://maps.google.com/maps/contrib/113318984371050680077/photos\">Renaud B</a>"], "height": 4000}], "formatted_address": "41 Rue des Francs Bourgeois, 75004 Paris, France", "id": "7a696702613438764f76798673bb560ca8870969", "types": ["shoe_store", "jewelry_store", "clothing_store", "store", "point_of_interest", "establishment"], "icon": "https://maps.gstatic.com/mapfiles/place_api/icons/shopping-71.png"}, {"rating": 4.2, "name": "Intimissimi", "reference": "CmRRAAAAakjIlGFNO0efv0ft-SQ_WzaHa3YX3lEDleH7HkLueYRylPI3IQhiDqCZp_HefQayHV98aAGaoS4LDyJPI42hcNogCxOpYi0qE5cfA_BCgu16nLIUMfRNsXuZQ7c3QfkbEhATV8XsBzj7C05Qt9mX_JzcGhRoYidT_8LnQD19KjqxPWF6oquMjQ", "geometry": {"location": {"lat": 48.8449714, "lng": 2.3247358}, "viewport": {"northeast": {"lat": 48.8463203802915, "lng": 2.326084780291502}, "southwest": {"lat": 48.8436224197085, "lng": 2.323386819708499}}}, "opening_hours": {"weekday_text": [], "open_now": true}, "place_id": "ChIJAQCMvM1x5kcR3BltXvAUMjg", "photos": [{"photo_reference": "CmRaAAAApNdUVPUSsX2LN2u5vjYQiPzWFRI8yHR7ImJoDa1zISgvWG0zxKsw0C4PgIxvvtgR6OWVx6b81SpExgWKo7rVRjxMRDaxTcEXQQxM6VXJwYlm8ggkL09ucx1HMypmP6SVEhCez4RIYgvTnohwtOC3eUpSGhRwZ5DLztPsSaR4WF2Fa1Cm_WoFvw", "width": 5312, "html_attributions": ["<a href=\"https://maps.google.com/maps/contrib/100932843012820415477/photos\">Fr\u00e9d\u00e9gonde ABOUT</a>"], "height": 2988}], "formatted_address": "146 Rue de Rennes, 75006 Paris, France", "id": "5a5862f07c91f6f5b71b2169b00d98e04973d126", "types": ["clothing_store", "store", "point_of_interest", "establishment"], "icon": "https://maps.gstatic.com/mapfiles/place_api/icons/shopping-71.png"}, {"rating": 4.1, "name": "Abercrombie & Fitch", "reference": "CmRSAAAAbeYDK8W7MvLbrNmHIT5HukCHKoK4SLI4sTEZZFdx0DWP6vtxiOs9wFK6TDfXZPS6phCAexab_HKYpnjPb618FrtXaqbldu7kopn78x5BnQEKbec1Jthb1GG6uXKE7eFkEhDgjJygJ4_NjNU1yC_QctnJGhSr5aeI5TcsO43y0_ZQ4Q-CzGLRZw", "price_level": 3, "geometry": {"location": {"lat": 48.86924, "lng": 2.307876}, "viewport": {"northeast": {"lat": 48.87077843029149, "lng": 2.309367180291501}, "southwest": {"lat": 48.8680804697085, "lng": 2.306669219708498}}}, "opening_hours": {"weekday_text": [], "open_now": true}, "place_id": "ChIJR9f99cRv5kcRV-OUsl7ZatA", "photos": [{"photo_reference": "CmRaAAAARnbICe9-Bm2OGXc-JPguhANnYuuv-y6s9BM6w0usyQq4D5ClYOqgFE3_fTrA4Cb0pAfnKXBiCQuLcnZe1uh63lbZUuqcsJuS9FVV-ViALzaDPjBdWVVBP4EWZY8tUTk7EhBub1XufIeNdJ56ZumUIib7GhTJQEskxxd6pSGA_u2JmVVsquAq8w", "width": 6344, "html_attributions": ["<a href=\"https://maps.google.com/maps/contrib/105315407393829034135/photos\">Lionel Renimel</a>"], "height": 2522}], "formatted_address": "23 Av. des Champs-\u00c9lys\u00e9es, 75008 Paris, France", "id": "ce3a62af4deb6dc7264cb3e72072450e759d5a34", "types": ["clothing_store", "store", "point_of_interest", "establishment"], "icon": "https://maps.gstatic.com/mapfiles/place_api/icons/shopping-71.png"}, {"rating": 4, "name": "The North Face Store Paris Sebastopol", "reference": "CmRSAAAAxzcw-segsjXAdxpf36rV8I5MfzSJEwzRM3J7DHa5LZ5A5ojdCHFkuYeUkVrCKjhcS_pc-nnR9wl71-rC5Lavi3N8n2pFWJmNzW_cUGYGQY3VzQdSOBLc1TQ_cSkCbk-OEhAqi1n9RVWO-qokRCrMXHdjGhQ6dso4uPvxk7OzHlcVuA_f_2R4Rw", "geometry": {"location": {"lat": 48.86089649999999, "lng": 2.349865599999999}, "viewport": {"northeast": {"lat": 48.86227653029149, "lng": 2.351086380291501}, "southwest": {"lat": 48.85957856970849, "lng": 2.348388419708497}}}, "opening_hours": {"weekday_text": [], "open_now": true}, "place_id": "ChIJdRjPrR5u5kcResJx88zukc4", "formatted_address": "28 Boulevard de S\u00e9bastopol, 75004 Paris, France", "id": "0164e519af24e84f422a22ec48ab872d232456ab", "types": ["clothing_store", "store", "point_of_interest", "establishment"], "icon": "https://maps.gstatic.com/mapfiles/place_api/icons/shopping-71.png"}, {"rating": 4, "name": "H&M", "reference": "CmRSAAAArUpugQgwTvWvQdzbpDtrChgaTExLn5hZMaMPgDTPsmVuFM2-iAbxVXVdUSPMHOVy-_2Ck3a8q72PV_KrzfKfpReQMnJ9dKqj5AeQIpiuteqvBAzAKYmri2JZ7CipVlf5EhBhUrhpvInsEm9wH5MyemjWGhRCB9dXi2C2F-ZYn1YAT0JTXZYQ-Q", "geometry": {"location": {"lat": 48.851499, "lng": 2.342013}, "viewport": {"northeast": {"lat": 48.85293848029149, "lng": 2.343412030291502}, "southwest": {"lat": 48.8502405197085, "lng": 2.340714069708498}}}, "opening_hours": {"weekday_text": [], "open_now": true}, "place_id": "ChIJ_aZzC95x5kcRzSmBlW6zX44", "photos": [{"photo_reference": "CmRaAAAAAj0-D6Qga24CAz3TEIxjR340EnB7iXY5XYhB6vfN864RVx8P2hnAIdolZizuScDxu_pfg07C_UQBpCOi09cZ_rps_xmvDOuuSbzsrKmBKIstAzrMJnGC4yhJ79yT0YS5EhAF1G-TXw5WG8zXLBYNJEHSGhS4eyIpSazZeBW_9PD9mK5XzGvrog", "width": 4128, "html_attributions": ["<a href=\"https://maps.google.com/maps/contrib/101464145705820691088/photos\">Arnaud Corbier73</a>"], "height": 2322}], "formatted_address": "77 Boulevard Saint-Germain, 75005 Paris, France", "id": "70d3825960eb4e80464801e3432b032aa6e7070d", "types": ["clothing_store", "store", "point_of_interest", "establishment"], "icon": "https://maps.gstatic.com/mapfiles/place_api/icons/shopping-71.png"}, {"rating": 3.9, "name": "H&M", "reference": "CmRSAAAA32j0gU2ZJ0weD4uvRPw7TzX3fb7_QaCKbISNZjW_LWOq_JbEnB2pJDvk7R9aL_ZGIgLpMZoiuHIPfLVz4oEyhu_Cv2n5ku-hxdO9WS-MLfyLAQy92sgYCT1RFc6Z6yUDEhB_5-EhiwJNl6UJ_Z7nxT8bGhTzv2wJNU0Y_24mAM5EX2PlazUHdQ", "price_level": 1, "geometry": {"location": {"lat": 48.8583107, "lng": 2.3493416}, "viewport": {"northeast": {"lat": 48.8595975302915, "lng": 2.350642930291502}, "southwest": {"lat": 48.8568995697085, "lng": 2.347944969708498}}}, "opening_hours": {"weekday_text": [], "open_now": true}, "place_id": "ChIJwzYPZR5u5kcR3OTAuo7qCJU", "photos": [{"photo_reference": "CmRaAAAA2TyoCr9kbDYXBZDYhSVuEkeb9PlVKnLERZXzEcdToGzLokm-Lc85H_zo5FmK9QTKEsHIa66I7M2Jqs06W2SnS4J8uzOU_eIVgpRwxgAgGGOCC_qcXVBkGnIbToB3YoX1EhDP7JC24b5YTegVdDkQrpKLGhSwxsK_FrK2Y7NkB2baDM-jkqz3Ng", "width": 1536, "html_attributions": ["<a href=\"https://maps.google.com/maps/contrib/110852941887996048961/photos\">Nelly Say</a>"], "height": 2048}], "formatted_address": "88 Rue de Rivoli, 75004 Paris, France", "id": "e4c6374239ba6dc28dfd75507f719e9f66de92d8", "types": ["clothing_store", "store", "point_of_interest", "establishment"], "icon": "https://maps.gstatic.com/mapfiles/place_api/icons/shopping-71.png"}, {"rating": 3.8, "name": "Forever 21", "reference": "CmRSAAAAVi96KwnnURQaTerZxkGumpxm9ZirKnUwDVoMr29GUqKuLF0oSI72Ag54K3bI9IgBfyusSARKXW0X2KYhHx9hq_NiIk2s17zxRJnv6J6MlqMibLBpGA5fv7dwBm9lGXp1EhCgsNWQ5f65SXWeyrja2oaYGhS2MUqBLl_JOZvxZ6b9_4MCllEc-g", "price_level": 1, "geometry": {"location": {"lat": 48.8604618, "lng": 2.3426843}, "viewport": {"northeast": {"lat": 48.8617547302915, "lng": 2.343927480291502}, "southwest": {"lat": 48.8590567697085, "lng": 2.341229519708498}}}, "opening_hours": {"weekday_text": [], "open_now": true}, "place_id": "ChIJzSvpliFu5kcRgdUlYWTeIos", "photos": [{"photo_reference": "CmRaAAAAZysvhdao4WkyTxctCUDK9C1K4X-uAIvrcG1rXuTIO24DDfqyL2HJBKR8JkxA_QlmMz8FUaPNPqvx-9mDcEPjVH-ghhHqzw-lbJBU6dMY92UhfMkoFLKtGzwsTPWB4sTiEhAj4j12BKlId0E2OeLMut1uGhQb-G_dHRGQh7Yz9MeDQ2jlCjwl_w", "width": 3968, "html_attributions": ["<a href=\"https://maps.google.com/maps/contrib/104690041237536370227/photos\">alexis leducq</a>"], "height": 2976}], "formatted_address": "144 Rue de Rivoli, 75001 Paris, France", "id": "e7ee4d8e8ff8898b1f7b8d9ee24e403a0b73b98c", "types": ["clothing_store", "store", "point_of_interest", "establishment"], "icon": "https://maps.gstatic.com/mapfiles/place_api/icons/shopping-71.png"}, {"rating": 3.7, "name": "H&M", "reference": "CmRSAAAASQJecVK5o3Ks9MnUvBsN59xu3sQfO6dSOL_yRaS14u-LbPsLwPA9aozQMW3gL9Sd9eJZdTLNxUItD5xm1u17E6ON-13MKME_qvAUfqH5kUQGO5ZPv9XuDm4InWzWk1PQEhCr2kExFk7qMQpZHvbtyvXAGhTRBpSO_Vl6MY_J1BpVYfzuu5Zqpw", "price_level": 1, "geometry": {"location": {"lat": 48.85949799999999, "lng": 2.345905}, "viewport": {"northeast": {"lat": 48.86085548029151, "lng": 2.347235380291501}, "southwest": {"lat": 48.85815751970851, "lng": 2.344537419708498}}}, "opening_hours": {"weekday_text": [], "open_now": true}, "place_id": "ChIJHa_7cR9u5kcRXwbPx4ST2KY", "photos": [{"photo_reference": "CmRaAAAAu-0Nd6f-v9EbV7v0-XuJk16g96zIU9yR4lVEhOXwnDEK42qg1NmCwqOsVe-8pMi-z8otZCn73L2w5zXBnWb0rhRJACcy9onVxhc1VEUC1cL2CMHdLmBfYDUlPjLL64CkEhCDT8jKxv60GmzzAPi-z9sBGhR1oLIrYVXVBLlmBVFpySniPkaUZw", "width": 4160, "html_attributions": ["<a href=\"https://maps.google.com/maps/contrib/114505106068478012058/photos\">Sissoko Awa</a>"], "height": 2336}], "formatted_address": "120 Rue de Rivoli, 75001 Paris, France", "id": "0e6e61085b9459da75198e3a00b28825a1dd6b13", "types": ["clothing_store", "store", "point_of_interest", "establishment"], "icon": "https://maps.gstatic.com/mapfiles/place_api/icons/shopping-71.png"}, {"rating": 3.7, "name": "Desigual", "reference": "CmRSAAAAKjUCTekMj-dTcqjCu0XYvJ71xvF1vC_u0oPzOcWuHc_8G6nulpjsduoQLEhix3NvFJWrAJiWO9f28KSGYzI-ug8-ZYrtAhYwONUZpB7Ygfb-w7X6QzeDOirHr8ObhPEpEhAFdDOlFsPPNuBujpzMnXPnGhQHpugsw6r9DvdOmwKNLDYpQEYuRA", "geometry": {"location": {"lat": 48.86852280000001, "lng": 2.3334712}, "viewport": {"northeast": {"lat": 48.8698408302915, "lng": 2.334710930291502}, "southwest": {"lat": 48.8671428697085, "lng": 2.332012969708498}}}, "opening_hours": {"weekday_text": [], "open_now": true}, "place_id": "ChIJISyhZjBu5kcRr0j1_aWIf5g", "photos": [{"photo_reference": "CmRaAAAApV00RQv_kCFtXvr7HgEZLsvYUUKt5UjgCP9kA5BH7s2iYsQvSXWthon8tMnO5KLYUaZHjF3A503Jfz51AMIcCHAELBgts9J5fFXd_yn8lOyBz81ZPvZtKUXten5mW975EhBgb6_NxLqo3G5pgMCnN9uYGhQwy9BTg2YzeCfuKzabgCJzoUwLkg", "width": 3264, "html_attributions": ["<a href=\"https://maps.google.com/maps/contrib/115485704962362504046/photos\">Ofer Eliyahu</a>"], "height": 1836}], "formatted_address": "32 Avenue de l'Op\u00e9ra, 75002 Paris, France", "id": "8c6a5402d0e0ad93a9bdc6110ba3ffd1240c833a", "types": ["clothing_store", "store", "point_of_interest", "establishment"], "icon": "https://maps.gstatic.com/mapfiles/place_api/icons/shopping-71.png"}, {"rating": 3.6, "name": "Forever 21", "reference": "CmRRAAAAKypnsM6zzD6e-7wL18zfhtFH--ZDcrd1pIICg3qlbDVNvKa4uvQIAWUKWJF8CxaymAyjIEqczh5kfWKgT-axSOiw3gmP6nscQPAcUTDs-5Vye0OlWEnmFkr_4mbt2DA-EhCv4__aj86MLfe5_Xhz0NUFGhSEjpDc4cHXd0YV3LQu0Pp8L0A50w", "price_level": 1, "geometry": {"location": {"lat": 48.86238259999999, "lng": 2.3472027}, "viewport": {"northeast": {"lat": 48.86373158029149, "lng": 2.348551680291501}, "southwest": {"lat": 48.86103361970849, "lng": 2.345853719708498}}}, "opening_hours": {"weekday_text": [], "open_now": true}, "place_id": "ChIJZ7cS3Rhu5kcRXiXmIpivQEU", "photos": [{"photo_reference": "CmRZAAAA01-67vb9K1YePv6Vc2_ayv5OOXV2ZPvY9tglsqilLj6Y7n9wa6e5bPrlRtMSGKQ_ZqnkZGhX1iVBrRS2O8bvMh9ZV4640gml26l2QtHtnKljYIlk2L2fcnDOL8W104w9EhDHqx5re1jJDewLtJbmVB6sGhR5zLzLZB_zl4gV5RQ9OVSppae-pw", "width": 5312, "html_attributions": ["<a href=\"https://maps.google.com/maps/contrib/112784456377886246662/photos\">Naim Avraham</a>"], "height": 2988}], "formatted_address": "101 Rue Berger, 75045 Paris, France", "id": "9c26b4e7bb2c1fed7bb96600192970c21c8c9dc8", "types": ["clothing_store", "store", "point_of_interest", "establishment"], "icon": "https://maps.gstatic.com/mapfiles/place_api/icons/shopping-71.png"}, {"rating": 3.5, "name": "GUESS", "reference": "CmRSAAAAmFs7G1_WCvXyaIuttJGnV-m3z_xCU4GvWqS6omYEN76xyZtIGwdCLM7WDidlsV2b6fS_ecckrpQ43ltuVBiwygIZQdjcKVwnqHlf2xLPRAYE-uZpdcz4kOZ8wQlFw4fREhBe5ccQbyldlBAbw-MGXUK0GhT8KTMgM46B9LI9DwlaCHAKYqQpZw", "price_level": 3, "geometry": {"location": {"lat": 48.86463879999999, "lng": 2.3464545}, "viewport": {"northeast": {"lat": 48.8659188802915, "lng": 2.347763530291501}, "southwest": {"lat": 48.8632209197085, "lng": 2.345065569708498}}}, "place_id": "ChIJue5dQhhu5kcRKY_SmtdbDZo", "photos": [{"photo_reference": "CmRaAAAA49A0tDJssKgYTKjJ-eM7-hxP_yepFNJc-YlJfhmgY4kpMFq_lGKZlWvnUFhHYjLIWE1H3Vz_ROUo2mJRbw9F5kiTuEC_TH7-73zzSWlXWpNgrW9NWsw5GPDYG2bOg2pFEhDS6OU_lDw623XRSUzxFotRGhQ4olsxZ0IZ6g5QzcbRhFKsuyTu7g", "width": 5344, "html_attributions": ["<a href=\"https://maps.google.com/maps/contrib/116201081132870145377/photos\">Brieuc Bodart</a>"], "height": 3006}], "formatted_address": "32 Rue \u00c9tienne Marcel, 75001 Paris, France", "id": "9ffff70b575ea8807175ee6ef7a22fe648b8b50a", "types": ["clothing_store", "store", "point_of_interest", "establishment"], "icon": "https://maps.gstatic.com/mapfiles/place_api/icons/shopping-71.png"}, {"rating": 3, "name": "Dolce&Gabbana", "reference": "CmRRAAAA0UXUrwbWIMZnikqmnXiiSGBVJ4cbY-I3uFgRRTUk0BFaIg4gf5v-6YQi5kXSvQgQ6uqipfI4LE-3xEeAV1uW82CMlJG3ibxEuOLLlvjgnAKFvgoyYnBnsB42qySeTCvMEhDiFO89NQNTG7bi0nu2IUWDGhRVKrlzpz0eZX1HDJMRUI5y7C229g", "geometry": {"location": {"lat": 48.8711576, "lng": 2.3062205}, "viewport": {"northeast": {"lat": 48.8724396302915, "lng": 2.307647430291502}, "southwest": {"lat": 48.8697416697085, "lng": 2.304949469708498}}}, "place_id": "ChIJC9539sNv5kcRvsd3zMJhlB0", "formatted_address": "124 Rue La Bo\u00e9tie, 75008 Paris, France", "id": "ab17aae60b0dcaf104972314c106c9c32b37e181", "types": ["clothing_store", "store", "point_of_interest", "establishment"], "icon": "https://maps.gstatic.com/mapfiles/place_api/icons/shopping-71.png"}, {"name": "H&M", "reference": "CmRRAAAAqCsIJzV-PmpV7cLC0L32xRCS8rM6hLijmHE25fW8bREQKU6mOEPjlRpuiGk3huMfi9o0Aj-22AaHOn-3g25yS0DeE9y0gPHwfbC4dlZLDanOJfyPdIGTG1Khgs23or9ZEhBpELCuFtMJLjFwKGG4xgRAGhT4wTamhouUx1oXciYPDrEqb-H3iA", "price_level": 1, "geometry": {"location": {"lat": 48.8462173, "lng": 2.3264572}, "viewport": {"northeast": {"lat": 48.8476121302915, "lng": 2.327697780291502}, "southwest": {"lat": 48.8449141697085, "lng": 2.324999819708498}}}, "place_id": "ChIJRwqp_s1x5kcRDVUIG8y7K1g", "formatted_address": "135 Rue de Rennes, 75006 Paris, France", "id": "68c686430f44935da688f78dc0421a45d62d7263", "types": ["clothing_store", "store", "point_of_interest", "establishment"], "icon": "https://maps.gstatic.com/mapfiles/place_api/icons/shopping-71.png"}, {"name": "Intimissimi", "reference": "CmRSAAAAVPYC1hzUMVs5izAxUSK7yGm-S-riGWCPDbBtdnVLiLBub5IAEZ6dbaEwO1CZmfZd7HaBFLfzBsVSC8siGpSddaarFImtU3uN89qqaZgvs_jwr9t3DcclER3Brzk9UbpFEhDuhAr8eEMOZeWBFsT7XUSlGhRqDeCfmuecCWzCGpW4UWAn1_RJ-w", "geometry": {"location": {"lat": 48.8525518, "lng": 2.3335911}, "viewport": {"northeast": {"lat": 48.8539007802915, "lng": 2.334940080291502}, "southwest": {"lat": 48.8512028197085, "lng": 2.332242119708498}}}, "opening_hours": {"weekday_text": [], "open_now": true}, "place_id": "ChIJw2L859lx5kcRbUdYvQ4IsNg", "photos": [{"photo_reference": "CmRaAAAA4btiZlaWyZR3VnLlrI88kRWfyV7qJWZdb-Ca6A2kbKJ2wPsH0s6jr_Ty9ZUmmhylPOl-us1tgewCrisSTpv81jwNvFwMk3-RGJyx1HxjCLUMIkr5EZ3PttA-vSjzE7MoEhCWLXM_HhRaS7adbNtu6SiXGhQE0bytQG5S6f8jXH7w17qdkz5z0g", "width": 2963, "html_attributions": ["<a href=\"https://maps.google.com/maps/contrib/116895123746960758519/photos\">Riad H.</a>"], "height": 1809}], "formatted_address": "29 Rue du Four, 75006 Paris, France", "id": "6b9d1977376f44f19335b55f8a8b4906e765455f", "types": ["clothing_store", "store", "point_of_interest", "establishment"], "icon": "https://maps.gstatic.com/mapfiles/place_api/icons/shopping-71.png"}]