[{"rating": 4.7, "name": "Louvre Museum", "reference": "CmRSAAAA3yYyj472TpPng8RQYdQ-Ba_ySZEW9-dD1PZWUyDLY5jW6NZVvtJrlR_PcqkkYIdW6geSMagNnk0vpZnbLUrTP6Bx0m91_sBC5Vc8H0hRcVMLFO1bMJI4QmUL0VWf70I0EhAeO8nrcKWdaGdxq5rdAy4_GhRnfQduIBIL0Spvc14WtKRkHv9uIw", "price_level": 2, "geometry": {"location": {"lat": 48.8606111, "lng": 2.337644}, "viewport": {"northeast": {"lat": 48.86313575, "lng": 2.3391953}, "southwest": {"lat": 48.85976955, "lng": 2.3329901}}}, "opening_hours": {"weekday_text": [], "open_now": false}, "place_id": "ChIJD3uTd9hx5kcR1IQvGfr8dbk", "photos": [{"photo_reference": "CmRaAAAAVDzikNpQ3grWqWl_aFtJff0Iwl0DXKpkSzqvf0zZPKVCZTlZpT4tKl5gAwm5uYL7Ed_M_LvBQIPrihK7NpnbI1F6w_B62gKXSsbNA5lkHkhu5OYQHD3ib61BXgOo4DXIEhDn-TZgtwJ_DNvMtzaEhOsjGhQeQ6OihVFAJGsWSkXaJFNBX67YKw", "width": 4288, "html_attributions": ["<a href=\"https://maps.google.com/maps/contrib/109983477559905217030/photos\">Christophe Jacquet</a>"], "height": 2848}], "formatted_address": "Rue de Rivoli, 75001 Paris, France", "id": "9a007d81ca8f47ed30ddaf39c4174ef773b351e0", "types": ["museum", "point_of_interest", "establishment"], "icon": "https://maps.gstatic.com/mapfiles/place_api/icons/museum-71.png"}, {"rating": 4.7, "name": "Mus\u00e9e d'Orsay", "reference": "CmRSAAAAhkiUyOgpj3ywJYUCBbkStHzgIbW9vhTfzJ4uLCKPpzqmHPRr6K6kvH8dDS325Tr0PGwk-FX2WJ07wn7grx7D5AmOOdcyTypII0QzvbuPQuXtxzoOU6MeHKmD8beg8e6sEhCOGT6egvmQHGHAFPr1zHwWGhTQ8--dDKGTqhMOsYYPfi79O0SUwQ", "geometry": {"location": {"lat": 48.8599614, "lng": 2.3265614}, "viewport": {"northeast": {"lat": 48.8615291302915, "lng": 2.3275171}, "southwest": {"lat": 48.8588311697085, "lng": 2.3236943}}}, "opening_hours": {"weekday_text": [], "open_now": true}, "place_id": "ChIJG5Qwtitu5kcR2CNEsYy9cdA", "photos": [{"photo_reference": "CmRaAAAAUuv_7sDplEash5gFeGguXqD9YBO5HN9KpD1oLRslN4IVShjwOaemFgt0Z4AmDFrMbgSjGBriGgsT8Q108m_sDtBEFmbgvLQ1yqaFcLlH6pp1q09PClybyAEn59fflSY0EhCGO-NGWPord21afezIKMtzGhTNFGIeNuDEz36qStWcX6L8R5fWSQ", "width": 2848, "html_attributions": ["<a href=\"https://maps.google.com/maps/contrib/104198155525513925723/photos\">Endre Horv\u00e1th</a>"], "height": 2136}], "formatted_address": "1 Rue de la L\u00e9gion d'Honneur, 75007 Paris, France", "id": "324ebea255dabc1cb3a5ca92839d3949530e05e3", "types": ["museum", "point_of_interest", "establishment"], "icon": "https://maps.gstatic.com/mapfiles/place_api/icons/museum-71.png"}, {"rating": 4.5, "name": "National Museum of Natural History", "reference": "CmRRAAAAlNnslEpPcXYur7zwhRTtB258KAPs8SFmrmjkrX-Y2Pe3r1VQkX4ZZpH5elIcHfSGFUSgRjyYueyAX3bczjZW_ZBhnuhbRukhIYagq8fpI5OlIqU72d2hPF5YUaxVjBRYEhDLYDIsJLdda0NwLglw4rpQGhSVKg4-j5_znLIZJva_becdcQzMoA", "geometry": {"location": {"lat": 48.8443425, "lng": 2.3562101}, "viewport": {"northeast": {"lat": 48.8456914802915, "lng": 2.357559080291502}, "southwest": {"lat": 48.8429935197085, "lng": 2.354861119708498}}}, "opening_hours": {"weekday_text": [], "open_now": false}, "place_id": "ChIJEURALfFx5kcR4cbxSSHWQ0c", "photos": [{"photo_reference": "CmRaAAAADMQZYiQwQmhE4GOmJHpJNP_sdTaxImx6Ci9FbiMnr_62v3BcEW_NQcN55vsepILXUuJH2PuT4tqQHtEM_1JKPXX-5PIaMP0NrzsgcuhJkPkyWRg6c3U6HTbzdOYzpaNCEhDm3EyHrqhpRdCzLXxEjTAqGhTy0zVsdoySNPUqbnSQT5rDD4y9Mw", "width": 4128, "html_attributions": ["<a href=\"https://maps.google.com/maps/contrib/116329647050068364523/photos\">Val\u00e9rie Payen10</a>"], "height": 2322}], "formatted_address": "57 Rue Cuvier, 75005 Paris, France", "id": "c9b20c83264c29f12d01829dad7b5117af7ecf3d", "types": ["museum", "point_of_interest", "establishment"], "icon": "https://maps.gstatic.com/mapfiles/place_api/icons/museum-71.png"}, {"rating": 4.5, "name": "Metiers Art Museum", "reference": "CmRRAAAA9kt5PzTUJgmPZhJS3QmJVTWe6m7rBzN2GNzk7uKmFxr2pdCPFfBSe7lIz1bj6ZMt6_7hIC9PrJxlGKvn7g4XqZGftKMhDFo6vdq8Cxz7i6CiA0nuDCAc_ZR9mYOee-2GEhDyzcyN5LivCWKX0n8deumwGhT6AjFfIY6YVTupyZNYxVlBoKubWA", "geometry": {"location": {"lat": 48.86663919999999, "lng": 2.3554383}, "viewport": {"northeast": {"lat": 48.86814788029149, "lng": 2.356274980291501}, "southwest": {"lat": 48.8654499197085, "lng": 2.353577019708498}}}, "opening_hours": {"weekday_text": [], "open_now": true}, "place_id": "ChIJNUTIphpu5kcR4h07VuxFIHc", "photos": [{"photo_reference": "CmRaAAAASZs2llkSCL8I1-IWgROe-L4qfthZl3-skIvBVkLbxsMX7WjoF8ZciaWNVhdPrp2Cd3CIbGfiCYq5hYbhrTg5s1rDrj1SYv26T_xtUTXyekgbBvmlRDQmsDwNjAi3kH_lEhBUzW0CpwmsInzCvb3FDAojGhRPO6AaNeemadoG4A7U2etjHkOLoA", "width": 378, "html_attributions": ["<a href=\"https://maps.google.com/maps/contrib/100087783093988552392/photos\">Mus\u00e9e des Arts et M\u00e9tiers</a>"], "height": 378}], "formatted_address": "60 Rue R\u00e9aumur, 75003 Paris, France", "id": "8361ea0e7cef57e52503ed18c71a9c3860a6fd5f", "types": ["museum", "point_of_interest", "establishment"], "icon": "https://maps.gstatic.com/mapfiles/place_api/icons/museum-71.png"}, {"rating": 4.5, "name": "Mus\u00e9e Curie - Institut Curie", "reference": "CmRRAAAAMoWPCyKtGq4cv4kmBokMB3OGSTxe_6IGdcRjamg3-3nYwnxXxAp-GH3Ke7cyU986w7jLBaq7wlZ2-iOJ3FFTFG2AFGsEqVxqC2xz8b7zaX0htJOVTTl_wlHiNUssuP9CEhCXs5u1bJE19YXf1y4V70zkGhRGMTs-obcJT55cV9RkgV04L25LEg", "geometry": {"location": {"lat": 48.84422350000001, "lng": 2.3448276}, "viewport": {"northeast": {"lat": 48.8456133802915, "lng": 2.346030680291502}, "southwest": {"lat": 48.8429154197085, "lng": 2.343332719708498}}}, "opening_hours": {"weekday_text": [], "open_now": false}, "place_id": "ChIJjU2KN-hx5kcR3wlTp_OOrXA", "photos": [{"photo_reference": "CmRaAAAACTYNAGp4xrhMrh4LNpT3FYd8ZTkZ2chmMUw7kCcpHIs40hkgtvITWK8HUUWlu_3AaAYv1NW3ouH6aLySDhFfEn1Ov_iASfn3j2j0LEwrCOhTSUI3sSrUlqtckOJAR66kEhCGNwl7L3fYFOOIoO5gTofoGhT1GfEr9oMDxqSDYMAnJK_6NGrzDQ", "width": 4640, "html_attributions": ["<a href=\"https://maps.google.com/maps/contrib/114582577591249035011/photos\">Meraj Khan</a>"], "height": 3480}], "formatted_address": "1 Rue Pierre et Marie Curie, 75005 Paris, France", "id": "b2f8dd7eb6dc8e4ba61da47a0b57faf5b887570a", "types": ["museum", "point_of_interest", "establishment"], "icon": "https://maps.gstatic.com/mapfiles/place_api/icons/museum-71.png"}, {"rating": 4.4, "name": "Museum of Decorative Arts", "reference": "CmRSAAAAMM7ws8FiEkNjYuxoRhEi6OkKZ1OBCUC_X0dEMMZq6gXbJWrQicCyYNiW9CCDqcT671Z4BBE1TftudlkBpASHUhF6LzMZlOlawGAx21yStKa5g2V4PnA6VkHjlmbw7WK9EhCl4Oh7WEEbnY_5OHGErOETGhQWAaLGiDCSNlLas_KhA4K_EqP6RA", "geometry": {"location": {"lat": 48.863063, "lng": 2.3333951}, "viewport": {"northeast": {"lat": 48.86452403029151, "lng": 2.334805930291501}, "southwest": {"lat": 48.86182606970851, "lng": 2.332107969708498}}}, "opening_hours": {"weekday_text": [], "open_now": true}, "place_id": "ChIJ_QwlZC9u5kcRi6OALXVubvc", "photos": [{"photo_reference": "CmRaAAAATOuJ9y5c8LUkGhMPHLmxbby5FSKGP-RKupPXGH9ukyoAtRiZg3iFBE392LkOIQ2ASFXrOR5xfalWMYm42iQLWTv9-d3vwQ9T86hc26MSCmMnnBGqyuF-bBMkP4QFPci8EhDKIc83WakXcaoy-xQ22pkTGhTBIwioxsMLTJ2QSVAHUVn5fO__7A", "width": 4160, "html_attributions": ["<a href=\"https://maps.google.com/maps/contrib/101898502475390465407/photos\">Coco Izzy</a>"], "height": 2340}], "formatted_address": "107 Rue de Rivoli, 75001 Paris, France", "id": "169658dccbc306c41bcd48121afd255e3be81510", "types": ["museum", "point_of_interest", "establishment"], "icon": "https://maps.gstatic.com/mapfiles/place_api/icons/museum-71.png"}, {"rating": 4.4, "name": "Cluny Museum - National Museum of Medieval Art", "reference": "CmRRAAAABYdpddiKd6kuGZhu3ilN5i0cI08zm81OODWC9cO18ifynd107oosh7ISrDDYTi27wo8TQIqU7wz8ZerI-i9caAiQxNVdhsbb9X6qdkDqIjHlOi78FIyxzrGGoXznoq3YEhB5LYDt3OPmMcWOX2cSfVmTGhRp4mpW0MDrsYzhbvq1XFJwdpU6Vw", "geometry": {"location": {"lat": 48.8504833, "lng": 2.3440808}, "viewport": {"northeast": {"lat": 48.8517204802915, "lng": 2.345387780291502}, "southwest": {"lat": 48.84902251970851, "lng": 2.342689819708498}}}, "opening_hours": {"weekday_text": [], "open_now": false}, "place_id": "ChIJLxPh9d1x5kcRf7M1U0pu1gU", "photos": [{"photo_reference": "CmRaAAAAkmTexSXHGeXxPdmv-Nb1iGZALieASNOJ_jyqjJiBYkr1VducmbWMXkSUoqpJ5emGOQjw_e9nLwItj4ROnsywOqyRuZSn4w4rGbhmPxB9kNPAiHslKCn27ZEVR7zd3_1wEhCvVPcOB2q87MpnY9gPK03nGhTLUqIZX0KQi08PQPfP0-eAV7Ilig", "width": 4320, "html_attributions": ["<a href=\"https://maps.google.com/maps/contrib/105787647052433885325/photos\">Jonathan Letzter</a>"], "height": 3240}], "formatted_address": "6 Place Paul Painlev\u00e9, 75005 Paris, France", "id": "ddc83c8b7be273cc7384a91c31dc4e375967aa44", "types": ["museum", "point_of_interest", "establishment"], "icon": "https://maps.gstatic.com/mapfiles/place_api/icons/museum-71.png"}, {"rating": 4.4, "name": "The Centre Pompidou", "reference": "CmRSAAAAzDAaRIJnoTpji6QtXpOr6zpNaChoPO_hmxkbQgCoBpDJ_NgFMEJ3f8_gOrH3dxiZkltuCCDc-J7w_tTg5VxRfMt9sn2HMFbp1N4s990DBhP3uwrsYnxwW0sIu2qKR9k8EhDUTidZDr2aqdcqMRdR3AEmGhSvpHCizZ3ls8ku3ImUhlVsSAq6Nw", "geometry": {"location": {"lat": 48.86064200000001, "lng": 2.352245}, "viewport": {"northeast": {"lat": 48.86193895000001, "lng": 2.3541162}, "southwest": {"lat": 48.85891794999998, "lng": 2.3513682}}}, "opening_hours": {"weekday_text": [], "open_now": false}, "place_id": "ChIJoyC4CRxu5kcRRTPcWX5srLc", "photos": [{"photo_reference": "CmRaAAAArtMvmXpW1VkYEhUHhKy5qOXkW9OA2cs-bSJqOFBEd-_V4HTkdE98T_D_Ud8D1y9z3L7p_WArqCzz7yHkM2vSFTLiPl8dFQqDm4irKZtAbDs9JwyHZOY4IlJeTLeIY26cEhCS-b8V7M6hkuPl9JTzTmX9GhTFaDq5PB7H3lLmF9aGarBTMVC2TA", "width": 2028, "html_attributions": ["<a href=\"https://maps.google.com/maps/contrib/106029497379210586274/photos\">Egil Johannessen</a>"], "height": 1350}], "formatted_address": "Place Georges-Pompidou, 75004 Paris, France", "id": "8546df4461a8d783d8452ed7272edbee05a591b0", "types": ["museum", "point_of_interest", "establishment"], "icon": "https://maps.gstatic.com/mapfiles/place_api/icons/museum-71.png"}, {"rating": 4.4, "name": "Biblioth\u00e8que-mus\u00e9e de l'Op\u00e9ra", "reference": "CmRRAAAA9nscQcHCgsSCzftGPi_JrafJMRpx7Y5tGxV7aHGlChyghToSSr0MY0eJTimQfa7HUslsdulwlvx0yG4qohDxSQypN7oQe6-UxO4bQ8zuUeZd7CfKhgDX3d4Op6Fv5qP6EhCXJEN1ipN0dDgSMK6Yln28GhQRdyCrCINLXUQvHbqQN0rNeThaDg", "geometry": {"location": {"lat": 48.8720052, "lng": 2.331714099999999}, "viewport": {"northeast": {"lat": 48.8734470302915, "lng": 2.332601830291502}, "southwest": {"lat": 48.8707490697085, "lng": 2.329903869708498}}}, "opening_hours": {"weekday_text": [], "open_now": true}, "place_id": "ChIJ5S5QKjFu5kcRx5gcUAcDn34", "photos": [{"photo_reference": "CmRaAAAAO5udEm9w1Xbjr5xZRMLKtiQiD_j-2sZKiNnS6hdYYPL9nswt_DaZocYaaE8b31XCuFatLmpyHfr_CuOFzEdwU0tq9hcTxgYtREWh0YVEMFrFTp6JSpOzRQjdgcaLA5klEhAwvFk1swFaNMUgnwy8_dovGhSHVIFVu_9qtW8rEimJTZvGeV2DMQ", "width": 2048, "html_attributions": ["<a href=\"https://maps.google.com/maps/contrib/109104673503451209616/photos\">Vladas Portapas</a>"], "height": 1366}], "formatted_address": "Palais Garnier, 8 Rue Scribe, 75009 Paris, France", "id": "eb5cb03aa6024c679ced7bfe01076c99d6dcebdf", "types": ["museum", "point_of_interest", "establishment"], "icon": "https://maps.gstatic.com/mapfiles/place_api/icons/museum-71.png"}, {"rating": 4.3, "name": "Museum of Minerals MINES ParisTech", "reference": "CmRSAAAAlT9Xwzmzf3Ll4c9zCHi1qewlWKSCteFnzrcckTEvQhqfUBY6qJ449NX81nxi-yR7dx7RYNMl6WM_AOSZf-uYSJOTGX3Gzb6EhlVPCKy6RDxIVptQELhfxIgQrr9RRIMIEhBWARQXkUQzW96bs13wi_mZGhRgYEXsTFllTHoh933H0b1fJs34BQ", "geometry": {"location": {"lat": 48.8451192, "lng": 2.3394016}, "viewport": {"northeast": {"lat": 48.8466545302915, "lng": 2.340997680291502}, "southwest": {"lat": 48.8439565697085, "lng": 2.338299719708498}}}, "opening_hours": {"weekday_text": [], "open_now": true}, "place_id": "ChIJd104OsNx5kcRqW8-Crk_dKk", "photos": [{"photo_reference": "CmRaAAAAeb-WCcY_FajNijXD5Xut3v2gOR996OvmTts376K3g7KT847hn5BLCqqBm4aPYi0yA0ZtSxlareyhmQP93RCHs4M8qbbpY8Y2Npzpj9Dt0T7tN833ONEfMOZKMnugjvELEhB33aEqPSFnXiw7AUZkW2CZGhSumSbDDKZMZP7w7Bvpnl9dzyTtSg", "width": 4752, "html_attributions": ["<a href=\"https://maps.google.com/maps/contrib/111187841734342765161/photos\">Enrique L\u00f3pez Ruiz</a>"], "height": 3168}], "formatted_address": "60 Boulevard Saint-Michel, 75006 Paris, France", "id": "2baae64c3b0d4cc01ff4c51b08c1901a0f7350a2", "types": ["museum", "point_of_interest", "establishment"], "icon": "https://maps.gstatic.com/mapfiles/place_api/icons/museum-71.png"}, {"rating": 4.3, "name": "Museum of Art and History of Judaism", "reference": "CmRSAAAAttceRK8e5UgIPQ_MeKRNt18ed_hoabXRF3gDM0Bhz30Bop8y6OitmFyzgeYcGFcXTKtpPR24vhOodNdUtxSt_y8VmQDVdFwx-cEOkhp0xrYHzB6xB3qA3OC3-jAfnsh_EhCA0tHx3hfgJ47Ae0tV0eOOGhStOrYWrv0iSnOmtZz49xg2J7Lx9A", "geometry": {"location": {"lat": 48.86101019999999, "lng": 2.3556112}, "viewport": {"northeast": {"lat": 48.86233053029149, "lng": 2.357001580291502}, "southwest": {"lat": 48.85963256970849, "lng": 2.354303619708498}}}, "opening_hours": {"weekday_text": [], "open_now": true}, "place_id": "ChIJydDIqRxu5kcRqB6W-MQwcYU", "photos": [{"photo_reference": "CmRaAAAAAklGVnkX4c7OQBZ8_Il6eUaoEeqxfPmNC3YF_RZFpjmd-CgAV69k_BUy-z2Dmb0xk2h6co8h2gPRw-QCBdnpgfQci7K26pPKaK03f0F_0nf7_NAX2s7dbQmlEJPpUmnYEhCFFCXipyAOqa2EiCJVIPRNGhSi7RdAk_uDdpfMenuHL2nn7GTuzw", "width": 5472, "html_attributions": ["<a href=\"https://maps.google.com/maps/contrib/111439998339572420275/photos\">Sebastian Stein</a>"], "height": 3648}], "formatted_address": "H\u00f4tel de Saint-Aignan, 71 Rue du Temple, 75003 Paris, France", "id": "d792857c93b46cdbf84a4471d25360372a219069", "types": ["museum", "point_of_interest", "establishment"], "icon": "https://maps.gstatic.com/mapfiles/place_api/icons/museum-71.png"}, {"rating": 4.2, "name": "Museum of Freemasonry", "reference": "CmRSAAAAUXw7KNqq4JGs0IIvdrrBVNx0iMJS9C1PwBabQ0VSV96jh9dTjwyOyupHGsLIBsaOxR5vyEMKkJ7pSp21VppdH0kxwVbYDZNxrIIjTAOCgQ93TEWisiOpoVGposQLKszMEhCsSyR1shff7X9txqBmpSsGGhTeNS3sO4luNR3l60JMgEYu6drv_Q", "geometry": {"location": {"lat": 48.87488399999999, "lng": 2.34315}, "viewport": {"northeast": {"lat": 48.87625793029149, "lng": 2.344425030291502}, "southwest": {"lat": 48.8735599697085, "lng": 2.341727069708498}}}, "opening_hours": {"weekday_text": [], "open_now": true}, "place_id": "ChIJ5WeFCj9u5kcR7-yd40IpLKY", "photos": [{"photo_reference": "CmRaAAAAKaPebsAlv_tTrRl5yIwMKkeHUUpkCPPrV6rEJq6RQv-s01egHT6QUHQpXsnXc91Wcu3a1OC809RosgVLS7R0DzcOOF1_rvpXTRW38bf-uA_tEfu8YPJHE1yrvZgXgfdWEhAN1bHR61E4_Zq-6LClquFPGhSj4u8PiEi_qG1jtQAWWkva7HD4uA", "width": 1000, "html_attributions": ["<a href=\"https://maps.google.com/maps/contrib/101367942260771836396/photos\">Mus\u00e9e de la franc-ma\u00e7onnerie</a>"], "height": 667}], "formatted_address": "16 Rue Cadet, 75009 Paris, France", "id": "589b462bda8717e4bd4d351aff3be8b4d72fbf0f", "types": ["museum", "point_of_interest", "establishment"], "icon": "https://maps.gstatic.com/mapfiles/place_api/icons/museum-71.png"}, {"rating": 4.2, "name": "Arab World Institute", "reference": "CmRSAAAAH27xMirXheRByhE7XYkdZTxFP-ymXUmDb3ovuQ9z61lannv9ZG8tNCqbNuIysTD0Y6sdELsYHhcYmu3KFXErDmXHhdVQZM1plRPsZDidTvrK7AC_Vy2M5NwmRwdgaG9eEhA6TvEPdBrHob0iLg-i_eB-GhT3_KSdG4w8M78Z7wWAZAzFa6eK7w", "geometry": {"location": {"lat": 48.8489257, "lng": 2.3572313}, "viewport": {"northeast": {"lat": 48.8504774302915, "lng": 2.357968730291502}, "southwest": {"lat": 48.8477794697085, "lng": 2.355270769708498}}}, "opening_hours": {"weekday_text": [], "open_now": true}, "place_id": "ChIJK-03I_tx5kcRdA4Cj8VV1b4", "photos": [{"photo_reference": "CmRaAAAAt0OVf0Ee1rIyMBymxFX5KYYUs-56Q6wLlC8KC98-ZRdhd3aAUesjeIbzwg_DYbdm2ht23QhKj0QDH-T9T_vFSyAPv7SE_kjRQguSfle1JPc7F-LK4aVw-97U2mvFF2d9EhBmgU0QcL7A7eVPzOcc_beoGhSxGbbW151QCgxyKu6HFHquGGpvGA", "width": 7360, "html_attributions": ["<a href=\"https://maps.google.com/maps/contrib/107248789359318537950/photos\">Shalam Philip</a>"], "height": 4912}], "formatted_address": "1 Rue des Foss\u00e9s Saint-Bernard, 75005 Paris, France", "id": "a7777d0cf2d54e760b4dc330dc8be9e11aac147c", "types": ["library", "museum", "point_of_interest", "establishment"], "icon": "https://maps.gstatic.com/mapfiles/place_api/icons/generic_business-71.png"}, {"rating": 4.2, "name": "Mus\u00e9e du Luxembourg", "reference": "CmRRAAAAPgcqN0FpXFtyede3iDiLeMTlf59kSITjqpUbHEJ--2RUL0fR9mCqZ7eEJ5yS4xGwSVVbvd6l3pcojR3bwumHK42Vs4YOenz5GwfpRsbyZ2PTLLIBYf6gDGkf96sov1T6EhBTyLvC7vtkYCpfry_e8_DZGhQ-DIn3NnKpfemkUxBsaXGq0iQMvw", "geometry": {"location": {"lat": 48.8484382, "lng": 2.334057}, "viewport": {"northeast": {"lat": 48.8500518802915, "lng": 2.335244630291502}, "southwest": {"lat": 48.8473539197085, "lng": 2.332546669708498}}}, "opening_hours": {"weekday_text": [], "open_now": true}, "place_id": "ChIJLxJL9dpx5kcR927ocHiDVgI", "photos": [{"photo_reference": "CmRaAAAAFiNma9gmXbcGJs5rgDH1u95CNAx78VWsyTsf5s-n3DIQMYcpiPx-BnUOUOrNmPdS_XaXtcuauzMIPzz35k_UDPAovPq_H94t3Dglbd7vevm_tqEfwS3FIOsGBmRkKUO4EhCUM2OsQRstIDQacEH0Efu4GhS5fgfAjCsQsvNS4OJ2uHoxgxt8Sg", "width": 3264, "html_attributions": ["<a href=\"https://maps.google.com/maps/contrib/105834880555089718048/photos\">Robert SOUBRE</a>"], "height": 2448}], "formatted_address": "19 Rue de Vaugirard, 75006 Paris, France", "id": "a29daacb537d5b6ba9f07748e0b0fa1ac31573f3", "types": ["museum", "point_of_interest", "establishment"], "icon": "https://maps.gstatic.com/mapfiles/place_api/icons/museum-71.png"}, {"rating": 4.1, "name": "Picasso National Museum", "reference": "CmRSAAAA_UyXAV1dM-4uxXt3MWJ5REt1qRlivwaCA7ik1QNGtT3H4VfluTLbYReO74nA0O7W4TqeL-CLBSZiSrkLLsxkqXVy5WoU4amOYBM3KtYoQJaNtT_olrciJ7onLXYXRR7gEhDsv_7uzHby6wTCrmJNVrfdGhSEIcReRFQ-5ovdq02_ol90jrIurw", "geometry": {"location": {"lat": 48.8598775, "lng": 2.362285}, "viewport": {"northeast": {"lat": 48.8611387802915, "lng": 2.363736030291502}, "southwest": {"lat": 48.85844081970851, "lng": 2.361038069708498}}}, "opening_hours": {"weekday_text": [], "open_now": true}, "place_id": "ChIJS2t0QgFu5kcR92388prakcE", "photos": [{"photo_reference": "CmRaAAAAh73IPdrvBterEHEK2MULPDpYKSG7o3-Im7-2wdlp6YG6pPE_tFvZXSm0JtGElD_4SWsHAWReJT489dM2qBSNpK_iaKv_oB3ergkyNRgNf2Sb9pr97W7BTIDcTe-86NNtEhANG7VmRTd9QXGUZMA-kA8sGhRebPQ_w-RW4gbeKVr1nv573kOoKw", "width": 2688, "html_attributions": ["<a href=\"https://maps.google.com/maps/contrib/109220809679236070402/photos\">Cristina \u0218tefania</a>"], "height": 1520}], "formatted_address": "5 Rue de Thorigny, 75003 Paris, France", "id": "437d1813371792fb053268dfe95e2d30ed9c95d6", "types": ["museum", "point_of_interest", "establishment"], "icon": "https://maps.gstatic.com/mapfiles/place_api/icons/museum-71.png"}, {"rating": 4.1, "name": "Mus\u00e9e Gr\u00e9vin", "reference": "CmRRAAAAoFHccyns66o2jRVT9HzQtWxlCh_ecUeqHgp8q9wH4uazpBd42n2skloQHuws_svTCa2Ygk-R18pjx1rzBhavnOaNIo_aOYbQrhM7UCrINI2Y7oqC9VtsddiCgwYNus13EhAM0tyQ8HL34q23J-3NRsHrGhQEGxppGKl2NLpcVriAhqVK2hIg_w", "geometry": {"location": {"lat": 48.87183779999999, "lng": 2.3422204}, "viewport": {"northeast": {"lat": 48.8730949802915, "lng": 2.343531730291502}, "southwest": {"lat": 48.87039701970851, "lng": 2.340833769708498}}}, "place_id": "ChIJVUrgmz5u5kcRWPSN-T8a730", "photos": [{"photo_reference": "CmRaAAAAtcmbuGq4j6xVGQGoirBTcMbdd4W4DQregWZkKMlFqxYZBP0rwP18LPkm6q_5Rclj6Ck7vErEPL-IX50PDGIMJ9tLYMCORifxxb3xcb9FCt489dfkFlIDLhMLOrmYaZcuEhB9eGrpgr_V96HPnqEQQRWBGhQ86NAMgCGetDEgpIT-08Krahtctg", "width": 5000, "html_attributions": ["<a href=\"https://maps.google.com/maps/contrib/104830790367177263258/photos\">Mus\u00e9e Gr\u00e9vin</a>"], "height": 3328}], "formatted_address": "10 Boulevard Montmartre, 75009 Paris, France", "id": "ad4b7cebe781fa4b1282606a2fe8e57022767726", "types": ["museum", "point_of_interest", "establishment"], "icon": "https://maps.gstatic.com/mapfiles/place_api/icons/museum-71.png"}, {"rating": 4.1, "name": "Mus\u00e9e National Eug\u00e8ne Delacroix", "reference": "CmRSAAAAFamk06p01cwT-RLu1A1n8C0Q1N6QAQXxzcapepFvfh5zn47CrQCZkxEDOcVlBseE32tNGf2Xg1Mcj7V9UqS4wkcBvEOlD-BjZzNfflSawv7V25P7F-w4Lc3e3ZWel1HTEhCodwHv8WQMkfSuatUrIY02GhQi_e41n6mhMXt9l_1XWYHP_xZGLQ", "geometry": {"location": {"lat": 48.8544557, "lng": 2.3355825}, "viewport": {"northeast": {"lat": 48.8557639302915, "lng": 2.336977880291502}, "southwest": {"lat": 48.8530659697085, "lng": 2.334279919708498}}}, "opening_hours": {"weekday_text": [], "open_now": false}, "place_id": "ChIJrZP7V9hx5kcRQlLc0kYQo44", "photos": [{"photo_reference": "CmRaAAAAjS4YH_GeF0JZnZphivnRZDUjQ5f-IvpOiTxKRUxb-rosT3mLdo7Zd1kcakzS085iMCtAfI1p3o1Fz1UpLEy7mHg5RAORMK36q6_9mSsc_8ta34_q9EoijNqpWmrxkREvEhB_mwCS9xwRgxwI7qFDxFTlGhQ7xJCjg52zt5NeNkYwoFL2HDjVMw", "width": 1920, "html_attributions": ["<a href=\"https://maps.google.com/maps/contrib/114394317161364068230/photos\">Io Kouki</a>"], "height": 2560}], "formatted_address": "6 Rue de Furstenberg, 75006 Paris, France", "id": "fe694b503242b37d1ac77decc7395b989aee10dd", "types": ["museum", "point_of_interest", "establishment"], "icon": "https://maps.gstatic.com/mapfiles/place_api/icons/museum-71.png"}, {"rating": 4, "name": "Museum of the History of Medicine", "reference": "CmRRAAAAm1DvEF0_tU9vTBpQROXn1Jt6tIIJ_rwSRmO4w0gwbr2CaXs4s9pBVlcDvV6WxaudASlScGNI3BlLWdC-wrpa5TJf8oQSX09kkCUqlYfKBls129qoaGIKkY4Y2zmvvUYHEhDAFHLnskk51i-zIiDRxjM_GhRlWzMElwg16g_XZyM4sVnRuhuZfA", "geometry": {"location": {"lat": 48.8512506, "lng": 2.340761}, "viewport": {"northeast": {"lat": 48.8525570302915, "lng": 2.342048680291502}, "southwest": {"lat": 48.8498590697085, "lng": 2.339350719708498}}}, "opening_hours": {"weekday_text": [], "open_now": true}, "place_id": "ChIJgerDKdxx5kcRC6a8bQCNWBo", "photos": [{"photo_reference": "CmRaAAAA9ygCOn-CsI73zC1t7FPPxc3pLgIggHofms_q_UAKQCkiGbDykXsZyuSUk0KevsJRDBBzwn7P3WCfxR8K0lEdq5O-FaWwzdBhoDmWhlIby1_xsuRxrRQKqCXeKpzH4wWNEhDMMIoGhazmze9spFiMFpuJGhRjbjNC0HXNin2WZ72c70W6KVJU-A", "width": 1365, "html_attributions": ["<a href=\"https://maps.google.com/maps/contrib/116727698353915833264/photos\">Mus\u00e9e d&#39;Histoire de la M\u00e9decine</a>"], "height": 1362}], "formatted_address": "12 Rue de l'\u00c9cole de M\u00e9decine, 75006 Paris, France", "id": "c6ab7f9bfacf0ec3fc045da742ef83218c5abcc3", "types": ["museum", "point_of_interest", "establishment"], "icon": "https://maps.gstatic.com/mapfiles/place_api/icons/museum-71.png"}, {"rating": 4, "name": "Adam Mickiewicz Museum", "reference": "CmRSAAAAjyUjIO4s6pyPqyPBXiyPFbzKZau2fBjjF0YL6RD9jhTLimvXYQ8ut1sQCRcqYvF3gAwDGB1vJ3ljejFKd519hof_q9EgiE5ccrAc31w_GxwckBCkW3U5wU7ynmxLnA3wEhBOCXSohP0p8AreksOinuheGhR1CI0xKmoIUb5EdUbJ8P8NyJ0Whw", "geometry": {"location": {"lat": 48.85137749999999, "lng": 2.3556273}, "viewport": {"northeast": {"lat": 48.85265693029149, "lng": 2.357017880291502}, "southwest": {"lat": 48.84995896970849, "lng": 2.354319919708498}}}, "place_id": "ChIJzUK0rvxx5kcRz3yZX9CdtNY", "photos": [{"photo_reference": "CmRaAAAAeAA4MNTXKeKkgNiYbJ6Ya_lmVlqZ-WrzOAPnp-yhRYR32HvhZpol1IovOJ_jZ_DW-JvDxssPHn-tdBh9FTdtHvnoJ6QOR45NqSaDal0lYX5dy-7m0gmruVh1cv9Vij2YEhA2v-8mpVA6H2t4yMVFExU4GhR1yhzqx_by6w36VYyavVk87COjRA", "width": 1310, "html_attributions": ["<a href=\"https://maps.google.com/maps/contrib/104198155525513925723/photos\">Endre Horv\u00e1th</a>"], "height": 785}], "formatted_address": "6 Quai d'Orl\u00e9ans, 75004 Paris, France", "id": "dd6482654401f3094b43ba666992db258c854269", "types": ["museum", "point_of_interest", "establishment"], "icon": "https://maps.gstatic.com/mapfiles/place_api/icons/museum-71.png"}, {"rating": 3.8, "name": "Museum of Magic", "reference": "CmRRAAAAPQRMH8Z8pBwOT34e33GyHePjhYpKO8mbbqG0vZzHm_JsuuxjdctTY_c56av_wlTxROvjs33He7-FATBpUN5ywTVfUXtMNSDMDYf3876aBHqAchP0dqbsgdp03iIpV8QuEhBGudq8cGoJTvYqslN9bF4DGhSgj-oaJJc76nnK9XtRbn44mDh3wA", "geometry": {"location": {"lat": 48.853154, "lng": 2.36116}, "viewport": {"northeast": {"lat": 48.85446128029149, "lng": 2.362554830291502}, "southwest": {"lat": 48.8517633197085, "lng": 2.359856869708498}}}, "opening_hours": {"weekday_text": [], "open_now": false}, "place_id": "ChIJjRsmgv5x5kcR6yiewFFd1wk", "photos": [{"photo_reference": "CmRaAAAA6k2IVfkPI3Zn0gv-LKkrdsxE98-OrYAkdGFpxfxBaiCz7W1tnVZ5r9PfdgYsFzH2wUmHyjziyZmDwUQvI5t54SGfWxoJMMRZo5yjF1jOo13i6ZrqA_OV6OLC94ICHDFGEhCOUljQbI76GAjbzqBG0isoGhQDSSomZkW8Pvdpvl0tSUOxIj4BBQ", "width": 1004, "html_attributions": ["<a href=\"https://maps.google.com/maps/contrib/102027903217181519853/photos\">Mus\u00e9e de la Magie</a>"], "height": 1005}], "formatted_address": "11 Rue Saint-Paul, 75004 Paris, France", "id": "27fb5eee5aeac5594bb5e50285d6fe7e14af3796", "types": ["museum", "point_of_interest", "establishment"], "icon": "https://maps.gstatic.com/mapfiles/place_api/icons/museum-71.png"}]