[{"rating": 5, "name": "Intimissimi", "reference": "CmRRAAAAIdkAq67RD52d6hMAjoT5HvMO8CGYVE-bxLpPtOJZqlPC9C2imrxGwh_2Gv_TkAZqzJtPYhC71bEwA_fqiiqaUSoli6yjRMDn-70b72zNvgE7ZsU-gOiSDyStk-mgcjoGEhBibS2p7EHVHxzh50lEd6i0GhRFbdVyXdhUsem2jaxc23cJHFQ6hg", "geometry": {"location": {"lat": 48.84817829999999, "lng": 2.2967168}, "viewport": {"northeast": {"lat": 48.84947843029149, "lng": 2.298114830291502}, "southwest": {"lat": 48.84678046970849, "lng": 2.295416869708498}}}, "opening_hours": {"weekday_text": [], "open_now": true}, "place_id": "ChIJY5dcNxhw5kcRd1_pckOx5VE", "photos": [{"photo_reference": "CmRaAAAAAvqUm4qikQ7Ljw0PLMCtmZOI4E0mb9rneRTfjMckQXXuMfu7AkB72ibw1g7Nm015c2lOa4_J78Sr-WGpFd8RZThurOvEJB34hmRHJGgoWRRr1wKvTFENaf5hSF568FVzEhC0AC6pbk9IO_CD09o2nOTYGhTuUVqp2-LwUtNE49fYPtDSRGwiaQ", "width": 4032, "html_attributions": ["<a href=\"https://maps.google.com/maps/contrib/101926943882142224550/photos\">Freud Ieuric</a>"], "height": 3024}], "formatted_address": "PARIS RUE DU COMMERCE 16, 16 Rue Du Commerce, 75015 Paris, France", "id": "05a1d2dd1a3bb7b639042beb0a1887d87be2ceea", "types": ["clothing_store", "store", "point_of_interest", "establishment"], "icon": "https://maps.gstatic.com/mapfiles/place_api/icons/shopping-71.png"}, {"rating": 5, "name": "lululemon", "reference": "CmRSAAAAT0vBVGIulyF6mxnTAVtYw14bTSR8j67QttxXF6x1OD4CcQejv-lf3zWiVItsgOhO4K51nG4giRPcePQlBnpteX_yNdTcX34e7weDtbCpCu9dsAeeWNdKOhPt_pAVbiUwEhAiuXa_vcd1QRcwwzBWstFtGhRjCb22d5DNsx6FHlIBt041gJ1LhQ", "geometry": {"location": {"lat": 48.85149, "lng": 2.334146}, "viewport": {"northeast": {"lat": 48.85271418029149, "lng": 2.335401380291502}, "southwest": {"lat": 48.85001621970849, "lng": 2.332703419708498}}}, "opening_hours": {"weekday_text": [], "open_now": true}, "place_id": "ChIJ14AV9dlx5kcRZUi_lHS_rJY", "formatted_address": "6 Place Saint-Sulpice, 75006 Paris, France", "id": "8378027242991a0529999a584bd4372852015c86", "types": ["clothing_store", "store", "point_of_interest", "establishment"], "icon": "https://maps.gstatic.com/mapfiles/place_api/icons/shopping-71.png"}, {"rating": 5, "name": "lululemon", "reference": "CmRRAAAAA0r2A77ds9KVZ1NZb3bMFDecXdJtRUNcbMlTdVUsj1DXlbyI0EWbHTeykJ-h8azAWqgfLW9qrB9gGhCd6ieoONKeKZhAvj_6eA4oWmczHTiYxyXX9q8v02SMtoINQVWcEhAwympCntgNgvE6js5ikfezGhSIqeIybK-TaBHBBSNOy-tLPKFoTA", "geometry": {"location": {"lat": 48.8562658, "lng": 2.3609635}, "viewport": {"northeast": {"lat": 48.8576502302915, "lng": 2.362354030291502}, "southwest": {"lat": 48.8549522697085, "lng": 2.359656069708498}}}, "opening_hours": {"weekday_text": [], "open_now": true}, "place_id": "ChIJTxJ1BAJu5kcRfrOD6ztOq2g", "photos": [{"photo_reference": "CmRZAAAALHrV0uStg1pMAFNXtvu45CF3YVhp54D2DJsSVJBIO_Q1cNamOLDEXxdVHlHoiYKoqp_1nbtgHe7iMZ4kuWZ49Sxz5lkQGrpYfUVgMTzI9Rg2z2AjB-boygHHeOu2qjm_EhC3Lwo4MuPTXeC_gTJrZayqGhRbi90YxnbgmYXYQl_7SpD8TJ3dKA", "width": 3024, "html_attributions": ["<a href=\"https://maps.google.com/maps/contrib/105671864799631037745/photos\">Claus L. Bardenfleth</a>"], "height": 4032}], "formatted_address": "3 Rue des Rosiers, 75004 Paris, France", "id": "a4a84ab46dcb0582dccc53feac9b13bc9f38dddc", "types": ["shoe_store", "gym", "health", "clothing_store", "store", "point_of_interest", "establishment"], "icon": "https://maps.gstatic.com/mapfiles/place_api/icons/shopping-71.png"}, {"rating": 4.8, "name": "babyGap", "reference": "CmRRAAAAW12xTFK9jWqrr86BFxHNXrKKe6X5p7JymEW4T0SlAqfPFo5amEjwQ7J_T_ndyvqKvy6ADi-BfPwmq6Z3ea24TUjDv4MMtRJFES-HVK0ao9f5cVTkGm-Dxv5ZSGTfVGSAEhCpPE-POY_qRyRK5py7q_e6GhQmqjpnbuJdyKfR44soL5cBV6TZug", "price_level": 2, "geometry": {"location": {"lat": 48.85895509999999, "lng": 2.3478312}, "viewport": {"northeast": {"lat": 48.86031873029148, "lng": 2.349106830291502}, "southwest": {"lat": 48.85762076970849, "lng": 2.346408869708498}}}, "opening_hours": {"weekday_text": [], "open_now": true}, "place_id": "ChIJ-QIn-B5u5kcR2DmIfT5FgmA", "photos": [{"photo_reference": "CmRaAAAATzcfzqNV7MmQQEgE8qYuUcdlLL1DImNSsdUp3Jtq5IAVrQQ6eBTM3oO_OeDk8WJCLf0Dw_ax86x9_PIIxFsASu4MJ0CMAGPykUN2dVjZyHBn0yQF7ZrpjFa1onzLYzUsEhAGiG1WkoZl75Jf6bslQsr-GhQol7aD2kbpzIHGz94uMK01qZCg5g", "width": 320, "html_attributions": ["<a href=\"https://maps.google.com/maps/contrib/113136854540036659795/photos\">babyGap</a>"], "height": 320}], "formatted_address": "14 Rue St Denis, 75001 Paris, France", "id": "25b827c0e14a83e5890ee6a07d68bfddae85fbc8", "types": ["clothing_store", "store", "point_of_interest", "establishment"], "icon": "https://maps.gstatic.com/mapfiles/place_api/icons/shopping-71.png"}, {"rating": 4.7, "name": "PUMA", "reference": "CmRRAAAAvl_d0OwleyVGO8UhjME8qC3wbdJLIjlpJRdLP1atXuvXtr7y4pzClJ4RawaxTqIXyl1pOgK-vVjCag_TL_UZgrTXMri_MgRG4HT4Wqk8eS66Z76T17KUV1dZyGFljRFuEhBCZtvOPmQ2wdR9rL29eBVXGhRHKSErO6FGYX1EEuHmlRY6t8AQsg", "geometry": {"location": {"lat": 48.87460249999999, "lng": 2.3290978}, "viewport": {"northeast": {"lat": 48.87595148029149, "lng": 2.330446780291502}, "southwest": {"lat": 48.87325351970849, "lng": 2.327748819708499}}}, "opening_hours": {"weekday_text": [], "open_now": true}, "place_id": "ChIJLU6DeDZu5kcREd5WmM1--ng", "formatted_address": "56 Rue de Caumartin, 75009 Paris, France", "id": "e1af73323f615732b25cefe252a3a6efcf198e24", "types": ["clothing_store", "store", "point_of_interest", "establishment"], "icon": "https://maps.gstatic.com/mapfiles/place_api/icons/shopping-71.png"}, {"rating": 4.4, "name": "Carrousel du Louvre", "reference": "CmRSAAAAC0m0RKrMYKGhAcydV6Ha7NK2lhvoXhHc7b8sWS5zkqSNF7qhoY2q6pUmUAPX-174y3UAk03YnNuOVzzpIJKWciec1pCGhL4hQHhRVs-t88_SuF0ypyhknNku5l5ELgckEhCGo9CrFPePMLARKCpx7hUFGhTlkd4lC8KzxVa2TVFxGRNmpiiAYg", "geometry": {"location": {"lat": 48.86257800000001, "lng": 2.3349703}, "viewport": {"northeast": {"lat": 48.86401903029149, "lng": 2.336388230291502}, "southwest": {"lat": 48.8613210697085, "lng": 2.333690269708498}}}, "opening_hours": {"weekday_text": [], "open_now": true}, "place_id": "ChIJ6SJcCP5x5kcRJt8m9_lR7_Q", "photos": [{"photo_reference": "CmRaAAAAo8YqdsWalrP6b1ipIfYKQ1rBC9TFUrO9BDxPB9AFjoG8HgySHexmQ-8BRmyHuM-i9Vbe-sHrnsvPUnC_ZNqC7BSyyMJNrblaQDr7Tt07Rar-7lGrXn-MrtzmZoLkF5LYEhAt1XOruO_RQE6kru-2DuzoGhQJdZ7UdhhslvZn5DGdNudVXerp9A", "width": 2048, "html_attributions": ["<a href=\"https://maps.google.com/maps/contrib/103555611056117706567/photos\">M\u00e1rton Gyenes</a>"], "height": 1365}], "formatted_address": "99 Rue de Rivoli, 75001 Paris, France", "id": "90f4c5a33914a4f8c018a728ef6e1d95f9de13a6", "types": ["shopping_mall", "point_of_interest", "establishment"], "icon": "https://maps.gstatic.com/mapfiles/place_api/icons/shopping-71.png"}, {"rating": 4.3, "name": "Michael Kors", "reference": "CmRRAAAAtT76Qq4gsuNuk2N7vlT7r5N9t_axUevnMbye-6pszLylmmBDYOtmelwUZyH87xzK3lEbcc9qlRYAkJgY4pwtgObARotk_8bM0_IDabj_QqPxU663ZsJ3zhjC2t8ecF2fEhBTH9bfmtf--PGx4Fy6I926GhTQHwdVua3q07DzWmZ48el797GXJw", "price_level": 3, "geometry": {"location": {"lat": 48.8579582, "lng": 2.3598826}, "viewport": {"northeast": {"lat": 48.8593520302915, "lng": 2.361281480291502}, "southwest": {"lat": 48.8566540697085, "lng": 2.358583519708498}}}, "opening_hours": {"weekday_text": [], "open_now": true}, "place_id": "ChIJ1VG3SAJu5kcRq8PhhsNtSGc", "photos": [{"photo_reference": "CmRaAAAABdXiGvyvHaDA4AvmfQtICzOP-COs8eEFBgL1nVwDSMTCt7nWhTjXBaek5O4GDVyKc2sNjP7TJV9nXJHUHda0Q4SKFA7r4PH5plEE-lPbJ56f-rO-AOEfwnuuepJleFDoEhAPk-29PO3B5PTuHZuWtROxGhRN2lrJHcBipJbCcw7LwRksniAyNA", "width": 2240, "html_attributions": ["<a href=\"https://maps.google.com/maps/contrib/113318984371050680077/photos\">Renaud B</a>"], "height": 4000}], "formatted_address": "41 Rue des Francs Bourgeois, 75004 Paris, France", "id": "7a696702613438764f76798673bb560ca8870969", "types": ["shoe_store", "jewelry_store", "clothing_store", "store", "point_of_interest", "establishment"], "icon": "https://maps.gstatic.com/mapfiles/place_api/icons/shopping-71.png"}, {"rating": 4.2, "name": "Intimissimi", "reference": "CmRRAAAAgPG36hhVS1CN_FcbJpQw9nz6AQjca2i--DD6Y93KuO5FGRRdEXCQYchuH2LeGAwSnjcq3zN7pGPhG7JkEJQ1GhCxk8PS2hJ9wXFPV_Eh2BoHh93KrgNQg2fGvqR5g2L5EhDspXsE18j46gMR1-Gz_PtVGhQjs0GLLjvIERh_n5qfEZX_gUcZxw", "geometry": {"location": {"lat": 48.8449714, "lng": 2.3247358}, "viewport": {"northeast": {"lat": 48.8463203802915, "lng": 2.326084780291502}, "southwest": {"lat": 48.8436224197085, "lng": 2.323386819708499}}}, "opening_hours": {"weekday_text": [], "open_now": true}, "place_id": "ChIJAQCMvM1x5kcR3BltXvAUMjg", "photos": [{"photo_reference": "CmRaAAAAeBFHjdKOYbz7GiEVRPJ3xkzoPoovxnmngTdUmuTgDiewKHWJavBwb49cA2wXa1yDJoX7XCIWwJipKJ_lSpJlghgpWdALBnlFisM4dSNZ2wLMgxUdvW92emdRfeICUYgUEhDLA9au5wCJF9ePhkx2713HGhT8XKfP-wenARYYBbheu_3sEe4UtA", "width": 5312, "html_attributions": ["<a href=\"https://maps.google.com/maps/contrib/100932843012820415477/photos\">Fr\u00e9d\u00e9gonde ABOUT</a>"], "height": 2988}], "formatted_address": "146 Rue de Rennes, 75006 Paris, France", "id": "5a5862f07c91f6f5b71b2169b00d98e04973d126", "types": ["clothing_store", "store", "point_of_interest", "establishment"], "icon": "https://maps.gstatic.com/mapfiles/place_api/icons/shopping-71.png"}, {"rating": 4.1, "name": "Abercrombie & Fitch", "reference": "CmRSAAAAzcmPRqML3LefJPmx8HtdDgfTBVVq5I3zGH0ksBShEWG2wftYU577MFVCkQZGYDVWVvhwe9TzquvEl0ainR-QH00qc4WLAlilFQmypGrOzndrHVgzTibUiqUI1OmgmzxnEhDbiE6sWu_BXJdR52XkeBQoGhQUCZZ9389E-0t1oA8G6BhidtdZAw", "price_level": 3, "geometry": {"location": {"lat": 48.86924, "lng": 2.307876}, "viewport": {"northeast": {"lat": 48.87077843029149, "lng": 2.309367180291501}, "southwest": {"lat": 48.8680804697085, "lng": 2.306669219708498}}}, "opening_hours": {"weekday_text": [], "open_now": true}, "place_id": "ChIJR9f99cRv5kcRV-OUsl7ZatA", "photos": [{"photo_reference": "CmRaAAAA3FYSPGwX5Iu0dj21CK55rMYfmFveU0XHWNzF3w7fsL-lyV_dKelJ3KFNBY1bdDdWrFLp-NaKoF_6IP13ndaeLSvCRxO6q5A8v2ldyUfpqEq5Wz_zPMOe6Jdl1sfTu38MEhBWnLQOwZAugJHde3yzDg3aGhS6dQhd7ZKIKvR3YXzdTqvbKeuyVA", "width": 6344, "html_attributions": ["<a href=\"https://maps.google.com/maps/contrib/105315407393829034135/photos\">Lionel Renimel</a>"], "height": 2522}], "formatted_address": "23 Av. des Champs-\u00c9lys\u00e9es, 75008 Paris, France", "id": "ce3a62af4deb6dc7264cb3e72072450e759d5a34", "types": ["clothing_store", "store", "point_of_interest", "establishment"], "icon": "https://maps.gstatic.com/mapfiles/place_api/icons/shopping-71.png"}, {"rating": 4, "name": "The North Face Store Paris Sebastopol", "reference": "CmRSAAAA5tdFEhbieFmH-1yzeH8sTQ6S2isYESoP9COGUNaA09uWQNAOtIattW-39xaQxwhkiWus1PvuUrbnfLK31k0bTvhTPoXDdYolCpHG82ZUjc0eqg5BNCXmuXTqv1hHsBC-EhBT8XTw0Ep9pxYKhQ6vYU1uGhRZendd46u7wnmjoa4hB-mCW6_qAA", "geometry": {"location": {"lat": 48.86089649999999, "lng": 2.349865599999999}, "viewport": {"northeast": {"lat": 48.86227653029149, "lng": 2.351086380291501}, "southwest": {"lat": 48.85957856970849, "lng": 2.348388419708497}}}, "opening_hours": {"weekday_text": [], "open_now": true}, "place_id": "ChIJdRjPrR5u5kcResJx88zukc4", "formatted_address": "28 Boulevard de S\u00e9bastopol, 75004 Paris, France", "id": "0164e519af24e84f422a22ec48ab872d232456ab", "types": ["clothing_store", "store", "point_of_interest", "establishment"], "icon": "https://maps.gstatic.com/mapfiles/place_api/icons/shopping-71.png"}, {"rating": 4, "name": "H&M", "reference": "CmRSAAAABgFJ6BhxgN1LiBvC3kqokm7wqHbK77mRECTtNGnp61zcchcdIMrT11NpazZkTGS9b67A75z3wOJ-pAsMb3U0n9wiVvo9oQJHyRZSgKDo06G0UmyURYF3LHVKLoRifpNwEhCI2_plvue25RjwMgZZBIZ-GhRkumdY56F8GZeD328E5cW_WEDWEQ", "geometry": {"location": {"lat": 48.851499, "lng": 2.342013}, "viewport": {"northeast": {"lat": 48.85293848029149, "lng": 2.343412030291502}, "southwest": {"lat": 48.8502405197085, "lng": 2.340714069708498}}}, "opening_hours": {"weekday_text": [], "open_now": true}, "place_id": "ChIJ_aZzC95x5kcRzSmBlW6zX44", "photos": [{"photo_reference": "CmRaAAAABm9azLv62viAlYb2RWv2i2t9EWBuFo_ltxU-4NMxLlNp8sQUZ82iUMu_3IjVKBnFpkkD-rB8N4OFEN83gonGjQ5EG0zlXh5LQzTWBZSvUD9lLowOB3-uCL7n689V440iEhDkcUfHIplw0pLKfUMvug21GhQTYVBPbfaNyWPwwC7ei2uggQ7RZA", "width": 4128, "html_attributions": ["<a href=\"https://maps.google.com/maps/contrib/101464145705820691088/photos\">Arnaud Corbier73</a>"], "height": 2322}], "formatted_address": "77 Boulevard Saint-Germain, 75005 Paris, France", "id": "70d3825960eb4e80464801e3432b032aa6e7070d", "types": ["clothing_store", "store", "point_of_interest", "establishment"], "icon": "https://maps.gstatic.com/mapfiles/place_api/icons/shopping-71.png"}, {"rating": 3.9, "name": "H&M", "reference": "CmRSAAAAWl41sos5Ay-AdJWmVlBKYBop34efWj7RCxi6993kmUbkmGwl_9dJvCWsyJqcFFPX_kn9XsXCEH0JmTKqIuN91C7dJME5SMkLNQq1XOgFWgiYMUUFdKyxJ9OVcJ7FUU5yEhARGzfZvumzvMS5kfhiVMKwGhSLIjBD2r5jo8XAcd4ueoM5nLdixQ", "price_level": 1, "geometry": {"location": {"lat": 48.8583107, "lng": 2.3493416}, "viewport": {"northeast": {"lat": 48.8595975302915, "lng": 2.350642930291502}, "southwest": {"lat": 48.8568995697085, "lng": 2.347944969708498}}}, "opening_hours": {"weekday_text": [], "open_now": true}, "place_id": "ChIJwzYPZR5u5kcR3OTAuo7qCJU", "photos": [{"photo_reference": "CmRaAAAA8-JdhT9CG9VxHpgrlsyX1i9alq-V7VRg19sQkgTuC06CtvBXkrC0qbLx2BcoweJ4UCjy9QDvKohjv8nO83GyslAJAT-N1a-BRxjA1YnlZJcPjvtjDGwm4AiBsSeaJSt6EhCY9WJMlKpQ1-sYm-wQf7xxGhSfEWbv8OC6wlSde-_Rp25yOF6Jjw", "width": 1536, "html_attributions": ["<a href=\"https://maps.google.com/maps/contrib/110852941887996048961/photos\">Nelly Say</a>"], "height": 2048}], "formatted_address": "88 Rue de Rivoli, 75004 Paris, France", "id": "e4c6374239ba6dc28dfd75507f719e9f66de92d8", "types": ["clothing_store", "store", "point_of_interest", "establishment"], "icon": "https://maps.gstatic.com/mapfiles/place_api/icons/shopping-71.png"}, {"rating": 3.8, "name": "Forever 21", "reference": "CmRSAAAAeYdOyfBtiT9cqAZjBklmcJl7EAXfKukCgBTI7UQpwkpZ1QuPKec-TACbI-ZEXr1-Z4W2yBgCqBkJlMSlgjVs3CoXk9tv9w0dZqoYhZffoHRQhYi7osxjvPag_D44K0qHEhAOHBAMAXaQ8JuqEMGHFyVYGhR-KNwAj6rzsQMs3nYfgG3-lybW5w", "price_level": 1, "geometry": {"location": {"lat": 48.8604618, "lng": 2.3426843}, "viewport": {"northeast": {"lat": 48.8617547302915, "lng": 2.343927480291502}, "southwest": {"lat": 48.8590567697085, "lng": 2.341229519708498}}}, "opening_hours": {"weekday_text": [], "open_now": true}, "place_id": "ChIJzSvpliFu5kcRgdUlYWTeIos", "photos": [{"photo_reference": "CmRaAAAAiLY3PRhksSo4hixKqKxmcUjc8nj_Sah8yX6ybCdC0w4nDbS0X9nl3Re73coJU75aJks2lvUq2Tz35lBf_uB5nwzWDolo6SSv5oOCVxLyfaW-nHXxOuM5rK36t_e7HolwEhChwFmms-DV_c5stxN3CwPRGhScrgew8E9LUf3dvmugcm537scWWA", "width": 3968, "html_attributions": ["<a href=\"https://maps.google.com/maps/contrib/104690041237536370227/photos\">alexis leducq</a>"], "height": 2976}], "formatted_address": "144 Rue de Rivoli, 75001 Paris, France", "id": "e7ee4d8e8ff8898b1f7b8d9ee24e403a0b73b98c", "types": ["clothing_store", "store", "point_of_interest", "establishment"], "icon": "https://maps.gstatic.com/mapfiles/place_api/icons/shopping-71.png"}, {"rating": 3.7, "name": "H&M", "reference": "CmRSAAAAWV6cO9TeVS5Xlw6e0AlFTGh8NyaQE72CkcTQ2yAchFeqJIIGRJdeMHMYlWwrVclo3SoVUcu6yQ-5-avKTuG3pTgh241IqTwG4YmdJhJnBCHQ80UvSsp3IUKWmp2xO3ryEhDqIBz6BOjgHShQOUkHoFjpGhR01AgIxNBnC8OwgM7g4aLydoYksA", "price_level": 1, "geometry": {"location": {"lat": 48.85949799999999, "lng": 2.345905}, "viewport": {"northeast": {"lat": 48.86085548029151, "lng": 2.347235380291501}, "southwest": {"lat": 48.85815751970851, "lng": 2.344537419708498}}}, "opening_hours": {"weekday_text": [], "open_now": true}, "place_id": "ChIJHa_7cR9u5kcRXwbPx4ST2KY", "photos": [{"photo_reference": "CmRaAAAALuZ7VB6PmL9BnuOxM1QCKlEGpognNsM4zrnWJh8f24_Rz9dBWjXNwtIYukIMkf5D3Olc49Xzv4z6DsBTiTcMdJUZ560nB8NqAU3PAtJEoDQ6aujKoAnG1D3gzodB9NJ0EhB2CAVnyeqncqJp9Tegwjh5GhRFxpvwLgy-K6icxgnOvq9BqKSKAQ", "width": 4160, "html_attributions": ["<a href=\"https://maps.google.com/maps/contrib/114505106068478012058/photos\">Sissoko Awa</a>"], "height": 2336}], "formatted_address": "120 Rue de Rivoli, 75001 Paris, France", "id": "0e6e61085b9459da75198e3a00b28825a1dd6b13", "types": ["clothing_store", "store", "point_of_interest", "establishment"], "icon": "https://maps.gstatic.com/mapfiles/place_api/icons/shopping-71.png"}, {"rating": 3.7, "name": "Desigual", "reference": "CmRSAAAAw5TW5am2shxUj0eFbMu4WtZ-WxNlh06i_jqyuyHiAwzwdx5vLq9NWx9XtLzjUFmHZ-s3BHNMKbYRpC4KGIF5L8M24aKIk13cfuaJBeIIvoRKVMpzWdTaibMuN7NkWYvlEhC4jqeew6cZNcIc65ysKhIEGhTBe_fwHDCOaeXKJWsZRJxLbvsccg", "geometry": {"location": {"lat": 48.86852280000001, "lng": 2.3334712}, "viewport": {"northeast": {"lat": 48.8698408302915, "lng": 2.334710930291502}, "southwest": {"lat": 48.8671428697085, "lng": 2.332012969708498}}}, "opening_hours": {"weekday_text": [], "open_now": true}, "place_id": "ChIJISyhZjBu5kcRr0j1_aWIf5g", "photos": [{"photo_reference": "CmRaAAAAgvRg7pMxHe3U0sSYFbw-CmmniyqtrrU05EOyobn2JxBnkMoZUdKvtH1zZN7EA3Uu1phvK5JHp33kPYtI2k_u6zf0B8XC2Y1ZOT0NZwSsvkX48LNocmSMDy7QDBm7brN9EhD1_cM7Yb_mL8kz-faCuliiGhS9VwFNmoa7NQZeNvlL9lMHPOiGSg", "width": 3264, "html_attributions": ["<a href=\"https://maps.google.com/maps/contrib/115485704962362504046/photos\">Ofer Eliyahu</a>"], "height": 1836}], "formatted_address": "32 Avenue de l'Op\u00e9ra, 75002 Paris, France", "id": "8c6a5402d0e0ad93a9bdc6110ba3ffd1240c833a", "types": ["clothing_store", "store", "point_of_interest", "establishment"], "icon": "https://maps.gstatic.com/mapfiles/place_api/icons/shopping-71.png"}, {"rating": 3.6, "name": "Forever 21", "reference": "CmRRAAAAPHKWrLCNaHFK70CFB6jC9R3YxvtUiYTPZUM86UNeNnzKBYI9b_AzvTUUxSGthuddbcIbBxgQi8onbESk0-exrLAWxFDJovn1kLwgQ81jp4Q5F1bRL6GwjL_g5sD-xAROEhB0_6t_DuAQjTFcXRtXTDCcGhSpaPZOYD77If1rYinA8WCnPMrU-w", "price_level": 1, "geometry": {"location": {"lat": 48.86238259999999, "lng": 2.3472027}, "viewport": {"northeast": {"lat": 48.86373158029149, "lng": 2.348551680291501}, "southwest": {"lat": 48.86103361970849, "lng": 2.345853719708498}}}, "opening_hours": {"weekday_text": [], "open_now": true}, "place_id": "ChIJZ7cS3Rhu5kcRXiXmIpivQEU", "photos": [{"photo_reference": "CmRZAAAAOjYCg2ZCz--u56Dy8A7IWAnuixWldqwLYwwXERR7KKrfz-1ZWW5Hxyom_aPxXBuBTFkqTwoKZwgKmByt5ZqQCcZsyanf9MsWF3kuo5esPBoEFSlxxE3NdcHwpP5EPOsSEhAkY3m4SDWKFHEEDqC2Y3WNGhQbrTlLmPLmUadvzxoQjaOMirNebA", "width": 5312, "html_attributions": ["<a href=\"https://maps.google.com/maps/contrib/112784456377886246662/photos\">Naim Avraham</a>"], "height": 2988}], "formatted_address": "101 Rue Berger, 75045 Paris, France", "id": "9c26b4e7bb2c1fed7bb96600192970c21c8c9dc8", "types": ["clothing_store", "store", "point_of_interest", "establishment"], "icon": "https://maps.gstatic.com/mapfiles/place_api/icons/shopping-71.png"}, {"rating": 3.5, "name": "GUESS", "reference": "CmRSAAAAgcecqm01Ayo-rb_BvBaPegMqS8rGTTnmgCjFPPeTf2ZODWWZ_aJOPlHWg5PggKKqQtCQd3HNKv8IIvAfdQUVXdrWgNZWZ4l91yIMDgYFCzpfEqGcrOUSdxaQhFhjPQjTEhBIZIvxka1xOymK3J7SiVmrGhQchgVWGoGF9ON5JdbqzlF7tqxxAQ", "price_level": 3, "geometry": {"location": {"lat": 48.86463879999999, "lng": 2.3464545}, "viewport": {"northeast": {"lat": 48.8659188802915, "lng": 2.347763530291501}, "southwest": {"lat": 48.8632209197085, "lng": 2.345065569708498}}}, "place_id": "ChIJue5dQhhu5kcRKY_SmtdbDZo", "photos": [{"photo_reference": "CmRaAAAAw3Fhab_scBju1If4id-bJZmMG43jvZ_u9u2QPACjN3Q5Drts6rLuC3bOHLgy-lWhCP6n58Ttqhv6uKxFMtckqHSkP5xKb8OeYSufmZ9z8zfP3EHhWoeMZ_saulxc2KQQEhB13901TO4w5nc3P6BK-nVIGhRHlOtLOMRtgphrNkJE-ct-D_9LoA", "width": 5344, "html_attributions": ["<a href=\"https://maps.google.com/maps/contrib/116201081132870145377/photos\">Brieuc Bodart</a>"], "height": 3006}], "formatted_address": "32 Rue \u00c9tienne Marcel, 75001 Paris, France", "id": "9ffff70b575ea8807175ee6ef7a22fe648b8b50a", "types": ["clothing_store", "store", "point_of_interest", "establishment"], "icon": "https://maps.gstatic.com/mapfiles/place_api/icons/shopping-71.png"}, {"rating": 3, "name": "Dolce&Gabbana", "reference": "CmRRAAAA-SL858sWf6KjztJpgUHeWyeIOrlTGYD4D3C5UHwLSkKbZtUQNnGH1AE58MljPHCP9UuIfvbcFhDV9yoPmBhbj7Fc6C_LwggbiVJBDWCFJYSq4zQb7OfQ6Wnd0DZGFtG3EhBJa8qVG8gcZ-7q2XwnPOrSGhQUaCgS07YM6zqNJvM1dkAyuXMF-w", "geometry": {"location": {"lat": 48.8711576, "lng": 2.3062205}, "viewport": {"northeast": {"lat": 48.8724396302915, "lng": 2.307647430291502}, "southwest": {"lat": 48.8697416697085, "lng": 2.304949469708498}}}, "place_id": "ChIJC9539sNv5kcRvsd3zMJhlB0", "formatted_address": "124 Rue La Bo\u00e9tie, 75008 Paris, France", "id": "ab17aae60b0dcaf104972314c106c9c32b37e181", "types": ["clothing_store", "store", "point_of_interest", "establishment"], "icon": "https://maps.gstatic.com/mapfiles/place_api/icons/shopping-71.png"}, {"name": "H&M", "reference": "CmRRAAAAWIaJHMQUTuqxHd1_5RrLOwp1mcvYzptT5CswUKquLJNOnl_IU093NFAqh_ZGrN6iF6o6R-D4zzvD-mA8kJG-4oXphcGNGT1gEo4ZjEEgmKVhHl0Fw338rQRCft5PuaQkEhA6y0xmFHdshle4eB-QvYC2GhTEmb_eIL9bnmw2-MDSjh00bM6igw", "price_level": 1, "geometry": {"location": {"lat": 48.8462173, "lng": 2.3264572}, "viewport": {"northeast": {"lat": 48.8476121302915, "lng": 2.327697780291502}, "southwest": {"lat": 48.8449141697085, "lng": 2.324999819708498}}}, "place_id": "ChIJRwqp_s1x5kcRDVUIG8y7K1g", "formatted_address": "135 Rue de Rennes, 75006 Paris, France", "id": "68c686430f44935da688f78dc0421a45d62d7263", "types": ["clothing_store", "store", "point_of_interest", "establishment"], "icon": "https://maps.gstatic.com/mapfiles/place_api/icons/shopping-71.png"}, {"name": "Intimissimi", "reference": "CmRSAAAAoR5wEnlziaEoTQeKXqy7kGPvTihaWI-B-EhYEN5tWr4V_SDTEsplDC6It-M12Ya9lkOuj5eCnxDODWTqwI4iGiLGUBQRkDBSwri2nYPFU6mjDyG8iWfEDvtchim_IUIeEhDMNlZsK7iOe3ErSW363_tZGhRGP7e0WFcUtb38fbPjIXGqK6lAxw", "geometry": {"location": {"lat": 48.8525518, "lng": 2.3335911}, "viewport": {"northeast": {"lat": 48.8539007802915, "lng": 2.334940080291502}, "southwest": {"lat": 48.8512028197085, "lng": 2.332242119708498}}}, "opening_hours": {"weekday_text": [], "open_now": true}, "place_id": "ChIJw2L859lx5kcRbUdYvQ4IsNg", "photos": [{"photo_reference": "CmRaAAAA1xOzVPXBhHmYQXkE2giZyGGQIk1jjxGaNWLaEqTja0XNoP9REM1WBSvY4F9Z5PmCvkSnvjnHx-8rT9pjCYjTmSuUM4c6-tLK51NyCJLc4xEYK1p6YDT2-Bul94aC_WEGEhAKLR7YT0_RFHplf2m4XZKxGhRhME1Ut0fI8p_04_CHVvomU-qTCw", "width": 2963, "html_attributions": ["<a href=\"https://maps.google.com/maps/contrib/116895123746960758519/photos\">Riad H.</a>"], "height": 1809}], "formatted_address": "29 Rue du Four, 75006 Paris, France", "id": "6b9d1977376f44f19335b55f8a8b4906e765455f", "types": ["clothing_store", "store", "point_of_interest", "establishment"], "icon": "https://maps.gstatic.com/mapfiles/place_api/icons/shopping-71.png"}]