[{"rating": 4.7, "name": "Louvre Museum", "reference": "CmRSAAAAn2ruyBkpxQ6AmGG9J418EFp7HGDk5JqHreCEpQuN2qbu2j60jdtLkOkhepV60bNibYKXgJReoia7XVLVPyWt0Tu_psEdXRi6VlUDt-MCxpLraXODLxzqCftRcNn273iQEhDG_glCOhNHItl00CkhHT_bGhRUknpiS1qyyg2D2elBlZnoSrKVUQ", "price_level": 2, "geometry": {"location": {"lat": 48.8606111, "lng": 2.337644}, "viewport": {"northeast": {"lat": 48.86313575, "lng": 2.3391953}, "southwest": {"lat": 48.85976955, "lng": 2.3329901}}}, "opening_hours": {"weekday_text": [], "open_now": false}, "place_id": "ChIJD3uTd9hx5kcR1IQvGfr8dbk", "photos": [{"photo_reference": "CmRaAAAAfim96i9M8PYBqoJszzo--RozQqm8MvCivQy3i24Y6tmYXynz_umvbsJpYk4UESk6XJA9aoIR2bM6Hv9LeWZDcSpbZSiOrdtN63KqN0YL6STE9C4nYp2pxcTMCNsrijwMEhARaygjcmhUH5sbGqAD9q0JGhT56IOc0yXRLMKTN4ZtDqCi1s193A", "width": 4288, "html_attributions": ["<a href=\"https://maps.google.com/maps/contrib/109983477559905217030/photos\">Christophe Jacquet</a>"], "height": 2848}], "formatted_address": "Rue de Rivoli, 75001 Paris, France", "id": "9a007d81ca8f47ed30ddaf39c4174ef773b351e0", "types": ["museum", "point_of_interest", "establishment"], "icon": "https://maps.gstatic.com/mapfiles/place_api/icons/museum-71.png"}, {"rating": 4.7, "name": "Mus\u00e9e d'Orsay", "reference": "CmRSAAAA_aRVTh3T2Q_Irs3nPan023vgM-MMtWmXdY2m6TgaK26d5NzZ8JjXBA7hIC6zQ5CKTNqNl8C2OUZscC8lWIlXlhVoY07e1CCKQV8QsdlSAIs0UPxQ1ELpQNn6JpQy2xI3EhBvDLOMYPFetDlNaB6-nl3cGhQGW4pxV9yuCjyNMYH4rDsQ8HjMjw", "geometry": {"location": {"lat": 48.8599614, "lng": 2.3265614}, "viewport": {"northeast": {"lat": 48.8615291302915, "lng": 2.3275171}, "southwest": {"lat": 48.8588311697085, "lng": 2.3236943}}}, "opening_hours": {"weekday_text": [], "open_now": true}, "place_id": "ChIJG5Qwtitu5kcR2CNEsYy9cdA", "photos": [{"photo_reference": "CmRaAAAADAqZGANqkjUmHExJwF1aC3hX5buRe4_uBr_8dJmdzCX54pjTkr0L7qeix8MTvVYb7881nee_OjrhjYw70Wvzt2SebB4QzCMhMd8WU6aw4_zzlTLd-bVzek4MMrbcp1q0EhBleoAj7j1A4GfCYLj8kfGEGhQh2R3EXsRH13uRpBlMVW26PhBvyA", "width": 2848, "html_attributions": ["<a href=\"https://maps.google.com/maps/contrib/104198155525513925723/photos\">Endre Horv\u00e1th</a>"], "height": 2136}], "formatted_address": "1 Rue de la L\u00e9gion d'Honneur, 75007 Paris, France", "id": "324ebea255dabc1cb3a5ca92839d3949530e05e3", "types": ["museum", "point_of_interest", "establishment"], "icon": "https://maps.gstatic.com/mapfiles/place_api/icons/museum-71.png"}, {"rating": 4.5, "name": "National Museum of Natural History", "reference": "CmRRAAAAlv1shZVqHo26_a_lUqocK6cPlUljhV3OtfqedhXuuZopfDIHK_a6o_YEV-8eMIJkolcm14E4irGXG_Q9u2d4DbZPaUGwgKjGg-z_XOH4pVARjLXDFo9BZX1fneLxXQn4EhDrkPV70OS5JRxAaxPQSrrBGhSH9ZBiWJi6ZmtEIW-lJlP37JSHTA", "geometry": {"location": {"lat": 48.8443425, "lng": 2.3562101}, "viewport": {"northeast": {"lat": 48.8456914802915, "lng": 2.357559080291502}, "southwest": {"lat": 48.8429935197085, "lng": 2.354861119708498}}}, "opening_hours": {"weekday_text": [], "open_now": false}, "place_id": "ChIJEURALfFx5kcR4cbxSSHWQ0c", "photos": [{"photo_reference": "CmRaAAAAJvXicGbQS6aWiygobOODQWvPVjrIWxCC336kQe452hXBJ7abzieD00RdLBc-01m410cYK0XRUf08XZ66IKqoPfbsqVSZiY8IMDkHQL_7Nc5bLcqCaTqa-t4A3Mceu-wQEhCYQN-OkNGBxukLxx9c9mxhGhQe7T5v0n5KDpdaX0et6ic3y8GC5A", "width": 4128, "html_attributions": ["<a href=\"https://maps.google.com/maps/contrib/116329647050068364523/photos\">Val\u00e9rie Payen10</a>"], "height": 2322}], "formatted_address": "57 Rue Cuvier, 75005 Paris, France", "id": "c9b20c83264c29f12d01829dad7b5117af7ecf3d", "types": ["museum", "point_of_interest", "establishment"], "icon": "https://maps.gstatic.com/mapfiles/place_api/icons/museum-71.png"}, {"rating": 4.5, "name": "Metiers Art Museum", "reference": "CmRRAAAAvkgrliSElTFWfpZJfjLd5rwKeXvQkLjUMr38tnLuQimu-j7Zmv2ldWA7aqinBomgMUA4JQ9LoEYNoPr4aDtkJrOZT3l-CnDiSLnVX-ZBV4_T8eNxuHTPP2CSkV2Zbw8oEhDVP3xsnXNmH_cr22PSbPDvGhTuLqZ_7Yg34hcsGDkSrPH1OjSgxg", "geometry": {"location": {"lat": 48.86663919999999, "lng": 2.3554383}, "viewport": {"northeast": {"lat": 48.86814788029149, "lng": 2.356274980291501}, "southwest": {"lat": 48.8654499197085, "lng": 2.353577019708498}}}, "opening_hours": {"weekday_text": [], "open_now": true}, "place_id": "ChIJNUTIphpu5kcR4h07VuxFIHc", "photos": [{"photo_reference": "CmRaAAAAIb9U6JpClbF9JzBCcFEKGvVh4GQEg85QAcTkFvx6OVX4crJqNQGxSZjjC2N2vy_GloQVqxYQh1CLgye42VE0hn3dpJH4erzx26131l7wTLyW1lnMgXHkunVt9zH1enm8EhDIWYYhBu5NbmJ75M7gk6C4GhTosZy30z1iGFQXndnnT_eD-fsKbw", "width": 378, "html_attributions": ["<a href=\"https://maps.google.com/maps/contrib/100087783093988552392/photos\">Mus\u00e9e des Arts et M\u00e9tiers</a>"], "height": 378}], "formatted_address": "60 Rue R\u00e9aumur, 75003 Paris, France", "id": "8361ea0e7cef57e52503ed18c71a9c3860a6fd5f", "types": ["museum", "point_of_interest", "establishment"], "icon": "https://maps.gstatic.com/mapfiles/place_api/icons/museum-71.png"}, {"rating": 4.5, "name": "Mus\u00e9e Curie - Institut Curie", "reference": "CmRRAAAAf-V7ygJaW9J72yeiigT5FXn9FvkKzzStu7K4slmUa63PYSQsr943StS2WGVdYBko-asVZQMWFrJaLVKI1uiZTGsMovriiVpBM0L0Wyhhf7d5KS9dSrct6sX8BKFqvutKEhBCGcNcgx1krfTqAo1r04EJGhS-oRihQo56CoCT2kdE6Bbfl66erQ", "geometry": {"location": {"lat": 48.84422350000001, "lng": 2.3448276}, "viewport": {"northeast": {"lat": 48.8456133802915, "lng": 2.346030680291502}, "southwest": {"lat": 48.8429154197085, "lng": 2.343332719708498}}}, "opening_hours": {"weekday_text": [], "open_now": false}, "place_id": "ChIJjU2KN-hx5kcR3wlTp_OOrXA", "photos": [{"photo_reference": "CmRaAAAAooTGKL9SQv_vvsUf_YsabpzlQso39tyEgiOkPv_kPqYIHj1RvQgJyltOpBHPOOSRawUFe2WBeYNFmFe7uX-mLejhsiXT1XcBR9Oa5oGAgZvORipTm-HvAOR8MAaCJaIOEhChSBMUIuRNA5fo1GkN-zg7GhQjCiTrfmzeGxqrHq-O2LDeLq8bTw", "width": 4640, "html_attributions": ["<a href=\"https://maps.google.com/maps/contrib/114582577591249035011/photos\">Meraj Khan</a>"], "height": 3480}], "formatted_address": "1 Rue Pierre et Marie Curie, 75005 Paris, France", "id": "b2f8dd7eb6dc8e4ba61da47a0b57faf5b887570a", "types": ["museum", "point_of_interest", "establishment"], "icon": "https://maps.gstatic.com/mapfiles/place_api/icons/museum-71.png"}, {"rating": 4.4, "name": "Museum of Decorative Arts", "reference": "CmRSAAAAMkxc2CkLRQfnVI2uudc3xTDYh8o6Q9lu4eJ2p3tidGFFIyLp_Qg_l3oI-xZZR7rgYXeyOzjuF9ViPRCdBeXBWrCbtTJLGmMRHAKaUpr8_GFcsoCa1HDdhfnj1iQkoI7FEhDB2r4VuMBFo9bYXoJSEKgBGhTWNaYfRbS1bdhT_MFWtc3-BnDwig", "geometry": {"location": {"lat": 48.863063, "lng": 2.3333951}, "viewport": {"northeast": {"lat": 48.86452403029151, "lng": 2.334805930291501}, "southwest": {"lat": 48.86182606970851, "lng": 2.332107969708498}}}, "opening_hours": {"weekday_text": [], "open_now": true}, "place_id": "ChIJ_QwlZC9u5kcRi6OALXVubvc", "photos": [{"photo_reference": "CmRaAAAA71QOv-F8UPNoBXfHVP6aF4AhaeW93UYkv4lm-g32sLQs6bFENgllZi_gEid1pfxCqQpOUseRsQitLNuztlfmZ1Bk0VRSvgohBhk75Bso27ds88vKjTT7SDLQFaQyV2FwEhB02D7ijrnfMROtlQ4c4b7zGhQj1OLeG4Y8dLpbapAghunTYLw3oQ", "width": 4160, "html_attributions": ["<a href=\"https://maps.google.com/maps/contrib/101898502475390465407/photos\">Coco Izzy</a>"], "height": 2340}], "formatted_address": "107 Rue de Rivoli, 75001 Paris, France", "id": "169658dccbc306c41bcd48121afd255e3be81510", "types": ["museum", "point_of_interest", "establishment"], "icon": "https://maps.gstatic.com/mapfiles/place_api/icons/museum-71.png"}, {"rating": 4.4, "name": "Cluny Museum - National Museum of Medieval Art", "reference": "CmRRAAAAsjyqkLzyMiuecPU7xFzEcWE22GL_hV-QtI4d6rF3I0ooD4C8Oe-O__bLaO1_XCtC-dKj7oBE_9_VFDdaV5ePyTgMqruSgRpSscmtAqiXEuEGf-TYxCoe92lTcuK2YQuXEhCe_UWDfL4BJWVcTDu1UF_BGhQp4MhKris-0mNcelBm0SFxCRaEEg", "geometry": {"location": {"lat": 48.8504833, "lng": 2.3440808}, "viewport": {"northeast": {"lat": 48.8517204802915, "lng": 2.345387780291502}, "southwest": {"lat": 48.84902251970851, "lng": 2.342689819708498}}}, "opening_hours": {"weekday_text": [], "open_now": false}, "place_id": "ChIJLxPh9d1x5kcRf7M1U0pu1gU", "photos": [{"photo_reference": "CmRaAAAAOAtv2-fQ7SdqCww0VyKqtYhFOWiAbEWL6vmC2SsU2OYfiaejbo3cT3hB2HtsdBnJGBh85XW9JLuak9nNq8FtOr2KtFsVJpDkUkSzMtEkEE-SX3uyjHBQ8jnxol12l44hEhBy_0YeU-ypl27rhy6FYSXxGhT-khZYbgo-cVcpu3fOyMaQ6JHG-Q", "width": 4320, "html_attributions": ["<a href=\"https://maps.google.com/maps/contrib/105787647052433885325/photos\">Jonathan Letzter</a>"], "height": 3240}], "formatted_address": "6 Place Paul Painlev\u00e9, 75005 Paris, France", "id": "ddc83c8b7be273cc7384a91c31dc4e375967aa44", "types": ["museum", "point_of_interest", "establishment"], "icon": "https://maps.gstatic.com/mapfiles/place_api/icons/museum-71.png"}, {"rating": 4.4, "name": "The Centre Pompidou", "reference": "CmRSAAAAMLm9g-OA1lLmz4QJn4jYzGg6Cb0eo-hX6_luWZLHA9J4_ECla58doPA6W2QzuisNS66VgVUzkYy8woyRsQwSZHRu4O1k7jYPsbzEPg0Xd4HmNda6g8I0xeytwbKm5WfnEhBCPla3dEnKOSSyJhxIa-B5GhTaG5LfJ7A0jY3p0KzHJJUJQT5R0g", "geometry": {"location": {"lat": 48.86064200000001, "lng": 2.352245}, "viewport": {"northeast": {"lat": 48.86193895000001, "lng": 2.3541162}, "southwest": {"lat": 48.85891794999998, "lng": 2.3513682}}}, "opening_hours": {"weekday_text": [], "open_now": false}, "place_id": "ChIJoyC4CRxu5kcRRTPcWX5srLc", "photos": [{"photo_reference": "CmRaAAAAHSDtps9FO6kbO_WGgbLt1N5nQt4X3iVscodKc2fIfUipTh2M9Q3pdf4QwwxrqRqUjiSdWLfW8E1MzXis8nMHjSZQibIwwC-SuUsvxyggYvj7NHp1UqRfhZNThMcyWUhTEhD0NhiQlf9AVh1dq0lrGQ5XGhRmnAjKdrZjeSEkLYmIbNpa9u5AZg", "width": 2028, "html_attributions": ["<a href=\"https://maps.google.com/maps/contrib/106029497379210586274/photos\">Egil Johannessen</a>"], "height": 1350}], "formatted_address": "Place Georges-Pompidou, 75004 Paris, France", "id": "8546df4461a8d783d8452ed7272edbee05a591b0", "types": ["museum", "point_of_interest", "establishment"], "icon": "https://maps.gstatic.com/mapfiles/place_api/icons/museum-71.png"}, {"rating": 4.4, "name": "Biblioth\u00e8que-mus\u00e9e de l'Op\u00e9ra", "reference": "CmRRAAAAyIL9jLmkEL6EiR7PEksAVW_ZdgGKJYWMIb_I0kFvXbbPs_pC2Q1bZdyWzkbBrqiKG8py_6GZhjJPj9pJ-UJ1R011M4efC_UOeTCboQ1kKTVmIo-W9oVcEsuxArjfn3stEhCRpqlgcTWjxC4rXIa9HYfrGhTnIz7FiRG-Q8yy2FUsI-HS0-fynA", "geometry": {"location": {"lat": 48.8720052, "lng": 2.331714099999999}, "viewport": {"northeast": {"lat": 48.8734470302915, "lng": 2.332601830291502}, "southwest": {"lat": 48.8707490697085, "lng": 2.329903869708498}}}, "opening_hours": {"weekday_text": [], "open_now": true}, "place_id": "ChIJ5S5QKjFu5kcRx5gcUAcDn34", "photos": [{"photo_reference": "CmRaAAAASZqJ_gntSM__mXa_ELfERXYA9PjkR5nY_Wy-tPUQGnIBGnAIm75_JbCb18OdC8j95xKvmTqP-d_REzENj9iyTG5Q1LyFPuqnaolpENE3TbhZEoZUqSqWWNsk44lrjpODEhDTW0US2TIYvDU-0h5jALruGhRsdPPB6sAs0hxn7OUPqvBy0h0jjg", "width": 2048, "html_attributions": ["<a href=\"https://maps.google.com/maps/contrib/109104673503451209616/photos\">Vladas Portapas</a>"], "height": 1366}], "formatted_address": "Palais Garnier, 8 Rue Scribe, 75009 Paris, France", "id": "eb5cb03aa6024c679ced7bfe01076c99d6dcebdf", "types": ["museum", "point_of_interest", "establishment"], "icon": "https://maps.gstatic.com/mapfiles/place_api/icons/museum-71.png"}, {"rating": 4.3, "name": "Museum of Minerals MINES ParisTech", "reference": "CmRSAAAArAnaZCwGxespC-kPUtyGbwDp0sIyqpfgetjlhkuCPxiX7vJ5XeMSTxKThFSq6qKtlCsUoPBIzE-WdvC5_rb4_n--H-C8C-rxLEPY-odtqO5BS_8TeEibh_bXe5YYxNFiEhAa7Tn0-ELU2wtqdlUF9v6NGhTpF62sL0lSYr3SR1Vevn3yNWpfTQ", "geometry": {"location": {"lat": 48.8451192, "lng": 2.3394016}, "viewport": {"northeast": {"lat": 48.8466545302915, "lng": 2.340997680291502}, "southwest": {"lat": 48.8439565697085, "lng": 2.338299719708498}}}, "opening_hours": {"weekday_text": [], "open_now": true}, "place_id": "ChIJd104OsNx5kcRqW8-Crk_dKk", "photos": [{"photo_reference": "CmRaAAAA1SvSgEYYI7Ok58FTG7YTRQC5kljyr4vQYDpCJ7XDgV4H2ptLx3Ny_eCo_ZdHbAGgoNmYopOvCebkAhiBhJmmAN_n2Pbu2TDUuG3MQS3Zk2V0rDgGQXX1UAnA5QDEfpEkEhDgu1E3Vo63BQUzpqy_UnG1GhSPDz6A9Ylmfd6Vp8b4si2odcWz9g", "width": 4752, "html_attributions": ["<a href=\"https://maps.google.com/maps/contrib/111187841734342765161/photos\">Enrique L\u00f3pez Ruiz</a>"], "height": 3168}], "formatted_address": "60 Boulevard Saint-Michel, 75006 Paris, France", "id": "2baae64c3b0d4cc01ff4c51b08c1901a0f7350a2", "types": ["museum", "point_of_interest", "establishment"], "icon": "https://maps.gstatic.com/mapfiles/place_api/icons/museum-71.png"}, {"rating": 4.3, "name": "Museum of Art and History of Judaism", "reference": "CmRSAAAAXkbL_dy8eUcCMS_bI04Rvpjyf2JGRaJbSYp6Bm68NuVa3UQ9_4IOFy4tS5peI_AUHLKlN5Udl_tyJ-5LEMRSI_eOK-YmWVPFQ-CaMlNpHxN3XWxzRvKn6tBPzF-LrTn3EhCxWbl6Z3XyTRkO3lh4cDOoGhRV-yfCHAhAJFRBTAMB94jTZQ30iw", "geometry": {"location": {"lat": 48.86101019999999, "lng": 2.3556112}, "viewport": {"northeast": {"lat": 48.86233053029149, "lng": 2.357001580291502}, "southwest": {"lat": 48.85963256970849, "lng": 2.354303619708498}}}, "opening_hours": {"weekday_text": [], "open_now": true}, "place_id": "ChIJydDIqRxu5kcRqB6W-MQwcYU", "photos": [{"photo_reference": "CmRaAAAAB7lnGkPVoa4QEgqBc2r9ihNx9IXI2ApFawdA-KbgWw53bsB20g12ziNA3WZnhU3TVNb7xjzjzL6oATyHe7EvZfyraG--FzxN9YeuHIamaMPblBzidnU2K-kc-bDlOjFqEhAjt0eud7JVQtycL6Ygmi9HGhTeeJH_qgXuWpj7MaLYyKhoVefVTg", "width": 5472, "html_attributions": ["<a href=\"https://maps.google.com/maps/contrib/111439998339572420275/photos\">Sebastian Stein</a>"], "height": 3648}], "formatted_address": "H\u00f4tel de Saint-Aignan, 71 Rue du Temple, 75003 Paris, France", "id": "d792857c93b46cdbf84a4471d25360372a219069", "types": ["museum", "point_of_interest", "establishment"], "icon": "https://maps.gstatic.com/mapfiles/place_api/icons/museum-71.png"}, {"rating": 4.2, "name": "Museum of Freemasonry", "reference": "CmRSAAAAOAT6IbHkIZgocYZShFlTykTp593id5GW0bgMEYsIReqAi0Z-Za6jxJj6mI9ARfqY8b7OEE6tVeEnRg1yHq7vNkjtOykAIX4f80jv9KPouT80xBhzIB9-UmxhkJs6cc6eEhBtk__URcpox49cfQ9Z1KhjGhTqWu55lwCJHUE6gqvlxkaUaxUpfg", "geometry": {"location": {"lat": 48.87488399999999, "lng": 2.34315}, "viewport": {"northeast": {"lat": 48.87625793029149, "lng": 2.344425030291502}, "southwest": {"lat": 48.8735599697085, "lng": 2.341727069708498}}}, "opening_hours": {"weekday_text": [], "open_now": true}, "place_id": "ChIJ5WeFCj9u5kcR7-yd40IpLKY", "photos": [{"photo_reference": "CmRaAAAArQGZMOcDvO0iKjUM2mZZFVMLny65bQBGWXfK55CIgxMUGdH7RCL0n74PwFrB_lv1VZuj6v0QGvxbwNO4W9vBn5-aRysFh0w9NyAkg-oMeie8xKjLdNdbMJuMXmpZxELYEhDJOkDIjKKanPBTTDXhahwrGhTaerLshE7eidUsALdHl1nPxoIjYQ", "width": 1000, "html_attributions": ["<a href=\"https://maps.google.com/maps/contrib/101367942260771836396/photos\">Mus\u00e9e de la franc-ma\u00e7onnerie</a>"], "height": 667}], "formatted_address": "16 Rue Cadet, 75009 Paris, France", "id": "589b462bda8717e4bd4d351aff3be8b4d72fbf0f", "types": ["museum", "point_of_interest", "establishment"], "icon": "https://maps.gstatic.com/mapfiles/place_api/icons/museum-71.png"}, {"rating": 4.2, "name": "Arab World Institute", "reference": "CmRSAAAA9-v2aXv0ThCQ6kr2QV5Gtx-R4pfF4EDiR1HgqcqwSM195rI30pShUeBqq8yFQNRiDKSz0F-ThI9gqwA4e30MHUSjrQ4sM7x1atjOg0VOdzKlZMPTJnaTNbRmWCfJLfYWEhBWMyzJUr6eIts3kIqGlgPBGhTwZawzLeq9dFWOfiPg_W0EZE9gnQ", "geometry": {"location": {"lat": 48.8489257, "lng": 2.3572313}, "viewport": {"northeast": {"lat": 48.8504774302915, "lng": 2.357968730291502}, "southwest": {"lat": 48.8477794697085, "lng": 2.355270769708498}}}, "opening_hours": {"weekday_text": [], "open_now": true}, "place_id": "ChIJK-03I_tx5kcRdA4Cj8VV1b4", "photos": [{"photo_reference": "CmRaAAAATN4WVAoBII4i8yIBjmTFOyQZZZg3-RK-l-YBqsmvTZAi-18IAwlet7kRqd_-KMmNqq8cVMkI8JrogwWqlHmkrg7GtKDWa3JBCpkXT1LqGH4nKxubNzlogWUgrKCMcpWqEhA54z4SoQTLhMWtZNN9gS7qGhS2TMNITRgYbMfB0JBVIvXr18nLOA", "width": 7360, "html_attributions": ["<a href=\"https://maps.google.com/maps/contrib/107248789359318537950/photos\">Shalam Philip</a>"], "height": 4912}], "formatted_address": "1 Rue des Foss\u00e9s Saint-Bernard, 75005 Paris, France", "id": "a7777d0cf2d54e760b4dc330dc8be9e11aac147c", "types": ["library", "museum", "point_of_interest", "establishment"], "icon": "https://maps.gstatic.com/mapfiles/place_api/icons/generic_business-71.png"}, {"rating": 4.2, "name": "Mus\u00e9e du Luxembourg", "reference": "CmRRAAAA4lHQNrfkK_9ehAP9NACGH36F63RojrK_ib0TzLviHLlZBJ8ejkZg-oeeHC_nrKtpOs0KOI-GyXz1McXool3eUbzRBUWgEcZZ7f7ygw64BYRied0A55hoJEQjLdssDEukEhCwcVrtTOmeWb-M0_6h9Lh4GhSFoMp-ku_D83fxAhnBHQpCmE-BzQ", "geometry": {"location": {"lat": 48.8484382, "lng": 2.334057}, "viewport": {"northeast": {"lat": 48.8500518802915, "lng": 2.335244630291502}, "southwest": {"lat": 48.8473539197085, "lng": 2.332546669708498}}}, "opening_hours": {"weekday_text": [], "open_now": true}, "place_id": "ChIJLxJL9dpx5kcR927ocHiDVgI", "photos": [{"photo_reference": "CmRaAAAA4cOKb29AqAY5bB2eFxv5oHpNkiVAgTmc80ypKiABBkRjOaKVFXcQMaJVhwF2D7PO0VAcx7lGrMMVMb4ZZt3GXb4ugF0oc26dxXD6XGBLRSgAt-n2wruij3NoslC1ZoWZEhBaow6rtgFbBoB6BVeRnPW2GhRr50bMiuUSR1CEp3HfY0cybu2VUg", "width": 3264, "html_attributions": ["<a href=\"https://maps.google.com/maps/contrib/105834880555089718048/photos\">Robert SOUBRE</a>"], "height": 2448}], "formatted_address": "19 Rue de Vaugirard, 75006 Paris, France", "id": "a29daacb537d5b6ba9f07748e0b0fa1ac31573f3", "types": ["museum", "point_of_interest", "establishment"], "icon": "https://maps.gstatic.com/mapfiles/place_api/icons/museum-71.png"}, {"rating": 4.1, "name": "Picasso National Museum", "reference": "CmRSAAAAsUciXfH2YcixH6Uura0nR__N9rh-a7qbogUtivcK7GalKAzBeM0W_Kd0wJkW0ThwhGdEt9R76pZknP8JNltkbLLrREAKUTaOKyXAy_YnB3-b5IFa9OJd7_aee91yOIrUEhAuQZwpvH0sy-WPATYpclQVGhRvY9GvJ9hUQ8Nk9W4oLnXjtIl4mA", "geometry": {"location": {"lat": 48.8598775, "lng": 2.362285}, "viewport": {"northeast": {"lat": 48.8611387802915, "lng": 2.363736030291502}, "southwest": {"lat": 48.85844081970851, "lng": 2.361038069708498}}}, "opening_hours": {"weekday_text": [], "open_now": true}, "place_id": "ChIJS2t0QgFu5kcR92388prakcE", "photos": [{"photo_reference": "CmRaAAAAEuFRvQo8IoT-6UL6e8D3SXkl1Y35pFKOSc2b9b8mjfItrnluBlI4Kz9-m_Kz1MvPtetIZNJEY1ZggxEZ2x_v3REbMBTYvTWqkOxnrLzzNtiuwTo2tIx-55dl1zp-amLBEhAFWt3vIHVGc0N_XlZ91Hr6GhQgWAm5aobkfmefMYMIxLe4IRu0yw", "width": 2688, "html_attributions": ["<a href=\"https://maps.google.com/maps/contrib/109220809679236070402/photos\">Cristina \u0218tefania</a>"], "height": 1520}], "formatted_address": "5 Rue de Thorigny, 75003 Paris, France", "id": "437d1813371792fb053268dfe95e2d30ed9c95d6", "types": ["museum", "point_of_interest", "establishment"], "icon": "https://maps.gstatic.com/mapfiles/place_api/icons/museum-71.png"}, {"rating": 4.1, "name": "Mus\u00e9e Gr\u00e9vin", "reference": "CmRRAAAAdIbdvZuycJdHFdXkYLqeW7VobQE1_eqvYwJ0_BbkpSq3A7B9SZw-ufpd0HCmANG6z54DQrgKQYlF3ew5QuDkJ0XiA2VCCpI0bDVmflS4SiPVFwV1Z16KqM1N65w1EvtaEhBDND84sm8ksH95RthWc7rgGhT8j5McyPDBxjj3YePF5xgXcm9T9g", "geometry": {"location": {"lat": 48.87183779999999, "lng": 2.3422204}, "viewport": {"northeast": {"lat": 48.8730949802915, "lng": 2.343531730291502}, "southwest": {"lat": 48.87039701970851, "lng": 2.340833769708498}}}, "place_id": "ChIJVUrgmz5u5kcRWPSN-T8a730", "photos": [{"photo_reference": "CmRaAAAAwdLasJIV6SFNKQza0Av8y9tvPcAIwbs9aZ3fAqF--Sbp-hKHzoS4UqMSGYxk4Ysvs1TujG0Iv-9gasIMX05tvNUBxUKb0ae-jbD-hcHwLcOjYyGRWqqUQVTiaigxaQGcEhCwWnRM7uQ3YzPQOk2wVxvHGhTsFoi5ntMKNgnf68IOvGCmzDNK2w", "width": 5000, "html_attributions": ["<a href=\"https://maps.google.com/maps/contrib/104830790367177263258/photos\">Mus\u00e9e Gr\u00e9vin</a>"], "height": 3328}], "formatted_address": "10 Boulevard Montmartre, 75009 Paris, France", "id": "ad4b7cebe781fa4b1282606a2fe8e57022767726", "types": ["museum", "point_of_interest", "establishment"], "icon": "https://maps.gstatic.com/mapfiles/place_api/icons/museum-71.png"}, {"rating": 4.1, "name": "Mus\u00e9e National Eug\u00e8ne Delacroix", "reference": "CmRSAAAA94Cge4Uzh6mINpO5hoLrw7JtaR7t1ib6hJ3mo7gZFEyQG0guZMLZXFz7RNkukA9lkYQJgbcY50YbOqwbtO1kqzg_Vl4WYqRzPJGkLlnP3qJoRxElviI4uaMUGycVHGc0EhAfGCYJcUnkJERoN3UHatOWGhQQ78w7xkKrvrUI1vKAd806ThKYlw", "geometry": {"location": {"lat": 48.8544557, "lng": 2.3355825}, "viewport": {"northeast": {"lat": 48.8557639302915, "lng": 2.336977880291502}, "southwest": {"lat": 48.8530659697085, "lng": 2.334279919708498}}}, "opening_hours": {"weekday_text": [], "open_now": false}, "place_id": "ChIJrZP7V9hx5kcRQlLc0kYQo44", "photos": [{"photo_reference": "CmRaAAAAAKPcATsr31jbYX3O67xVDI1ekjcY-SxP4DapjbTJrp7TR0PPSW2adolcH2giT2N4jyHvw9lZ6laSsHaiSWKAJjUOMKXMtXBpTvgp48SW1O5DHluXbnny5aF0yE7k7aF6EhBOsscYKgo2wD5X8uEF4IK-GhTU2u0_ZT6FzAgbkKWMjiapakilkQ", "width": 1920, "html_attributions": ["<a href=\"https://maps.google.com/maps/contrib/114394317161364068230/photos\">Io Kouki</a>"], "height": 2560}], "formatted_address": "6 Rue de Furstenberg, 75006 Paris, France", "id": "fe694b503242b37d1ac77decc7395b989aee10dd", "types": ["museum", "point_of_interest", "establishment"], "icon": "https://maps.gstatic.com/mapfiles/place_api/icons/museum-71.png"}, {"rating": 4, "name": "Museum of the History of Medicine", "reference": "CmRRAAAAWStvRapCiSev2ZlKpGMlimUQsR8AukrHtOWBwUHFykEVLToz6n9RxdSyWv_ztczgLqqoemhePWpSqmjh05LWDIOenGeLt5Z_YskgI_ZIAttbMhESTzESvMiRJprI05BhEhBl8KCrH7l_CouI5FKDuogjGhSRHaWVM6P0_FcGkI-nfbb9x7rmPw", "geometry": {"location": {"lat": 48.8512506, "lng": 2.340761}, "viewport": {"northeast": {"lat": 48.8525570302915, "lng": 2.342048680291502}, "southwest": {"lat": 48.8498590697085, "lng": 2.339350719708498}}}, "opening_hours": {"weekday_text": [], "open_now": true}, "place_id": "ChIJgerDKdxx5kcRC6a8bQCNWBo", "photos": [{"photo_reference": "CmRaAAAAXwzT-wYDvJkb9F2QZ5F7jcizApM2crig7kCHsnexn5qXyFRucakSUDeQvSajUgXAbwCLxbrnQ2m_Q7cl6IjyyXJprI-Yy_lMs2Ek4_MghIx-Pv6pPKym1rh78GmH8NYAEhD_B7VmAp8LeEowH0tD25rcGhQ14D1pQg_nJgGEDsgN--tOKtPfgg", "width": 1365, "html_attributions": ["<a href=\"https://maps.google.com/maps/contrib/116727698353915833264/photos\">Mus\u00e9e d&#39;Histoire de la M\u00e9decine</a>"], "height": 1362}], "formatted_address": "12 Rue de l'\u00c9cole de M\u00e9decine, 75006 Paris, France", "id": "c6ab7f9bfacf0ec3fc045da742ef83218c5abcc3", "types": ["museum", "point_of_interest", "establishment"], "icon": "https://maps.gstatic.com/mapfiles/place_api/icons/museum-71.png"}, {"rating": 4, "name": "Adam Mickiewicz Museum", "reference": "CmRSAAAAf9iH11fE5h2g4XMci3YU6Bj7o1Bi3RZ2Sj9VXKyeR7MQ6gzAFQdOYjarwE2g73ThN_Xw6EuGhF_V0CLnXjBZi0JRaniuw4U9rFzO6h_aYDU3HqKanlQc5GuQnG_aVzEvEhBIYd-OboPDb0yfm47mCTczGhQZq7nJP-GxhrQHH8ZyrHyXJ2NRwQ", "geometry": {"location": {"lat": 48.85137749999999, "lng": 2.3556273}, "viewport": {"northeast": {"lat": 48.85265693029149, "lng": 2.357017880291502}, "southwest": {"lat": 48.84995896970849, "lng": 2.354319919708498}}}, "place_id": "ChIJzUK0rvxx5kcRz3yZX9CdtNY", "photos": [{"photo_reference": "CmRaAAAAy4ENCAWdgBU9AE6pQiKqh1hMaJ3woq2iJiieLEIkCeDUfGzGBASlTBTGUBup3GM3nOC6jsYZ2f3LjSQ-d8kJfmi5NAQlF3kBsTNVIPJv0drCTPz3KL0EaNl6OPalQtW8EhAhd4zaDO7f2ncsVhSElWHuGhQrzL-XyWzRv8rXYWsNj8aFsdfNww", "width": 1310, "html_attributions": ["<a href=\"https://maps.google.com/maps/contrib/104198155525513925723/photos\">Endre Horv\u00e1th</a>"], "height": 785}], "formatted_address": "6 Quai d'Orl\u00e9ans, 75004 Paris, France", "id": "dd6482654401f3094b43ba666992db258c854269", "types": ["museum", "point_of_interest", "establishment"], "icon": "https://maps.gstatic.com/mapfiles/place_api/icons/museum-71.png"}, {"rating": 3.8, "name": "Museum of Magic", "reference": "CmRRAAAATmbrUirIHBzvN6DQEGb254E7xUOoBzht9TGrJ_WBaBC8In4xOcUcsveFbhTvEuQvd5bRHX6u1VRznNaYY2rkAM55-M-3u_k87b29bMGhHx9BfaBM8jCvtbY5Iy5Cn5ySEhCLG8mpFzaU_-3qN22OVw3oGhSo3cVFtGGi5FRkRFq6dt0yW8SChw", "geometry": {"location": {"lat": 48.853154, "lng": 2.36116}, "viewport": {"northeast": {"lat": 48.85446128029149, "lng": 2.362554830291502}, "southwest": {"lat": 48.8517633197085, "lng": 2.359856869708498}}}, "opening_hours": {"weekday_text": [], "open_now": false}, "place_id": "ChIJjRsmgv5x5kcR6yiewFFd1wk", "photos": [{"photo_reference": "CmRaAAAAwJVLpcRY6XRvkggG4tSd8KlcwRqv1oGpL89lgJEYTSdYXXlrRYE75dA-KYsin4NKSltvRP35yuaNzQ1F-sgSWj-OCPIydIQY9wkdiatmoBn5Lme0UxVTln9T7Wc833yNEhAdhRYDsOqADJvWTP72Zj6gGhQ_iQR1mmf0aU6JLeBhqTcPDLqsQw", "width": 1004, "html_attributions": ["<a href=\"https://maps.google.com/maps/contrib/102027903217181519853/photos\">Mus\u00e9e de la Magie</a>"], "height": 1005}], "formatted_address": "11 Rue Saint-Paul, 75004 Paris, France", "id": "27fb5eee5aeac5594bb5e50285d6fe7e14af3796", "types": ["museum", "point_of_interest", "establishment"], "icon": "https://maps.gstatic.com/mapfiles/place_api/icons/museum-71.png"}]