[{"rating": 4.7, "name": "Louvre Museum", "reference": "CmRSAAAAcJCHntUvQ8yx4VUnE_SzAjX4zguOm4ktI-DsEmWH8lwxDyfdN9n_mxOSHCUayiXpEQyTJyGki816r-pPdeEaVmDLqkcwZN487ZBTxetQfururlcgMBx2AmxQpthPo2xiEhB7qgzIsVtpxutwjCUWwV5WGhT-6AKnBfxXcwaPwSoIUe7xouyqgA", "price_level": 2, "geometry": {"location": {"lat": 48.8606111, "lng": 2.337644}, "viewport": {"northeast": {"lat": 48.86313575, "lng": 2.3391953}, "southwest": {"lat": 48.85976955, "lng": 2.3329901}}}, "opening_hours": {"weekday_text": [], "open_now": false}, "place_id": "ChIJD3uTd9hx5kcR1IQvGfr8dbk", "photos": [{"photo_reference": "CmRaAAAAik5gj6nJwYlYn5ckNOfRneKpVAtkEPRficRvXbd_3z9ZtG1kF4Jy2CYjpOS6XbtM20fFVSCLURLBosU4Un9BXfaxggN5jYKWfVW6twhZpW3BOKciqbKQiqWFDQoJbIPvEhCB1Yl95LrR2NVBDF2zW3FRGhSYFu2ySLnf65w5vjuyuKB6zvwX7w", "width": 4288, "html_attributions": ["<a href=\"https://maps.google.com/maps/contrib/109983477559905217030/photos\">Christophe Jacquet</a>"], "height": 2848}], "formatted_address": "Rue de Rivoli, 75001 Paris, France", "id": "9a007d81ca8f47ed30ddaf39c4174ef773b351e0", "types": ["museum", "point_of_interest", "establishment"], "icon": "https://maps.gstatic.com/mapfiles/place_api/icons/museum-71.png"}, {"rating": 4.7, "name": "Mus\u00e9e d'Orsay", "reference": "CmRSAAAAvIhxGo5SlRugP0UbckntNC6BROE_1Jt-E565Kyu3vweKgN6bQRTTJ65ipKh6_qSc2ZTt1VL78feCGHEaNLtkaTV42utnrWtYstTC0JQ8LoBqSLzGlodW2oS3QQq6dXCyEhBlzYRdQS9Qiy9WP2ZcNdRxGhRSBn4MiI-QBV6YihDKPhq9p-FKlg", "geometry": {"location": {"lat": 48.8599614, "lng": 2.3265614}, "viewport": {"northeast": {"lat": 48.8615291302915, "lng": 2.3275171}, "southwest": {"lat": 48.8588311697085, "lng": 2.3236943}}}, "opening_hours": {"weekday_text": [], "open_now": false}, "place_id": "ChIJG5Qwtitu5kcR2CNEsYy9cdA", "photos": [{"photo_reference": "CmRaAAAAulIatRDWTEZG-qshQQYiTREw4vyJSCtfU-UoCIXSaD-44oJBJD7gafE9kyR498LZCBBl8GeU-R-w7AVMV0lXVSR2t7IzUn6_OeF-d47t9E9wcOnaQZDnk2M9KpyM-hwKEhDWto0qRJdBxnmKilIjuuYiGhSs_8bt-ThQXZ6lqLf6Y2-qqj1TPQ", "width": 2848, "html_attributions": ["<a href=\"https://maps.google.com/maps/contrib/104198155525513925723/photos\">Endre Horv\u00e1th</a>"], "height": 2136}], "formatted_address": "1 Rue de la L\u00e9gion d'Honneur, 75007 Paris, France", "id": "324ebea255dabc1cb3a5ca92839d3949530e05e3", "types": ["museum", "point_of_interest", "establishment"], "icon": "https://maps.gstatic.com/mapfiles/place_api/icons/museum-71.png"}, {"rating": 4.5, "name": "National Museum of Natural History", "reference": "CmRRAAAAlnPsnd0NYkoSfsGAvh9sd7lS79rfVLzu9xWGh1J5PP2qaBbwiqPXG3WWT3EXIngrQPVY4mFCVLegFk5YULWA-hxiZv5sRAup7x-2I-qjqoItPW98pc10Un_xj7luY48wEhDybx_oYLACIgkzWbY6LUtgGhTCrHP7moXPNqk6WHB_wQGsEGmonQ", "geometry": {"location": {"lat": 48.8443425, "lng": 2.3562101}, "viewport": {"northeast": {"lat": 48.8456914802915, "lng": 2.357559080291502}, "southwest": {"lat": 48.8429935197085, "lng": 2.354861119708498}}}, "opening_hours": {"weekday_text": [], "open_now": false}, "place_id": "ChIJEURALfFx5kcR4cbxSSHWQ0c", "photos": [{"photo_reference": "CmRaAAAAFJXEyaO9we3ktaMUsNHe9JP5Wxsotyxh_dOSRXQRH72ZBFyOrAmVUt0aBvbcDbDPEaTZCaO6m0xOtVOT0TBF0FDdMvalqeIABWsCwFOH_gz6pStbIukRl1_ASBYxnHPbEhB80_eziaMAU-7WJA6y1ax1GhQiB1wC0-PW5oRURIdq6qmUjBfhdg", "width": 4128, "html_attributions": ["<a href=\"https://maps.google.com/maps/contrib/116329647050068364523/photos\">Val\u00e9rie Payen10</a>"], "height": 2322}], "formatted_address": "57 Rue Cuvier, 75005 Paris, France", "id": "c9b20c83264c29f12d01829dad7b5117af7ecf3d", "types": ["museum", "point_of_interest", "establishment"], "icon": "https://maps.gstatic.com/mapfiles/place_api/icons/museum-71.png"}, {"rating": 4.5, "name": "Metiers Art Museum", "reference": "CmRRAAAA4XDNWl7-F6Gduw_oiqvsbSJ-ZtGUBIWKJuWV6E7UmoXl1tWvrr5wAnTwTekW4jJoGu9jQcr9Rja2Kd9OyZ5wxN8s-6UW0Xk9qJWlTA47hjYJ3nnihYjl3Hnwp33yfZYiEhA2ke7yT1frrxedE6dGPTuZGhQLOZgWGRKxwZTP66fMhr1DMdAYyw", "geometry": {"location": {"lat": 48.86663919999999, "lng": 2.3554383}, "viewport": {"northeast": {"lat": 48.86814788029149, "lng": 2.356274980291501}, "southwest": {"lat": 48.8654499197085, "lng": 2.353577019708498}}}, "opening_hours": {"weekday_text": [], "open_now": false}, "place_id": "ChIJNUTIphpu5kcR4h07VuxFIHc", "photos": [{"photo_reference": "CmRaAAAABFLCV2J7_dJOMnyKVYPrRomMrPleKQ7fG1Ev-fVtz2gG3O1GSUFfvdWocMzZ80kPSHHweu7QSwEvTrBxi0GeTClkkWkSQj6S6pYEF3uegOkSgmLv5QuvwTMfoBmYth1GEhBt2SZUx5P4dAnhY0ZVTxnIGhRRz-H4wATES6gLKJJ6Ui9aNgXUgw", "width": 378, "html_attributions": ["<a href=\"https://maps.google.com/maps/contrib/100087783093988552392/photos\">Mus\u00e9e des Arts et M\u00e9tiers</a>"], "height": 378}], "formatted_address": "60 Rue R\u00e9aumur, 75003 Paris, France", "id": "8361ea0e7cef57e52503ed18c71a9c3860a6fd5f", "types": ["museum", "point_of_interest", "establishment"], "icon": "https://maps.gstatic.com/mapfiles/place_api/icons/museum-71.png"}, {"rating": 4.5, "name": "Mus\u00e9e Curie - Institut Curie", "reference": "CmRRAAAA4RRcT_Rx2GpWlKPMUmAFMEqDJfX1zJPBh8_jg66xjP-T9ScFWzAsathoFHU8jnJt3hsTqzRjCyLjBvgUgj4O-2vt3HP_aNRvh44BsuEXnQ7v9ldXmwuTWyBwkVDb43H3EhADBM10fthae-JOS6QpUnMSGhThyDCyhSdy1i7cgbQfeRt5v0nGyA", "geometry": {"location": {"lat": 48.84422350000001, "lng": 2.3448276}, "viewport": {"northeast": {"lat": 48.8456133802915, "lng": 2.346030680291502}, "southwest": {"lat": 48.8429154197085, "lng": 2.343332719708498}}}, "opening_hours": {"weekday_text": [], "open_now": false}, "place_id": "ChIJjU2KN-hx5kcR3wlTp_OOrXA", "photos": [{"photo_reference": "CmRaAAAAraZrW9l5T5tu2js4C0dolCX2TEmb-O-VW1PAXQmi0dRHo76tksxjScgxmfbsvTpUMzmMkDms4gL6jfuB7HNPCw8m2CiFuMT4OHnc76nXM94ehVpuLbLHIg6kL68-o7woEhCl_XwCFjQxwNch1cecgzYXGhTH_U6iebcnwda7yoT36GdMBKNCSA", "width": 4640, "html_attributions": ["<a href=\"https://maps.google.com/maps/contrib/114582577591249035011/photos\">Meraj Khan</a>"], "height": 3480}], "formatted_address": "1 Rue Pierre et Marie Curie, 75005 Paris, France", "id": "b2f8dd7eb6dc8e4ba61da47a0b57faf5b887570a", "types": ["museum", "point_of_interest", "establishment"], "icon": "https://maps.gstatic.com/mapfiles/place_api/icons/museum-71.png"}, {"rating": 4.4, "name": "Museum of Decorative Arts", "reference": "CmRSAAAAXf6lH9aWEVP2ZiZwYrIa6BSNk7eTkyimWYWUqkh_-RlbCzg9oOtBqDbPWPi0zYMwTcPYr7yVyagKqCc1e0f3u-ILc2EFeuI48RH2sde3orZ-ohqo59Igxsqo7MmsCxlsEhBxjGd6p6UkFX5FoK1KvVblGhSQOlm-YFdfNxkivy1lPvZhntXbzw", "geometry": {"location": {"lat": 48.863063, "lng": 2.3333951}, "viewport": {"northeast": {"lat": 48.86452403029151, "lng": 2.334805930291501}, "southwest": {"lat": 48.86182606970851, "lng": 2.332107969708498}}}, "opening_hours": {"weekday_text": [], "open_now": false}, "place_id": "ChIJ_QwlZC9u5kcRi6OALXVubvc", "photos": [{"photo_reference": "CmRaAAAAbWgVJ19luXNXTFc7miKsDYJn0VpqYhc4aU-XSIVnYVORmTVoFCAqga9Y5UoIYYjoWsMVW-FosCqBsiKkVr6fge3mO_wUNxI32fJ7Y_0WhYwRmQPEBHDuzeNr6lLBqaxsEhCTHEUNogoeIGbwpBZxilyoGhQpbA0FUCWRGYu3jVBiYjUYxlI7mg", "width": 4160, "html_attributions": ["<a href=\"https://maps.google.com/maps/contrib/101898502475390465407/photos\">Coco Izzy</a>"], "height": 2340}], "formatted_address": "107 Rue de Rivoli, 75001 Paris, France", "id": "169658dccbc306c41bcd48121afd255e3be81510", "types": ["museum", "point_of_interest", "establishment"], "icon": "https://maps.gstatic.com/mapfiles/place_api/icons/museum-71.png"}, {"rating": 4.4, "name": "Cluny Museum - National Museum of Medieval Art", "reference": "CmRRAAAAHK9BXniICDtwCmWHBaV-3aXUEViWLqLZUH7lCkQcA1jqrmBl-ceHBHW5gpHxr73I7vuTJwkBLVdqS51Mg2edMNG1oYaqK8_R_6itbeGGUu1xvnXUcl8DgWybxnjRoFqtEhBBe8v-dVJ8S77bgck--HKKGhQfzRbFSRefPl16vJkyeCiPcuHpuw", "geometry": {"location": {"lat": 48.8504833, "lng": 2.3440808}, "viewport": {"northeast": {"lat": 48.8517204802915, "lng": 2.345387780291502}, "southwest": {"lat": 48.84902251970851, "lng": 2.342689819708498}}}, "opening_hours": {"weekday_text": [], "open_now": false}, "place_id": "ChIJLxPh9d1x5kcRf7M1U0pu1gU", "photos": [{"photo_reference": "CmRaAAAAbCSU6yN3fnXXivfkyId6erCETLjh-PiPfdp6_ZwKUYpQWtZDsDnWooDvq0_JNl-BSK1nQUOnYbfQuKtO5l1g9Fq4ZvICtzI8a0SEQYa69ohEKTAKpcGQXo3OCMdpuEH2EhDz27W5AlB1HAW_GpjVFF_lGhRcSZ1wdtcL-4E3LRsYKqGip6vreA", "width": 4320, "html_attributions": ["<a href=\"https://maps.google.com/maps/contrib/105787647052433885325/photos\">Jonathan Letzter</a>"], "height": 3240}], "formatted_address": "6 Place Paul Painlev\u00e9, 75005 Paris, France", "id": "ddc83c8b7be273cc7384a91c31dc4e375967aa44", "types": ["museum", "point_of_interest", "establishment"], "icon": "https://maps.gstatic.com/mapfiles/place_api/icons/museum-71.png"}, {"rating": 4.4, "name": "The Centre Pompidou", "reference": "CmRSAAAAOhkxlmJN9KzzTVCvWW6ehj24eUM0O--B0egBXM9YaCYXI_NTwwTX6v7-4FNaQToE0FE50IwkWDslIIYUm_yiiVCnoRQw6D786_5DDq6KF4cpblIUbyqzgBkJ75izsuWGEhDgklJfKGaWATcPAjo7GCy4GhTOeE0qCLUHA6avhWMCYhvGKDZ3qg", "geometry": {"location": {"lat": 48.86064200000001, "lng": 2.352245}, "viewport": {"northeast": {"lat": 48.86193895000001, "lng": 2.3541162}, "southwest": {"lat": 48.85891794999998, "lng": 2.3513682}}}, "opening_hours": {"weekday_text": [], "open_now": false}, "place_id": "ChIJoyC4CRxu5kcRRTPcWX5srLc", "photos": [{"photo_reference": "CmRaAAAARpFQwwecOsomMliZTKWb6wiBJZESnqr7vm9celMKpgECmvrUhUwKWPq6jdjgRsYQLAV3f98T7m7_JXNTCOMRFeK4Lyv3HRYBXcnu6UNgUo4bvqfS5kFN67bmVfVQ4iMjEhArP6f0KjXawjFHqMrQHxdyGhRYL1DYXurfaTQBSnOgKG6LwLThwA", "width": 2028, "html_attributions": ["<a href=\"https://maps.google.com/maps/contrib/106029497379210586274/photos\">Egil Johannessen</a>"], "height": 1350}], "formatted_address": "Place Georges-Pompidou, 75004 Paris, France", "id": "8546df4461a8d783d8452ed7272edbee05a591b0", "types": ["museum", "point_of_interest", "establishment"], "icon": "https://maps.gstatic.com/mapfiles/place_api/icons/museum-71.png"}, {"rating": 4.4, "name": "Biblioth\u00e8que-mus\u00e9e de l'Op\u00e9ra", "reference": "CmRRAAAA06mUUm-44E0IhUCV2DCf9nHYBt78_3hAbsDbOIqhzyWidrboUDATXpEskLEi3R2bF-pXHCCLeBxh8JTv1IjOJ2ebDU4F53VdUSp7W7DMgP1aUMXgy7tJYClyHR2NcZgiEhCIVEa2tDGDOD3FZoZajl6pGhS9WSPvpeIX771tOzD43b6mPLOxoA", "geometry": {"location": {"lat": 48.8720052, "lng": 2.331714099999999}, "viewport": {"northeast": {"lat": 48.8734470302915, "lng": 2.332601830291502}, "southwest": {"lat": 48.8707490697085, "lng": 2.329903869708498}}}, "opening_hours": {"weekday_text": [], "open_now": false}, "place_id": "ChIJ5S5QKjFu5kcRx5gcUAcDn34", "photos": [{"photo_reference": "CmRaAAAATbZ-2IXPOPdIarn16u-o-hYZOmh0ou2fRC1CsKejbExPT1YaxXISiLXgIbfjt-sJ8Ema-MP6MLWESmjs6sVodWsBydGLfP9DaPZvESBfHeCMYQzTtv_uFHueoAo04-6UEhCfLtp2A_shm8y4dc5GMlQZGhRYe_SplIm7_JZb-e-J3mYJk1Ww7w", "width": 2048, "html_attributions": ["<a href=\"https://maps.google.com/maps/contrib/109104673503451209616/photos\">Vladas Portapas</a>"], "height": 1366}], "formatted_address": "Palais Garnier, 8 Rue Scribe, 75009 Paris, France", "id": "eb5cb03aa6024c679ced7bfe01076c99d6dcebdf", "types": ["museum", "point_of_interest", "establishment"], "icon": "https://maps.gstatic.com/mapfiles/place_api/icons/museum-71.png"}, {"rating": 4.3, "name": "Museum of Minerals MINES ParisTech", "reference": "CmRSAAAAZ3WGZpVwFCraHV-RVnlJuzWy-Yu5zv_IJ-OwcQTlHoUJg4iaPm6ai_wFL9aoLVfKPG21U7Cvqrf-U5-pqjRuyTqygzzprzUbGbvCpcMpI4ld1hyVArWQsgY9oAysvc-xEhC7-_Ne-zpikzofpswOHvbRGhRt2pqn0tfIqP4l79fVVF2VENs-1g", "geometry": {"location": {"lat": 48.8451192, "lng": 2.3394016}, "viewport": {"northeast": {"lat": 48.8466545302915, "lng": 2.340997680291502}, "southwest": {"lat": 48.8439565697085, "lng": 2.338299719708498}}}, "opening_hours": {"weekday_text": [], "open_now": false}, "place_id": "ChIJd104OsNx5kcRqW8-Crk_dKk", "photos": [{"photo_reference": "CmRaAAAA4hoQxVDM5bgwiD8EcqRiNurKFdQW2lM8LVD-yUWPhiPoBsg4TeFnSw_3Mu1WaRuzfKv8-UffVDY9PAEmHAkLaMbOqLYjvazQL8B9CwknrQTO6y5Wzu5JaJMoB6jVwN6aEhBgw7RSi3ukceIsWvs6jE8QGhQ714A7rk2t6B2jhThWop1_CZAoOA", "width": 4752, "html_attributions": ["<a href=\"https://maps.google.com/maps/contrib/111187841734342765161/photos\">Enrique L\u00f3pez Ruiz</a>"], "height": 3168}], "formatted_address": "60 Boulevard Saint-Michel, 75006 Paris, France", "id": "2baae64c3b0d4cc01ff4c51b08c1901a0f7350a2", "types": ["museum", "point_of_interest", "establishment"], "icon": "https://maps.gstatic.com/mapfiles/place_api/icons/museum-71.png"}, {"rating": 4.3, "name": "Museum of Art and History of Judaism", "reference": "CmRSAAAAlag0L8V2j6V20I63V1CsV-RuGJqBbQkIRdrQp8qnw62Bb6oVHGJEJBKHbwfuYpyXutPe_4It1-fP_7d0OaU8ErkWmknKoHzouvKJNYPaVWKdjmsKL5ZkyLOr-jmpeUwiEhBgtoSzjIlbx_Q1tJxIphALGhSXPRY9IM8-9C703UcxZ4O45VQAJw", "geometry": {"location": {"lat": 48.86101019999999, "lng": 2.3556112}, "viewport": {"northeast": {"lat": 48.86233053029149, "lng": 2.357001580291502}, "southwest": {"lat": 48.85963256970849, "lng": 2.354303619708498}}}, "opening_hours": {"weekday_text": [], "open_now": false}, "place_id": "ChIJydDIqRxu5kcRqB6W-MQwcYU", "photos": [{"photo_reference": "CmRaAAAAou0LYcuyeoBBNOAJY5rTGTdbV32TSxM3yg0XfwL-fSXdE3boE7No2-sNyO5RSXHkI67t5AxGin7lHZZjx4wXDHqo48uL_iFifUFDeLgU5W6PGMxDdZJlnf17MYFcA2wnEhDHt5TsF4tpIZXpp9CXdnTqGhTEGRGLIl93YQABqiIRf6Sn5TNxPw", "width": 5472, "html_attributions": ["<a href=\"https://maps.google.com/maps/contrib/111439998339572420275/photos\">Sebastian Stein</a>"], "height": 3648}], "formatted_address": "H\u00f4tel de Saint-Aignan, 71 Rue du Temple, 75003 Paris, France", "id": "d792857c93b46cdbf84a4471d25360372a219069", "types": ["museum", "point_of_interest", "establishment"], "icon": "https://maps.gstatic.com/mapfiles/place_api/icons/museum-71.png"}, {"rating": 4.2, "name": "Museum of Freemasonry", "reference": "CmRSAAAA8GKv_NLi7YNUezzPQ2K2u76HzkMT6vTw0qwbLgPF0v_mFYGksvyCZjbYm7wMUgl1FcnTty4mbZbvP4L5HJptOG9PVNrx6uJdF_t36UJiFwB2MOHH6HvEEhKsxQShH85UEhCk2CMo2h6HUj4VhNRi_8F2GhTNHYJ1xnAJKf0ksArSvnjaIE6Sxg", "geometry": {"location": {"lat": 48.87488399999999, "lng": 2.34315}, "viewport": {"northeast": {"lat": 48.87625793029149, "lng": 2.344425030291502}, "southwest": {"lat": 48.8735599697085, "lng": 2.341727069708498}}}, "opening_hours": {"weekday_text": [], "open_now": false}, "place_id": "ChIJ5WeFCj9u5kcR7-yd40IpLKY", "photos": [{"photo_reference": "CmRaAAAAELxoG7chT_0OrVx-SQF_TyECGJJ12rx6spuPqAmJJEaMxXsfLqBVMoWg6IsN-dUbG9sE1YeoxKkGcLBIilFIxosERL0g1S4OEhtRcioDKfbtEEeVfaBPM6y5a-msgFK9EhAhpVN7EVj49u3G_YhTC44IGhQqWC5z30yn1t8g7Wx-Ta2ymlmuSw", "width": 1000, "html_attributions": ["<a href=\"https://maps.google.com/maps/contrib/101367942260771836396/photos\">Mus\u00e9e de la franc-ma\u00e7onnerie</a>"], "height": 667}], "formatted_address": "16 Rue Cadet, 75009 Paris, France", "id": "589b462bda8717e4bd4d351aff3be8b4d72fbf0f", "types": ["museum", "point_of_interest", "establishment"], "icon": "https://maps.gstatic.com/mapfiles/place_api/icons/museum-71.png"}, {"rating": 4.2, "name": "Arab World Institute", "reference": "CmRSAAAALxAhyhi2MD60SQNEzFQOdOQzN6wESI1htaTrdPYW4Ljep3VFDS2H5olJW-E8_84yXvnY2_JTsg1fsYe3CNFwt3XVw-2rT7JSRaFpRlOB5Nl6J3lk4RCSvFjlD6wGs93fEhA_gXAGzd4G4cLpP4RkumhLGhROVClYGZ5V1hJtNkUeVqThQW_0MA", "geometry": {"location": {"lat": 48.8489257, "lng": 2.3572313}, "viewport": {"northeast": {"lat": 48.8504774302915, "lng": 2.357968730291502}, "southwest": {"lat": 48.8477794697085, "lng": 2.355270769708498}}}, "opening_hours": {"weekday_text": [], "open_now": false}, "place_id": "ChIJK-03I_tx5kcRdA4Cj8VV1b4", "photos": [{"photo_reference": "CmRaAAAAG76oO8voVdtNbQxVlU4ZjMn7nPhccdAK1hma_POq2n8hmgtZi_fgdRoIrwQRh--arfTAs-9mSlYnYII-bncWeEFKKNC0EM66TxyLLd7Mpqupvjxhmrwx2JJE7VrWLzX8EhA3Sk8dwpyC95R0Tz_YEcYyGhSBE9lIrjM_fL8VzdeD21OG3Vl4Fg", "width": 7360, "html_attributions": ["<a href=\"https://maps.google.com/maps/contrib/107248789359318537950/photos\">Shalam Philip</a>"], "height": 4912}], "formatted_address": "1 Rue des Foss\u00e9s Saint-Bernard, 75005 Paris, France", "id": "a7777d0cf2d54e760b4dc330dc8be9e11aac147c", "types": ["library", "museum", "point_of_interest", "establishment"], "icon": "https://maps.gstatic.com/mapfiles/place_api/icons/generic_business-71.png"}, {"rating": 4.2, "name": "Mus\u00e9e du Luxembourg", "reference": "CmRRAAAAh76fMzOBU_8yno5dBCH5M9OBrRRdafEaGKerWMPXt6YDcdRm7GZlzIjYa-RzUygxxS-1_5P8MqFFNshrLffBonj3d6l72kjOk8l1JphUYISIR3Yv4cYfYE2Uqc86nTPPEhB9UOrwc_8trDvWaQcDPoTjGhQmDqOfFPZDB4YGvdUms2OwxEK7ww", "geometry": {"location": {"lat": 48.8484382, "lng": 2.334057}, "viewport": {"northeast": {"lat": 48.8500518802915, "lng": 2.335244630291502}, "southwest": {"lat": 48.8473539197085, "lng": 2.332546669708498}}}, "opening_hours": {"weekday_text": [], "open_now": false}, "place_id": "ChIJLxJL9dpx5kcR927ocHiDVgI", "photos": [{"photo_reference": "CmRaAAAAEwrmUkR-ymtcGc0oxf9TAz4_QLzGsa9zHYzZPjUMrQuGeIQh1JsIkb5WJtDnUNvBf3SheewB8xH8a_OurfJZGh30cpm4EZDsCi2K2GxBPOkVi0f28tHIC5epaDbdAaK3EhAWuLlMAllWJZJfUJfhj8gcGhRDEKZG9y_HHX2_MN2FjrnAcuRylQ", "width": 3264, "html_attributions": ["<a href=\"https://maps.google.com/maps/contrib/105834880555089718048/photos\">Robert SOUBRE</a>"], "height": 2448}], "formatted_address": "19 Rue de Vaugirard, 75006 Paris, France", "id": "a29daacb537d5b6ba9f07748e0b0fa1ac31573f3", "types": ["museum", "point_of_interest", "establishment"], "icon": "https://maps.gstatic.com/mapfiles/place_api/icons/museum-71.png"}, {"rating": 4.1, "name": "Picasso National Museum", "reference": "CmRSAAAAv66csDLNWqw0b3frsy3yqP-tpTBDYpxZFNOQ9EfIHN4KOqG88mEUFcXh0GFZGw3cwKrE1z62tBpHGbx3bSKevEixu00sOQmWqcRM2-S46N4wvfIQY6_H2cibZ8tsZWSAEhAFEKWtSj8s4EEjA88uctCOGhSg5EzSkdhtzQuclw3nlRaxYkwCuA", "geometry": {"location": {"lat": 48.8598775, "lng": 2.362285}, "viewport": {"northeast": {"lat": 48.8611387802915, "lng": 2.363736030291502}, "southwest": {"lat": 48.85844081970851, "lng": 2.361038069708498}}}, "opening_hours": {"weekday_text": [], "open_now": false}, "place_id": "ChIJS2t0QgFu5kcR92388prakcE", "photos": [{"photo_reference": "CmRaAAAAdS3brJzO76ULK2I7_sUM6YkmVbuAKqio5M0t5_YVWbAobVT3r-z5V2ZA_Ba-KcKKde3sisGLdVtFhNmIeZs-BkJhhH89oNnadFtAra6-mjg70P0sYDWKLxk9FPFKFYOCEhCw8LC0fY5_th8MSuPEJ3rjGhRPk7ipWHG-24SK-PrSWjYYnhvzeQ", "width": 2688, "html_attributions": ["<a href=\"https://maps.google.com/maps/contrib/109220809679236070402/photos\">Cristina \u0218tefania</a>"], "height": 1520}], "formatted_address": "5 Rue de Thorigny, 75003 Paris, France", "id": "437d1813371792fb053268dfe95e2d30ed9c95d6", "types": ["museum", "point_of_interest", "establishment"], "icon": "https://maps.gstatic.com/mapfiles/place_api/icons/museum-71.png"}, {"rating": 4.1, "name": "Mus\u00e9e Gr\u00e9vin", "reference": "CmRRAAAAKTmazFI7NWkM9fqSSrApIRKytuBBnKHikmtgbzqxIV1ej7C-N3aTdIMQ4HI33Ye5AKrCrzxXOaO640IxdErL6lk5XzyOUY7thsKfXb-J8br9vrNb_kaUeHmHfOOK7W_2EhBfxPjD75cVpCM4Y6vYZDMgGhSu132lbOxarWOucUtNDm1_ZMU5GA", "geometry": {"location": {"lat": 48.87183779999999, "lng": 2.3422204}, "viewport": {"northeast": {"lat": 48.8730949802915, "lng": 2.343531730291502}, "southwest": {"lat": 48.87039701970851, "lng": 2.340833769708498}}}, "place_id": "ChIJVUrgmz5u5kcRWPSN-T8a730", "photos": [{"photo_reference": "CmRaAAAA2sgDognewiwzTti5Y2NiuWP4yhZmEXwMWCLJHr0gxClwXTsMqy8b-e04AOKz_DqmhRFRxfr-g35mHpWTw16dubnHkuG8sR6tyCV85rSBLTlseb8qSAPjjIWjUWYSioFyEhA0evlx_lhTlVZQ61N7h79XGhTtTFZNTlJ9lYPFu_ghNJlfKgLb5w", "width": 5000, "html_attributions": ["<a href=\"https://maps.google.com/maps/contrib/104830790367177263258/photos\">Mus\u00e9e Gr\u00e9vin</a>"], "height": 3328}], "formatted_address": "10 Boulevard Montmartre, 75009 Paris, France", "id": "ad4b7cebe781fa4b1282606a2fe8e57022767726", "types": ["museum", "point_of_interest", "establishment"], "icon": "https://maps.gstatic.com/mapfiles/place_api/icons/museum-71.png"}, {"rating": 4.1, "name": "Mus\u00e9e National Eug\u00e8ne Delacroix", "reference": "CmRSAAAAcjDwVyUHdFIx55yKB3w2NKQHDbaFkV49Od22dfzxjDfwpGTimFm93oGmTAhrC_qVmkE4Tp-AHl9mJbHzNikokc_N4fNCW3oOKDYUUIRP9O43FJNLgxPAnzXuLhlz61GbEhDJHs1JxgTxykfPlmH9TvqbGhRPT8lKeejuuso3Z6thUzvtPfUkIg", "geometry": {"location": {"lat": 48.8544557, "lng": 2.3355825}, "viewport": {"northeast": {"lat": 48.8557639302915, "lng": 2.336977880291502}, "southwest": {"lat": 48.8530659697085, "lng": 2.334279919708498}}}, "opening_hours": {"weekday_text": [], "open_now": false}, "place_id": "ChIJrZP7V9hx5kcRQlLc0kYQo44", "photos": [{"photo_reference": "CmRaAAAAlgVVJ7YRZw85cVgKTmUSiqt7YxuTgVLSjlDIuaoEHD4Z-UVagHZFuNSMevTiLAG7RhGz4EWS8J_Oc_pxoPMwOkTWJyTMubtT9ru8L_qYvBafdQs0WefhYvwQjl0qmVYLEhDknXqW0aOww3Z07L6ozACiGhTB0tXoEg6SI2HEEWdJGWfdw0cvLQ", "width": 1920, "html_attributions": ["<a href=\"https://maps.google.com/maps/contrib/114394317161364068230/photos\">Io Kouki</a>"], "height": 2560}], "formatted_address": "6 Rue de Furstenberg, 75006 Paris, France", "id": "fe694b503242b37d1ac77decc7395b989aee10dd", "types": ["museum", "point_of_interest", "establishment"], "icon": "https://maps.gstatic.com/mapfiles/place_api/icons/museum-71.png"}, {"rating": 4, "name": "Museum of the History of Medicine", "reference": "CmRRAAAABm_CV83YLskk24PUKBYdiB_SnOxTfRs3N_63SAGDN7xkRAUjiGQjaA-qoTvrsEzMnCvNJeEraES0XhgEUH6ODHeR-M0YYx78NUcFa0bu2UQSJ4ttKljkJBpPC45vqMV7EhAxToDRGtqn6xUkq0D1NYLMGhQ_kV3LN8tLuxXycTMApPfbCbXjnA", "geometry": {"location": {"lat": 48.8512506, "lng": 2.340761}, "viewport": {"northeast": {"lat": 48.8525570302915, "lng": 2.342048680291502}, "southwest": {"lat": 48.8498590697085, "lng": 2.339350719708498}}}, "opening_hours": {"weekday_text": [], "open_now": false}, "place_id": "ChIJgerDKdxx5kcRC6a8bQCNWBo", "photos": [{"photo_reference": "CmRaAAAATbfdmxtUadp1kZxV_9Y4xT3jAo9uiFpG0QJB9MCBcLPKYICStSx0KmXPjr0P4BJ_VQZVi0e0PwzjLSMl81fkEc_h4aLDrz1oHJhoA8dvMDZXAoqG8barB0WIcBpaqkPdEhAgXg1E0Upf8wHFZPlfeYbfGhROyJQKQBCSOyc4GlbazTzkNW2nIw", "width": 1365, "html_attributions": ["<a href=\"https://maps.google.com/maps/contrib/116727698353915833264/photos\">Mus\u00e9e d&#39;Histoire de la M\u00e9decine</a>"], "height": 1362}], "formatted_address": "12 Rue de l'\u00c9cole de M\u00e9decine, 75006 Paris, France", "id": "c6ab7f9bfacf0ec3fc045da742ef83218c5abcc3", "types": ["museum", "point_of_interest", "establishment"], "icon": "https://maps.gstatic.com/mapfiles/place_api/icons/museum-71.png"}, {"rating": 4, "name": "Adam Mickiewicz Museum", "reference": "CmRSAAAAGTtR7tzFxSKWoJo08A5NQszLjjgQIMFF20f0rQpmLxVGEbDtv5Q2unKwx4MGyuYl8DFhCx2kFpRt5S2QWFwcHVX4_11VKyQ8jmGpKVdx4X6dxKGEOQ9RFIug0HpQfa0cEhCtnqHFzWzdYmMbZfTPt6_LGhRvw0upsUSxJfJmKhTAMw8H2xjTYQ", "geometry": {"location": {"lat": 48.85137749999999, "lng": 2.3556273}, "viewport": {"northeast": {"lat": 48.85265693029149, "lng": 2.357017880291502}, "southwest": {"lat": 48.84995896970849, "lng": 2.354319919708498}}}, "place_id": "ChIJzUK0rvxx5kcRz3yZX9CdtNY", "photos": [{"photo_reference": "CmRaAAAAtJ2aio5xXf5MBsO3DviyFLQXmks0HoHAVVXBUO3Z0Yi2v9fgDOqumEGZPlmQgx2zgQl1XY8Ezvlg25AO0RaQuNuUq3jQKzVL3u0VZ8uy4W1anSvFS5fI9rpwWRnmWf_4EhCe-p198YBDbmB7TXaCZ6A3GhS5CHlsJHeq8cWsuqGN80KhMkWD3Q", "width": 1310, "html_attributions": ["<a href=\"https://maps.google.com/maps/contrib/104198155525513925723/photos\">Endre Horv\u00e1th</a>"], "height": 785}], "formatted_address": "6 Quai d'Orl\u00e9ans, 75004 Paris, France", "id": "dd6482654401f3094b43ba666992db258c854269", "types": ["museum", "point_of_interest", "establishment"], "icon": "https://maps.gstatic.com/mapfiles/place_api/icons/museum-71.png"}, {"rating": 3.8, "name": "Museum of Magic", "reference": "CmRRAAAAgh_XP8M6HArgzEz5_qNWo0Q3xwgr1mjaeofhwNdLroYPWhxgGivpFAw6bglmFq1z_1_SWbw1cd0Hg4AEfXfFkCWLrldI9goxbPHJo8QeM1lO9Dk1Z1tA4p9Acx5qM0BFEhBujKD_l9XdK0mVDuQJdfB-GhTKUefp1GLu-29I59GuPY8VJkuPWg", "geometry": {"location": {"lat": 48.853154, "lng": 2.36116}, "viewport": {"northeast": {"lat": 48.85446128029149, "lng": 2.362554830291502}, "southwest": {"lat": 48.8517633197085, "lng": 2.359856869708498}}}, "opening_hours": {"weekday_text": [], "open_now": false}, "place_id": "ChIJjRsmgv5x5kcR6yiewFFd1wk", "photos": [{"photo_reference": "CmRaAAAALmLKisky2x3nQ4kiEAnvjfwHfb94zoTg61QVhveasg8eHo2qk3_tEpEq3tlRYNIAyjXIwB-5g3u0c0wjQjIjxfjkLexRQ3hDSVr5eXEZFFuOr2nq6TOb5l-A9xNpXvX6EhALS970Z2B_9o-quXA6vxmhGhTlfGfxfTGum6BQyLLFo93IkuXCCQ", "width": 1004, "html_attributions": ["<a href=\"https://maps.google.com/maps/contrib/102027903217181519853/photos\">Mus\u00e9e de la Magie</a>"], "height": 1005}], "formatted_address": "11 Rue Saint-Paul, 75004 Paris, France", "id": "27fb5eee5aeac5594bb5e50285d6fe7e14af3796", "types": ["museum", "point_of_interest", "establishment"], "icon": "https://maps.gstatic.com/mapfiles/place_api/icons/museum-71.png"}]