[{"rating": 4.7, "name": "Louvre Museum", "reference": "CmRSAAAAfCfUCuybJ-IN6EXlkgxxsC_EGlHHRd-9deylAZ9NuwLRHqcRGY7izufwwToWnx9wJRpk4_1Fdq7abZPlaeKmwyxQocB8TgDQXElf4w_ZVJFDgdlyPw30_34bkB0xpY14EhDcvAfVQG9rvaqdS6oIDSM5GhSM_nRq1Ri9kYvgOpCnKavEb_gQiQ", "price_level": 2, "geometry": {"location": {"lat": 48.8606111, "lng": 2.337644}, "viewport": {"northeast": {"lat": 48.86313575, "lng": 2.3391953}, "southwest": {"lat": 48.85976955, "lng": 2.3329901}}}, "opening_hours": {"weekday_text": [], "open_now": false}, "place_id": "ChIJD3uTd9hx5kcR1IQvGfr8dbk", "photos": [{"photo_reference": "CmRaAAAAKjD0QWWfpHtcDQNkETXkFeXxsswA9fdBILTLs5ctCnSLvw1vUgBarlZsji86sZ6v8603Vf5dHFl7-ebzq9dVCY6dw7WlrRn5MCIQWQTIlLVYZyllziO9s-twCe51YFUVEhDPoxKydEVEojSV6cJ4zJybGhRlocriTKF4YmImVYeMgH8y_5uOeg", "width": 4288, "html_attributions": ["<a href=\"https://maps.google.com/maps/contrib/109983477559905217030/photos\">Christophe Jacquet</a>"], "height": 2848}], "formatted_address": "Rue de Rivoli, 75001 Paris, France", "id": "9a007d81ca8f47ed30ddaf39c4174ef773b351e0", "types": ["museum", "point_of_interest", "establishment"], "icon": "https://maps.gstatic.com/mapfiles/place_api/icons/museum-71.png"}, {"rating": 4.7, "name": "Mus\u00e9e d'Orsay", "reference": "CmRSAAAA86pFcpD_iYQsciDjxZL6uYVp1QgWKw5X2NV8moLvaMADBuc2YmqIzO8Xtm8fhLIAGM9lGuGjZ3iXihJWFV2e8vlZjIpr9nWI0L7S6A7CUvPGrInVKoIA7FCbw4Cu78bUEhA995IvXSNX14LTElDJNTX5GhReT8B6mOLM9tMl_Xse9Wyz9frbVQ", "geometry": {"location": {"lat": 48.8599614, "lng": 2.3265614}, "viewport": {"northeast": {"lat": 48.8615291302915, "lng": 2.3275171}, "southwest": {"lat": 48.8588311697085, "lng": 2.3236943}}}, "opening_hours": {"weekday_text": [], "open_now": true}, "place_id": "ChIJG5Qwtitu5kcR2CNEsYy9cdA", "photos": [{"photo_reference": "CmRaAAAAGP4itIc5j8fhrtQfUUKdWn6NaJFPnwlGFXwIiDpAulehUgUUZgqJjkM4wCapzofzwko0HNMuspozYdKQxzX7YlbUKQAFjJiQAOni66w_OBdfp5r6DLUPG84dOFx0CaG1EhAKDmVLMcdayTz7oSVDPjfmGhRa-eQJyLhXu5x1wWpYE6TJd60BxQ", "width": 2848, "html_attributions": ["<a href=\"https://maps.google.com/maps/contrib/104198155525513925723/photos\">Endre Horv\u00e1th</a>"], "height": 2136}], "formatted_address": "1 Rue de la L\u00e9gion d'Honneur, 75007 Paris, France", "id": "324ebea255dabc1cb3a5ca92839d3949530e05e3", "types": ["museum", "point_of_interest", "establishment"], "icon": "https://maps.gstatic.com/mapfiles/place_api/icons/museum-71.png"}, {"rating": 4.5, "name": "National Museum of Natural History", "reference": "CmRRAAAAtKG7FaEhtDHTH8HD5a-ApJS368rir9ljAisqE1rGtOfC4eGGRlJtJBORMN6eOv0Ws2Tgigxos3OJz1z_OOQoDSxfzkpEFOUPpO_8Y5Y_dCDe2gCuqTMYtgxkN7_erWwWEhCV2iy-nFlJm_XsktDY0vdnGhRVWtAjPnGrEKKeje5ZLKe17kCe6A", "geometry": {"location": {"lat": 48.8443425, "lng": 2.3562101}, "viewport": {"northeast": {"lat": 48.8456914802915, "lng": 2.357559080291502}, "southwest": {"lat": 48.8429935197085, "lng": 2.354861119708498}}}, "opening_hours": {"weekday_text": [], "open_now": false}, "place_id": "ChIJEURALfFx5kcR4cbxSSHWQ0c", "photos": [{"photo_reference": "CmRaAAAAC7KN9T938FebOVMsMXJMEAixDbxSzJwMV98TiWed-mh5VbKY-sSspcAygr8SP2_k3gL3ig2C0ppQ_aL2XHMJyNceCjKQm40UOu72qMIH7GLh9JzHNNMwcw-4mflB4SJCEhDENmqGhuXI0kMAqv8b8L80GhScDJCZ-xvpayCaYGcYRndsBDGq3w", "width": 4128, "html_attributions": ["<a href=\"https://maps.google.com/maps/contrib/116329647050068364523/photos\">Val\u00e9rie Payen10</a>"], "height": 2322}], "formatted_address": "57 Rue Cuvier, 75005 Paris, France", "id": "c9b20c83264c29f12d01829dad7b5117af7ecf3d", "types": ["museum", "point_of_interest", "establishment"], "icon": "https://maps.gstatic.com/mapfiles/place_api/icons/museum-71.png"}, {"rating": 4.5, "name": "Metiers Art Museum", "reference": "CmRRAAAANsU37Rtv1mdPrNtO1vFMwV36gYAMutq-U5-93jIFCz15LhBheo43L7gB9t0WFDBSp7qOJoZnlzRkahF6rLCpzJ_-Q-zMtOdtnJVcGQ6nGAJED3uPYTBn1urrmJVsf-BmEhA_f5V4OU_aR3FVK5Cf28tsGhTdcl5FRQpjh1LhMuocvJVNySln7g", "geometry": {"location": {"lat": 48.86663919999999, "lng": 2.3554383}, "viewport": {"northeast": {"lat": 48.86814788029149, "lng": 2.356274980291501}, "southwest": {"lat": 48.8654499197085, "lng": 2.353577019708498}}}, "opening_hours": {"weekday_text": [], "open_now": true}, "place_id": "ChIJNUTIphpu5kcR4h07VuxFIHc", "photos": [{"photo_reference": "CmRaAAAAWojOxjIdvcjFtCrwwK_C9eQUBYLy2HLUIypK5_qGkHelm9egavhIPTtJ0rNvrVzgPgMj3hRbi47tJQNQJabR-cFwrdC1bSIRXwS2zpe-6-5jAcs2NR3lUchYIONofB01EhDeifFqb_XUvS5SAomIgM88GhRmhz064NBtNP0-UtFupAUeDXEcFQ", "width": 378, "html_attributions": ["<a href=\"https://maps.google.com/maps/contrib/100087783093988552392/photos\">Mus\u00e9e des Arts et M\u00e9tiers</a>"], "height": 378}], "formatted_address": "60 Rue R\u00e9aumur, 75003 Paris, France", "id": "8361ea0e7cef57e52503ed18c71a9c3860a6fd5f", "types": ["museum", "point_of_interest", "establishment"], "icon": "https://maps.gstatic.com/mapfiles/place_api/icons/museum-71.png"}, {"rating": 4.5, "name": "Mus\u00e9e Curie - Institut Curie", "reference": "CmRRAAAAfS8lBvphQ0uPu6i3Mfv9sLvoU3M8JbRhS-WQEB3rgNXj9Z9z7nvU3lUamDHioPwFHV8W_X9pVu_-wqcgTjBzURKhIBDK_46JDMnZJIykFrMjEpE5jJyQwmtDzag43iP3EhCvPDRcMK4HeBUjXoxN4otHGhQ_N4-mlizJb75maq1FNzjaeeDHdQ", "geometry": {"location": {"lat": 48.84422350000001, "lng": 2.3448276}, "viewport": {"northeast": {"lat": 48.8456133802915, "lng": 2.346030680291502}, "southwest": {"lat": 48.8429154197085, "lng": 2.343332719708498}}}, "opening_hours": {"weekday_text": [], "open_now": false}, "place_id": "ChIJjU2KN-hx5kcR3wlTp_OOrXA", "photos": [{"photo_reference": "CmRaAAAAFDaZITTWbSuY_z0tMlhnX6ctnQsJTHY06gyriXCx2iIKZkKya9ZjHcflGZv4Ugdz8vBGhFEJzwyLuFt3uFkJn0SxmO1j-inOtxHGnH2f0P9MdP3TZwUVIqmEkHd1s6_REhAMcjALe4ExIRntllKnviNqGhRfiFdB4IauEQPyjDYw8dVwEUV3TQ", "width": 4640, "html_attributions": ["<a href=\"https://maps.google.com/maps/contrib/114582577591249035011/photos\">Meraj Khan</a>"], "height": 3480}], "formatted_address": "1 Rue Pierre et Marie Curie, 75005 Paris, France", "id": "b2f8dd7eb6dc8e4ba61da47a0b57faf5b887570a", "types": ["museum", "point_of_interest", "establishment"], "icon": "https://maps.gstatic.com/mapfiles/place_api/icons/museum-71.png"}, {"rating": 4.4, "name": "Museum of Decorative Arts", "reference": "CmRSAAAAhlFFUs_iVNOoMej2qW16Y0f4lzS-wTRwgiFIJC3k9A5Mwk4zQDnNQM3CjhYMwELYgMDmZ92XZwfzQGAe7iC9BjpfyToBxJLYFHHYWQUnDQksgioFrMXhLMWnmUw-LnmvEhCg_RWmhqhzikf5BDySaM7DGhTBayP3IX_igHPp0jBnYMvA0Sv2sg", "geometry": {"location": {"lat": 48.863063, "lng": 2.3333951}, "viewport": {"northeast": {"lat": 48.86452403029151, "lng": 2.334805930291501}, "southwest": {"lat": 48.86182606970851, "lng": 2.332107969708498}}}, "opening_hours": {"weekday_text": [], "open_now": true}, "place_id": "ChIJ_QwlZC9u5kcRi6OALXVubvc", "photos": [{"photo_reference": "CmRaAAAAJrWVeBD5c24FZKTUMsBLsqxjtWoPkJtc1qMJzzUDh3A8VNe1DfSZ2qVrf69ZCbzmNmZ4pRebL0Am8VUnkMH9dxHhtE14XrWjNMpk7w6UMCLs7l382ByDa6J0rb7OCP1KEhDKYf31RN-k080LnsJQoqteGhR3Xn4oyPSq4klLtW3b9jhRxJSHVA", "width": 4160, "html_attributions": ["<a href=\"https://maps.google.com/maps/contrib/101898502475390465407/photos\">Coco Izzy</a>"], "height": 2340}], "formatted_address": "107 Rue de Rivoli, 75001 Paris, France", "id": "169658dccbc306c41bcd48121afd255e3be81510", "types": ["museum", "point_of_interest", "establishment"], "icon": "https://maps.gstatic.com/mapfiles/place_api/icons/museum-71.png"}, {"rating": 4.4, "name": "Cluny Museum - National Museum of Medieval Art", "reference": "CmRRAAAARosJeD4FKRbzNBVHntZ2nwRj3cBzoAxg8wXaQsluj5ZEC3Cqsb8dhMR4oRlQaahLBtJth3kFrXNwuBFoPRe0VL1qQuHomaHRRyJTkIK4_O9oYid7KrHpXtdYq8Sb3Kz7EhCLez9fPa2Dgp9zTIeb6hKTGhQ4_tkdeFqVT_LfK_neWnsInnWrhg", "geometry": {"location": {"lat": 48.8504833, "lng": 2.3440808}, "viewport": {"northeast": {"lat": 48.8517204802915, "lng": 2.345387780291502}, "southwest": {"lat": 48.84902251970851, "lng": 2.342689819708498}}}, "opening_hours": {"weekday_text": [], "open_now": false}, "place_id": "ChIJLxPh9d1x5kcRf7M1U0pu1gU", "photos": [{"photo_reference": "CmRaAAAArzdvY6Qaa20YdhZeFjnmqSAQBNHPY8KTx8qKHueJyGKq-gTtQP9i0ZYMStgpRv0bKFrdAmLjKIzzNkBQk8Odf313xn_ITGLIy_ZEbcWIwuDdmOvNaJcEd_pq_F3HHllfEhBRGbiSJtqkLxEzjRB--6vsGhSqddVWdYJ9abJaTD_KrHQ9NlbBKQ", "width": 4320, "html_attributions": ["<a href=\"https://maps.google.com/maps/contrib/105787647052433885325/photos\">Jonathan Letzter</a>"], "height": 3240}], "formatted_address": "6 Place Paul Painlev\u00e9, 75005 Paris, France", "id": "ddc83c8b7be273cc7384a91c31dc4e375967aa44", "types": ["museum", "point_of_interest", "establishment"], "icon": "https://maps.gstatic.com/mapfiles/place_api/icons/museum-71.png"}, {"rating": 4.4, "name": "The Centre Pompidou", "reference": "CmRSAAAAnA-EuvYZWwrOjP2NLCHHgRaQi4YLE49_wk5l4Xx0fPL1E8OBgNFauDmwaGg2gjfmicqa1FxzdffjRFmCsVzIBZMlwRN5PAUv6pGYwloCpE_coaAVT3SL6bmFyPB64rRlEhAEsb9DzwcxyQ3B1yKxg1cOGhQ04OBfEXpNyF2YJuwI1LGagWiCXw", "geometry": {"location": {"lat": 48.86064200000001, "lng": 2.352245}, "viewport": {"northeast": {"lat": 48.86193895000001, "lng": 2.3541162}, "southwest": {"lat": 48.85891794999998, "lng": 2.3513682}}}, "opening_hours": {"weekday_text": [], "open_now": false}, "place_id": "ChIJoyC4CRxu5kcRRTPcWX5srLc", "photos": [{"photo_reference": "CmRaAAAAFG6JUXqvB6gEYi8hut3SHQictbtNXJijZ3MZyRjbovfbbD-U9CDSeD6hLIjeK_LtE2tqG_oVe5-d4_fQ-T3flztRxbWbY6EQrYKdpG0q2fEQNC6EtJoWx6hp0tfo2_Q3EhD1Xup7jfpORjsZ5S7CcmOlGhRPjPXJ45KqGk9KAxl9n_sC7NJ7aQ", "width": 2028, "html_attributions": ["<a href=\"https://maps.google.com/maps/contrib/106029497379210586274/photos\">Egil Johannessen</a>"], "height": 1350}], "formatted_address": "Place Georges-Pompidou, 75004 Paris, France", "id": "8546df4461a8d783d8452ed7272edbee05a591b0", "types": ["museum", "point_of_interest", "establishment"], "icon": "https://maps.gstatic.com/mapfiles/place_api/icons/museum-71.png"}, {"rating": 4.4, "name": "Biblioth\u00e8que-mus\u00e9e de l'Op\u00e9ra", "reference": "CmRRAAAAYtLggT1DTJ2n2amrnauxn8AyMtChwNP_OzKwt2xXjp3WOGUTI9IBuvgkcykL4UoQP9bsqRKNQrf_OOPuiGSlOqp09qfZY9PJEItUDrfB8c_TXSGxlrCsntHbRHyhvchqEhDMiZNLKilKTuZC2AEj4tIVGhTImLR3S8SVqovQ6UBA-Vvnzp53Hw", "geometry": {"location": {"lat": 48.8720052, "lng": 2.331714099999999}, "viewport": {"northeast": {"lat": 48.8734470302915, "lng": 2.332601830291502}, "southwest": {"lat": 48.8707490697085, "lng": 2.329903869708498}}}, "opening_hours": {"weekday_text": [], "open_now": true}, "place_id": "ChIJ5S5QKjFu5kcRx5gcUAcDn34", "photos": [{"photo_reference": "CmRaAAAAMpWiH1dcHxTbxZt-PtGAME6nNR2gvWYi9M0cBS8nmQZ0gjNPaJ10pdTBgPjMPaNdyBW3NiRvI3Ut6wX0vsmR3XVdVkpnCQ1eWIxrjsGbEfNvM1FaVRuVCVFtcTCqnCVnEhCBs_u9i965emgIoMJZQD7ZGhT991jlnhnB2gBcJyJCp9L1jSxWZQ", "width": 2048, "html_attributions": ["<a href=\"https://maps.google.com/maps/contrib/109104673503451209616/photos\">Vladas Portapas</a>"], "height": 1366}], "formatted_address": "Palais Garnier, 8 Rue Scribe, 75009 Paris, France", "id": "eb5cb03aa6024c679ced7bfe01076c99d6dcebdf", "types": ["museum", "point_of_interest", "establishment"], "icon": "https://maps.gstatic.com/mapfiles/place_api/icons/museum-71.png"}, {"rating": 4.3, "name": "Museum of Minerals MINES ParisTech", "reference": "CmRSAAAALqU4GiOmPFtycT6syoUL5iO4axuu_s-VNqmteoignUhogQ9K61AGmhCO4lzX1u7qDLAPv5DrX9wWTB-4B_m7L3sW14OaAcObNnlVRnLNhb4i3n4Ep71d-FowDUVf0qh3EhBUC9IJWcATK_YWFQhzW57FGhTNoATaaRPwlAzTA_heG27RPP8_bQ", "geometry": {"location": {"lat": 48.8451192, "lng": 2.3394016}, "viewport": {"northeast": {"lat": 48.8466545302915, "lng": 2.340997680291502}, "southwest": {"lat": 48.8439565697085, "lng": 2.338299719708498}}}, "opening_hours": {"weekday_text": [], "open_now": false}, "place_id": "ChIJd104OsNx5kcRqW8-Crk_dKk", "photos": [{"photo_reference": "CmRaAAAAnoTbX7weibp5JjjNZs-iQ3CXfzz0Rduk8wMkSPC9yJ2H4qCJqCxdeyAYS5v4lYN_g4BFiBKF_C2EmK1Lw6sqZ2Lk01SRB6usnr0ot6ruPDRdwZ4nTv7r6kW-y_v8QAZ2EhBUMnLCH230K2do1EnfOzgLGhSEAhl-7eAQYC7oyjpuyCrmM-BupQ", "width": 4752, "html_attributions": ["<a href=\"https://maps.google.com/maps/contrib/111187841734342765161/photos\">Enrique L\u00f3pez Ruiz</a>"], "height": 3168}], "formatted_address": "60 Boulevard Saint-Michel, 75006 Paris, France", "id": "2baae64c3b0d4cc01ff4c51b08c1901a0f7350a2", "types": ["museum", "point_of_interest", "establishment"], "icon": "https://maps.gstatic.com/mapfiles/place_api/icons/museum-71.png"}, {"rating": 4.3, "name": "Museum of Art and History of Judaism", "reference": "CmRSAAAAkPmhJCPMnsTxDHgkFuUojkGopk52byNL1yo1YEG7NykKH3f9mEComQU9iQT_5uzO3tVsLl_zRCxkmNAo889hEMpYQxBElXyDc9sm5MjfzGljOte4Oq5O7g2uUEaTh0RJEhB1241GI7rEheCgtIac1oBGGhTZge9Ca0m4e63DlhyA3IyCL72IWA", "geometry": {"location": {"lat": 48.86101019999999, "lng": 2.3556112}, "viewport": {"northeast": {"lat": 48.86233053029149, "lng": 2.357001580291502}, "southwest": {"lat": 48.85963256970849, "lng": 2.354303619708498}}}, "opening_hours": {"weekday_text": [], "open_now": true}, "place_id": "ChIJydDIqRxu5kcRqB6W-MQwcYU", "photos": [{"photo_reference": "CmRaAAAA9Rr1a5qucyuQM3FX0DjYvB7SUhKnsT-JTxiwonrHxtaY7O_5C_QpxHbMpW2XDTpF7lMDAcYlYR0FIG3WJCOmXG2YoaykQRgTpMTFr8AYOH0QQ8AaLY6n3_8qwrrEHvjfEhD-kQo1R6sBHvGaQ3IoJBE9GhTZdpMNN5uKMvUttIvNdd9FGCe9ug", "width": 5472, "html_attributions": ["<a href=\"https://maps.google.com/maps/contrib/111439998339572420275/photos\">Sebastian Stein</a>"], "height": 3648}], "formatted_address": "H\u00f4tel de Saint-Aignan, 71 Rue du Temple, 75003 Paris, France", "id": "d792857c93b46cdbf84a4471d25360372a219069", "types": ["museum", "point_of_interest", "establishment"], "icon": "https://maps.gstatic.com/mapfiles/place_api/icons/museum-71.png"}, {"rating": 4.2, "name": "Museum of Freemasonry", "reference": "CmRSAAAArR_c4pRMvOI-266tk_GaEk6p4akg4tpZX0S1KeHG3NF_VgBFsmjq73L5X-BGCSVat02LI2J0rjBKUI1OYFaWjGBjtXZ6tUEVH2JPFFA95IntYM6HejlWNIQLDZhyzvNHEhCE7Zf_cCPvdrGJgXvehB4iGhSywWm7N7i_x1e9Nq04WsEvsoM8VA", "geometry": {"location": {"lat": 48.87488399999999, "lng": 2.34315}, "viewport": {"northeast": {"lat": 48.87625793029149, "lng": 2.344425030291502}, "southwest": {"lat": 48.8735599697085, "lng": 2.341727069708498}}}, "opening_hours": {"weekday_text": [], "open_now": true}, "place_id": "ChIJ5WeFCj9u5kcR7-yd40IpLKY", "photos": [{"photo_reference": "CmRaAAAAx1TvcwR6JoyVNJ39DXQx-D1Xt4sW4UVnLzAPIaoqyBaPwD6q8iWKh-4rk7Cje6sDKmWMDcw4iBr4CdxeOwUNQ5GhFLDBu2yeJ-OC_S8BMVL-wGi3f8qBou5uISNg3tLkEhAHzJMim0JHeK7SftJPRktmGhRe_GWzAD8Odc9IKslh9FrMmFdQaw", "width": 1000, "html_attributions": ["<a href=\"https://maps.google.com/maps/contrib/101367942260771836396/photos\">Mus\u00e9e de la franc-ma\u00e7onnerie</a>"], "height": 667}], "formatted_address": "16 Rue Cadet, 75009 Paris, France", "id": "589b462bda8717e4bd4d351aff3be8b4d72fbf0f", "types": ["museum", "point_of_interest", "establishment"], "icon": "https://maps.gstatic.com/mapfiles/place_api/icons/museum-71.png"}, {"rating": 4.2, "name": "Arab World Institute", "reference": "CmRSAAAA9tnPE38Aq93sBtpyzFr4eY57JY-sqWLQhvLGiehXQ0uEvF82oGGB7QWSK7N2uglmq82zaNcoP4WpQ2HKVT2ne2GTU-a7c2OCQC7WBhFxyX9y9yBGCen2D7wos8P_FRbDEhAY3-9bgOj5KkY4dgUO1pQ9GhT5ZH1Qmf2G5fn1i488vekP8VmWiA", "geometry": {"location": {"lat": 48.8489257, "lng": 2.3572313}, "viewport": {"northeast": {"lat": 48.8504774302915, "lng": 2.357968730291502}, "southwest": {"lat": 48.8477794697085, "lng": 2.355270769708498}}}, "opening_hours": {"weekday_text": [], "open_now": true}, "place_id": "ChIJK-03I_tx5kcRdA4Cj8VV1b4", "photos": [{"photo_reference": "CmRaAAAA1B3BnfrQyAYyrUE6hf_k_VV_LwhbitgsT-1Wt_Ugu1aAN3wQjTP7-pKU60x-ermc8AGM7FB_FCxsuMq-WdU6OezkEQD8eSa_B0SA2tNGISZysGKPjeAIlNoCBT0l-i6YEhC_xheNDGpmeMJMjgmSUWb1GhQZ0vOTZCp_g9ov9aKXb2tKKGAgiA", "width": 7360, "html_attributions": ["<a href=\"https://maps.google.com/maps/contrib/107248789359318537950/photos\">Shalam Philip</a>"], "height": 4912}], "formatted_address": "1 Rue des Foss\u00e9s Saint-Bernard, 75005 Paris, France", "id": "a7777d0cf2d54e760b4dc330dc8be9e11aac147c", "types": ["library", "museum", "point_of_interest", "establishment"], "icon": "https://maps.gstatic.com/mapfiles/place_api/icons/generic_business-71.png"}, {"rating": 4.2, "name": "Mus\u00e9e du Luxembourg", "reference": "CmRRAAAAZIuCyHVb2-2FuIb7JTHIVzbm3jdLWD5C-GTiF25yZnoRumf-uoLflGWrpRGO_gZFZszbBDpoKSHVLnJNvQ_kIzyr635to2TBzf-BtW24kwfpn7KVZnY0rftwoGR19OhkEhAujSn8VOd9w-LoAtnXcVbBGhSCDZiEiV47XfjxAvUe-X6vlenMkQ", "geometry": {"location": {"lat": 48.8484382, "lng": 2.334057}, "viewport": {"northeast": {"lat": 48.8500518802915, "lng": 2.335244630291502}, "southwest": {"lat": 48.8473539197085, "lng": 2.332546669708498}}}, "opening_hours": {"weekday_text": [], "open_now": true}, "place_id": "ChIJLxJL9dpx5kcR927ocHiDVgI", "photos": [{"photo_reference": "CmRaAAAAY9L55hv43jm_AdXqpYpBxpMVMtQqABkr1kSq8QkcgF5YfllNVa_F51ogvPg3angVsH9HX9Lqcmv719zJAtpNyc1Ts37OpxoAL8SvGUTys8Q8DX1q1FOQZ76s82Egizq3EhB_Dj__fNyVj9XSfSUKQ1nUGhQxpFShwTLMXn38B6eDWwfTwfjeRQ", "width": 3264, "html_attributions": ["<a href=\"https://maps.google.com/maps/contrib/105834880555089718048/photos\">Robert SOUBRE</a>"], "height": 2448}], "formatted_address": "19 Rue de Vaugirard, 75006 Paris, France", "id": "a29daacb537d5b6ba9f07748e0b0fa1ac31573f3", "types": ["museum", "point_of_interest", "establishment"], "icon": "https://maps.gstatic.com/mapfiles/place_api/icons/museum-71.png"}, {"rating": 4.1, "name": "Picasso National Museum", "reference": "CmRSAAAAhIZr89FsGTD_GfhFXj9As6mF2ok3ylUOvot4Kd3ChbJ41AMSIKxKuCodw5Ouu5GdDRT91ezXwqFf6cWJOMlOzO_l8foY0ZMzEhBmaMDyUJFqVXiD5psNvNVJry9S_d2BEhAuzXTTdCoyDBWtzIQ9jJMyGhTBsMMYpNpLLX1rghA-cvfOoTdalw", "geometry": {"location": {"lat": 48.8598775, "lng": 2.362285}, "viewport": {"northeast": {"lat": 48.8611387802915, "lng": 2.363736030291502}, "southwest": {"lat": 48.85844081970851, "lng": 2.361038069708498}}}, "opening_hours": {"weekday_text": [], "open_now": true}, "place_id": "ChIJS2t0QgFu5kcR92388prakcE", "photos": [{"photo_reference": "CmRaAAAAYOne7Yqg4woy-pglAk-NOpH898Octs7DfUT8sBxOOatvaKqcbibFEQicjHP5D2_2oS6KYKwso3ab8L5JBsenI_ZR_fWAUBhS6Yty8UJYrFWRvfv_TxQ0sVfY4zlJ9t_qEhDwVw_P8M5ECqJWPqvpjR0_GhRAehreKxdKCOywmJAXY-37SmDhYw", "width": 2688, "html_attributions": ["<a href=\"https://maps.google.com/maps/contrib/109220809679236070402/photos\">Cristina \u0218tefania</a>"], "height": 1520}], "formatted_address": "5 Rue de Thorigny, 75003 Paris, France", "id": "437d1813371792fb053268dfe95e2d30ed9c95d6", "types": ["museum", "point_of_interest", "establishment"], "icon": "https://maps.gstatic.com/mapfiles/place_api/icons/museum-71.png"}, {"rating": 4.1, "name": "Mus\u00e9e Gr\u00e9vin", "reference": "CmRRAAAAdHOWi-UKQhxLUF_4xqdYG5Jyuqn4jVit9xZrQ0a_TqnFMi7DVIQjRPSY5N4SFxfTlAHV1JMlZ_-VN336t8raA54RVhlVOsRdA7pglpnHjgzp_ZMnK58uAr5jSGfhqo49EhB2l1sOPlgeq5NU9vicnsmnGhTjUasYi_ZBTZlE0ePGAiNO2DBuQg", "geometry": {"location": {"lat": 48.87183779999999, "lng": 2.3422204}, "viewport": {"northeast": {"lat": 48.8730949802915, "lng": 2.343531730291502}, "southwest": {"lat": 48.87039701970851, "lng": 2.340833769708498}}}, "place_id": "ChIJVUrgmz5u5kcRWPSN-T8a730", "photos": [{"photo_reference": "CmRaAAAAlEvVNM8y_dQMIXtKHcS8MiR5Y4MEXSwYR8XtkXmJE1QLeqcxpYdZdlERi1t7DqkMpMXCefAJ-JEhPq28qg8oEXpXB6HP7y95EWBZRql8SaOzASc7n1My6FeI0SJu45GjEhAR5EheX6exmMW7wxRfKbcHGhTFkbeVczQc6jwR4G2_lValukPpYg", "width": 5000, "html_attributions": ["<a href=\"https://maps.google.com/maps/contrib/104830790367177263258/photos\">Mus\u00e9e Gr\u00e9vin</a>"], "height": 3328}], "formatted_address": "10 Boulevard Montmartre, 75009 Paris, France", "id": "ad4b7cebe781fa4b1282606a2fe8e57022767726", "types": ["museum", "point_of_interest", "establishment"], "icon": "https://maps.gstatic.com/mapfiles/place_api/icons/museum-71.png"}, {"rating": 4, "name": "Museum of the History of Medicine", "reference": "CmRRAAAAdYnivCEQxGwCMCkZ6oqVK--aDz-tH5WgitqB8RTpJNS5ZqHjTZYoJR0VZtrVk_V0K2JUy1r21UrQSR4tEiDzZBi0zLZTwOHDoTRL2FjLBr7K5twhFWgY9vg8pqnbISjWEhCigppNsiahyEqRrya_s4b-GhRMEJBWguzwIMThVdwIUzt120cgqQ", "geometry": {"location": {"lat": 48.8512506, "lng": 2.340761}, "viewport": {"northeast": {"lat": 48.8525570302915, "lng": 2.342048680291502}, "southwest": {"lat": 48.8498590697085, "lng": 2.339350719708498}}}, "opening_hours": {"weekday_text": [], "open_now": false}, "place_id": "ChIJgerDKdxx5kcRC6a8bQCNWBo", "photos": [{"photo_reference": "CmRaAAAAjpzup1nFwc7nvngNPtCPdRJcL0bHGwjiEs5AcrIOPzun1jDM8TYTE7DeG3KZ7nO3uLOo-zzGUjMXgddjAnBtF4NaHbUl0WJvNBeRrcTG7v-nK0Oc_Bg9xZzeqI1ZAvYHEhCxiAFUG2I3MLvw5kqi58fbGhQFCaTTbKHRvCFDTRQFdTxy1NppgA", "width": 1365, "html_attributions": ["<a href=\"https://maps.google.com/maps/contrib/116727698353915833264/photos\">Mus\u00e9e d&#39;Histoire de la M\u00e9decine</a>"], "height": 1362}], "formatted_address": "12 Rue de l'\u00c9cole de M\u00e9decine, 75006 Paris, France", "id": "c6ab7f9bfacf0ec3fc045da742ef83218c5abcc3", "types": ["museum", "point_of_interest", "establishment"], "icon": "https://maps.gstatic.com/mapfiles/place_api/icons/museum-71.png"}, {"rating": 4, "name": "Adam Mickiewicz Museum", "reference": "CmRSAAAAHS8dq0bDJBs3L5B_WghBZgCCQyQZIkltjz-6WWA0U_sxPTxO4rp8LrFCpMpwBx9CvyF6cSNN4-r31jaFDHRGkdu28KXlofBvm0-D5GHH1g5a7_VoZIJB4NuPNhj6Os0jEhDPfC8ufoyqrAlk9BphIunuGhQMMdvGnDlOH9tcqiYzm0PXhl-hLg", "geometry": {"location": {"lat": 48.85137749999999, "lng": 2.3556273}, "viewport": {"northeast": {"lat": 48.85265693029149, "lng": 2.357017880291502}, "southwest": {"lat": 48.84995896970849, "lng": 2.354319919708498}}}, "place_id": "ChIJzUK0rvxx5kcRz3yZX9CdtNY", "photos": [{"photo_reference": "CmRaAAAAGMJIdvLt0QsQTDr7crm5EARFVBLjY960m0hZgU34bJ-bNeylPn4YDrkXdRkT3rGZ7YLyBlFtXhl-BDn8jDGsFiFrzSS1oXGInBvho1BjZEkjP2AXldX_cQKJR6gHFcUeEhAEeh7VD49-KCrxyKNOLDawGhRkDUiHHfAWcXsXEe2v7vH202WEtg", "width": 1310, "html_attributions": ["<a href=\"https://maps.google.com/maps/contrib/104198155525513925723/photos\">Endre Horv\u00e1th</a>"], "height": 785}], "formatted_address": "6 Quai d'Orl\u00e9ans, 75004 Paris, France", "id": "dd6482654401f3094b43ba666992db258c854269", "types": ["museum", "point_of_interest", "establishment"], "icon": "https://maps.gstatic.com/mapfiles/place_api/icons/museum-71.png"}, {"rating": 3.9, "name": "Choco-Story Paris - Mus\u00e9e du Chocolat", "reference": "CmRRAAAAjyv66T6GRYJNaIp4wZ6lK5WfTIZU3E5ARZqVC1OwCWtclWlOqEwhCkquVeO21Xn2pU4yIEegEiSzFxCxnK0-g-7-mfdXANzXicbN2hHLf5n8H0H3tpwE5v5swDxInBMhEhCd8b9Ug2M8--bqDdBF-vo4GhTa7fuhkaJYLNaGZAQsrUnC5hDsvw", "geometry": {"location": {"lat": 48.8706183, "lng": 2.3500979}, "viewport": {"northeast": {"lat": 48.8718008802915, "lng": 2.351367480291501}, "southwest": {"lat": 48.8691029197085, "lng": 2.348669519708498}}}, "opening_hours": {"weekday_text": [], "open_now": true}, "place_id": "ChIJUeI3vBZu5kcRYj9XxE8ADVQ", "photos": [{"photo_reference": "CmRaAAAAEGUlU53Fro_yeWWizNL4JbTqFTnFzStFYWDw6o7KaTGvKTkO7QkjFyvP78bGO8EDp4SmLByJ40T3Fo9KEtS1tbeJCVIuF6lP4OfdvWUVVxljaqdjDKhCBtrXdtmkyIYCEhD1k_Dvjt1nTA2gcR9zHZOyGhSdhchItUCAG5VT0-kLciKQllP5iA", "width": 2048, "html_attributions": ["<a href=\"https://maps.google.com/maps/contrib/101968019975180514983/photos\">gary turner</a>"], "height": 1152}], "formatted_address": "28 Boulevard de Bonne Nouvelle, 75010 Paris, France", "id": "1f9611517d91f90354ff40cac42a4c9419277207", "types": ["museum", "food", "store", "point_of_interest", "establishment"], "icon": "https://maps.gstatic.com/mapfiles/place_api/icons/museum-71.png"}, {"rating": 3.8, "name": "Museum of Magic", "reference": "CmRRAAAAQxNWbNlMYjrd-fhgCenq2mBF66FQSnXFQs1hK2O_ESA87kJwtMHgyMZxjUY_mQYfB652ofYkG3M9j8VqfWzio2k9L6BkexTmEJ1nPsGVcT80fg5HMfpwsdyGl4SxEdL1EhAeFB3JE4o9CzmcHDwtQoINGhT2SEdYDsnSrlOZTqZbQZeTl6NEfw", "geometry": {"location": {"lat": 48.853154, "lng": 2.36116}, "viewport": {"northeast": {"lat": 48.85446128029149, "lng": 2.362554830291502}, "southwest": {"lat": 48.8517633197085, "lng": 2.359856869708498}}}, "opening_hours": {"weekday_text": [], "open_now": false}, "place_id": "ChIJjRsmgv5x5kcR6yiewFFd1wk", "photos": [{"photo_reference": "CmRaAAAAR0_X47qBUIFj7XMhBIkjiZeZuW8wISqpziEuyx6khUDschJpMjzM199hb94cv-zduNNEMKlG6-046zCLh2RTWh63dcRllsEh6NBIXGkqBnvd-Dz3utwl-L0O0ajpIw9vEhCJXmGRJZASJfHN9mFNM2S6GhQ7y243zAQHOd1eGq7vuu5y8Pt_ew", "width": 1004, "html_attributions": ["<a href=\"https://maps.google.com/maps/contrib/102027903217181519853/photos\">Mus\u00e9e de la Magie</a>"], "height": 1005}], "formatted_address": "11 Rue Saint-Paul, 75004 Paris, France", "id": "27fb5eee5aeac5594bb5e50285d6fe7e14af3796", "types": ["museum", "point_of_interest", "establishment"], "icon": "https://maps.gstatic.com/mapfiles/place_api/icons/museum-71.png"}]