[{"rating": 5, "name": "Anantara Spa", "reference": "CmRSAAAAU_hZz3ZPslRh6hauTqtUomr8PZK8Gwc6WTmUs3uP6YYdgWw2SvCTn8q1vwUok_oyWl5T2YEoxWlDivcN868kLwsVLtZ5xUhMSDjE484eq76IKxQlMcTttzk4PfuHA1IfEhAwr8H2vFy4GydyAuthUqyyGhSlU99_ykHDydgNZ0vXXOVcCEoFww", "geometry": {"location": {"lat": -23.5640312, "lng": -46.6559825}, "viewport": {"northeast": {"lat": -23.5625541197085, "lng": -46.6545073697085}, "southwest": {"lat": -23.5652520802915, "lng": -46.6572053302915}}}, "opening_hours": {"weekday_text": [], "open_now": false}, "place_id": "ChIJB3IvyshZzpQRqfD0Ic8Gefg", "photos": [{"photo_reference": "CmRaAAAAwRyO_S_2L4Y-UZEwzz8lbJsf05A7OwIFhlNuHka9hoHcTW7Iy-pmGggqy3lmTozkxMSlHh2LydwcWqeSttwvj3xGE2njTdmCpDAdqICbQ-br9jX-qy4x1VDStHNTiKmYEhDf94YkZrvEvZVoR9f2loonGhRlTDGeuRAaPIBvv7LBsF71zxm4Qg", "width": 1368, "html_attributions": ["<a href=\"https://maps.google.com/maps/contrib/111662307163995524594/photos\">Anantara Spa</a>"], "height": 1365}], "formatted_address": "Alameda Santos, 1437 - Cerqueira C\u00e9sar, S\u00e3o Paulo - SP, 01410-001, Brazil", "id": "b015071d38a51db2c2d676997ce3e8ee407823ad", "types": ["spa", "point_of_interest", "establishment"], "icon": "https://maps.gstatic.com/mapfiles/place_api/icons/generic_business-71.png"}, {"rating": 5, "name": "The Spa at Renaissance Sao Paulo Hotel", "reference": "CmRRAAAA4myi1g7aZwluNX-rhxRWcJrPCQ6ZDgU78QkPiwKdNVXcjtuAqrJWxUaeXLSNwoBc9KcbRtYYPJaRbeprslp_SuaDZBPWMKjoHY1bPBnlSSNOnfaptNMLoZgKKCaYKkJhEhBvXeRdd7fRtZNfXUoI2x3GGhS5JZ3byfr9HxId2RkyhQDdd0dJRw", "geometry": {"location": {"lat": -23.558491, "lng": -46.661911}, "viewport": {"northeast": {"lat": -23.5571106697085, "lng": -46.6605296197085}, "southwest": {"lat": -23.5598086302915, "lng": -46.6632275802915}}}, "opening_hours": {"weekday_text": [], "open_now": false}, "place_id": "ChIJW2wfydJZzpQR-6HD5wp6_Bo", "formatted_address": "Alameda Santos, 2233 - Jardins, S\u00e3o Paulo - SP, 01419-002, Brazil", "id": "f86d9a9843e1b2cb940a8c260a03ba93ce58d492", "types": ["spa", "point_of_interest", "establishment"], "icon": "https://maps.gstatic.com/mapfiles/place_api/icons/generic_business-71.png"}, {"rating": 5, "name": "Spa of Eyebrows", "reference": "CmRRAAAAmE9tWkxSFYAu9QlmisCTQymeNZWFTZqLL15siV0mTKkYudq-qg5tlnMBo3yEvcBCVk-lAZBPJPZxqg-m4cs9rgX-XN4JpARSyrxBrCPAYoc7h4fcn1qyp-NK_QaOSnjJEhB0i1MPqCY-tPzUde_QKwDEGhQi56DqsFjbVGH_waFnC51b_RWZAQ", "geometry": {"location": {"lat": -23.5680749, "lng": -46.6497001}, "viewport": {"northeast": {"lat": -23.56680326970849, "lng": -46.64825131970849}, "southwest": {"lat": -23.5695012302915, "lng": -46.65094928029149}}}, "opening_hours": {"weekday_text": [], "open_now": false}, "place_id": "ChIJY2BYML9ZzpQRHDtjb19mzVk", "formatted_address": "Av. Brigadeiro Lu\u00eds Ant\u00f4nio, 2344 - 14 - Jardim Paulista, S\u00e3o Paulo - SP, 01402-000, Brazil", "id": "0fb31c82a7f9a4383515b09808aeb5eb8c396f6e", "types": ["spa", "point_of_interest", "establishment"], "icon": "https://maps.gstatic.com/mapfiles/place_api/icons/generic_business-71.png"}, {"rating": 5, "name": "Clinic Spa & Hair", "reference": "CmRRAAAASIX3SfO0kc2e8gnyIn4tRWd6g5AWoBh1G9cuQ4YcWrwc8l68Sr3eR4vdsXvk5Jf36EGMHbDWp8SxuCFe_VW2mlEIPJ7HVG7fzFx_T0N7PGEfcNoQTm4xucyn_AdjCXVaEhCLWtPpUNM5Gb4brNxjT-5yGhS7fkWsy32MzynTBm_TgrH1l41Idg", "geometry": {"location": {"lat": -23.5455047, "lng": -46.64372099999999}, "viewport": {"northeast": {"lat": -23.5440830697085, "lng": -46.6424399697085}, "southwest": {"lat": -23.5467810302915, "lng": -46.6451379302915}}}, "opening_hours": {"weekday_text": [], "open_now": false}, "place_id": "ChIJRQpSW05YzpQRT8NPM77B8n8", "photos": [{"photo_reference": "CmRaAAAAebuNzLUvLCoOcHNyi3wuJ3ApYynEXGzQNVh9A7C_qwYFquXpYFAO3YGFxtbEKuVvyJ1Qsk094RwM11wz2vuFNd90d91ksvRAKV8FHCjKa7DmmIlajIb1SfafuUtVexdJEhBz1sAmYXoNnX33_TOCOHS5GhRnN_f_ZPqzy3K740-TkYQhzEYcoA", "width": 4797, "html_attributions": ["<a href=\"https://maps.google.com/maps/contrib/107768795220711924858/photos\">Paula Garcia</a>"], "height": 3198}], "formatted_address": "Av. Ipiranga, 344 - Rep\u00fablica, S\u00e3o Paulo - SP, 01046-010, Brazil", "id": "021f1acb5c2958e7d3562e781a3e4830c2116109", "types": ["spa", "point_of_interest", "establishment"], "icon": "https://maps.gstatic.com/mapfiles/place_api/icons/generic_business-71.png"}, {"rating": 5, "name": "Fit Body Pilates Spa & Aesthetics", "reference": "CmRRAAAACWVkMWkuHbWqEroYOxUq2UUNu7I177gk-5zLph_2lSo1penQjTDu1vlKMhwCcVG0yLT0fyMVzzyP9LOHP44yTPqRkDm_qTLew_RnZNDqJOa_PApAPh5dw2clGiqz_SihEhDV4FMS4IV1QSxAuCU7sjKzGhSdzojSjJmrJ4Ta0rQDgZPVOq27cA", "geometry": {"location": {"lat": -23.5855573, "lng": -46.6475254}, "viewport": {"northeast": {"lat": -23.58421226970849, "lng": -46.6462573197085}, "southwest": {"lat": -23.5869102302915, "lng": -46.6489552802915}}}, "opening_hours": {"weekday_text": [], "open_now": false}, "place_id": "ChIJD9EZDYxZzpQRKjgdlTYJoQY", "photos": [{"photo_reference": "CmRaAAAAGB7aIzIiplq0vINvHzwg3X7vz-beS0XjAkajC_tuAtEMf8JcWAXz2Ak4FU3IQ3D1CCPb0Cpf4oCeeFTiPQ-xLgvrGlq1uDigs4QzXyoiCKlPNFwBFpfz80fKNtdlPJfIEhAJnWUBI6KFT0nmnYFNy8nMGhSm3tZ2o0l9u35-EWSYgLJEaSzaxQ", "width": 1000, "html_attributions": ["<a href=\"https://maps.google.com/maps/contrib/106842006458225100716/photos\">Fit Body Pilates Spa &amp; Est\u00e9tica</a>"], "height": 563}], "formatted_address": "R. Dr. Am\u00e2ncio de Carvalho, 507 - Vila Mariana, S\u00e3o Paulo - SP, 04012-090, Brazil", "id": "aa5badf98e69d8e9a1ac68697bc048a72ec72210", "types": ["gym", "beauty_salon", "doctor", "spa", "health", "point_of_interest", "establishment"], "icon": "https://maps.gstatic.com/mapfiles/place_api/icons/generic_business-71.png"}, {"rating": 4.9, "name": "Thai Soul Boutique Spa", "reference": "CmRSAAAApsYu5M0MXefTw2VzstqVXauImCsLd3RMUA2m5XEnXAb8IS5aOdqW0Jpiq0GiZEdtAh2pa0QSnSWq14wCpFdUQktjTolmErGCio4g3lG9ibN6XMwy-9kCthFoqyygTFz6EhBtfSKAq09NRH0tVtlQavyxGhRB_lDY8DoeqHsEZ9ZdDZjitwjyYw", "geometry": {"location": {"lat": -23.5451196, "lng": -46.6679007}, "viewport": {"northeast": {"lat": -23.5438657197085, "lng": -46.6665127197085}, "southwest": {"lat": -23.5465636802915, "lng": -46.6692106802915}}}, "opening_hours": {"weekday_text": [], "open_now": false}, "place_id": "ChIJjYTdKyFYzpQRRQ9jygVlnuM", "formatted_address": "Av. Arnolfo Azevedo, 164 - Pacaembu, S\u00e3o Paulo - SP, 01236-030, Brazil", "id": "f48f752e753686121d2a60ac32c25804be609dea", "types": ["spa", "point_of_interest", "establishment"], "icon": "https://maps.gstatic.com/mapfiles/place_api/icons/generic_business-71.png"}, {"rating": 4.8, "name": "Buddha Spa Itaim Bibi", "reference": "CmRSAAAA97lNBjQLvc1DIhwFis3ATNkUKRc7tSraKtg9ycsJiI2YL2FMvC_eaOquZxvKUldMeya65xBlISkhx0kswnwgNdAuB9JNX3MK7n7GCsYA2Dz1J-g9I2SRHHZObWDjgVsPEhC3q253HZa70VDhDkSqkPJ2GhSE_d3j2_1Ms5Q1mONW4X28nL-ffg", "geometry": {"location": {"lat": -23.585037, "lng": -46.672658}, "viewport": {"northeast": {"lat": -23.5837969197085, "lng": -46.67130186970849}, "southwest": {"lat": -23.5864948802915, "lng": -46.67399983029149}}}, "opening_hours": {"weekday_text": [], "open_now": false}, "place_id": "ChIJAU1cK19XzpQR7BLN7GdHiJE", "photos": [{"photo_reference": "CmRaAAAAauS1DzitH6QInp_HRkt0Cq2w-p2zjvq8rsXmv-f7QvUhjU1upq3kq4JOG7SETQaPgl1EEpL-c3tSY-1K32iJwLCjMLChxArxCAG7isTKG6LhtiRlgergHEUyhGNumEI0EhBkWcGoWX6PiKs1iUNe7enxGhS7SKyLVs8Ei4BX4UNff4Kw52dj5A", "width": 960, "html_attributions": ["<a href=\"https://maps.google.com/maps/contrib/102584119848509592021/photos\">Buddha Spa Itaim Bibi</a>"], "height": 720}], "formatted_address": "R. Ten. Negr\u00e3o, 200 - Itaim Bibi, S\u00e3o Paulo - SP, 04530-030, Brazil", "id": "436366443d9cb184552d5a2e963ff4f0235f7eb5", "types": ["spa", "lodging", "health", "point_of_interest", "establishment"], "icon": "https://maps.gstatic.com/mapfiles/place_api/icons/lodging-71.png"}, {"rating": 4.5, "name": "Spa Longevity Sisley Paris", "reference": "CmRSAAAAIYBvkYF0Qu3eDZ7hfN2Lk0OpEHSETqRBVGN9DrPwZZ4sOvoO3KTgwXTlRzCXDnrjgOJ4aPvWBp4dR2fCavhfh_v8kmNJ-NiDif_TCTmbJ1N5a3Xqb7ydOXNYBt6eqPhuEhAeZ-pCKskN5EdoXffKtdc5GhSQGzwOZnxDv-_38oxVr8PKTdZXww", "geometry": {"location": {"lat": -23.5637327, "lng": -46.6601382}, "viewport": {"northeast": {"lat": -23.5624143197085, "lng": -46.6587537697085}, "southwest": {"lat": -23.5651122802915, "lng": -46.6614517302915}}}, "opening_hours": {"weekday_text": [], "open_now": false}, "place_id": "ChIJNedZMM5ZzpQRQUNxh15IpIU", "photos": [{"photo_reference": "CmRaAAAAAWqfZVFt_fbbyUMXcmpovSeIqvImdLd7GJbhYc5K8xK4Y6ZvXFVZrA0czFy1IrJHnK4TIg1IFLuJipW6dRpvXYZS1olxFVeFfYaFGGHuFH3-gGuO-ph3PZskgv3jZneaEhDDBQ5KaTMu7cASfgoEv_sYGhRKy8NwTTf2lbJQYxqKGRccu49Iig", "width": 3543, "html_attributions": ["<a href=\"https://maps.google.com/maps/contrib/116249832571282671321/photos\">Spa Longevity Sisley Paris</a>"], "height": 2362}], "formatted_address": "Rua Peixoto Gomide, 1276 - Jardim Paulista, S\u00e3o Paulo - SP, 01409-002, Brazil", "id": "71ee7d652cab7231c49b11c33a65709e4cef2ee0", "types": ["spa", "point_of_interest", "establishment"], "icon": "https://maps.gstatic.com/mapfiles/place_api/icons/generic_business-71.png"}, {"rating": 4.4, "name": "Buddha Spa Higien\u00f3polis", "reference": "CmRSAAAAL2wKDMM5L4IM3LNHK0EMoBxVf8F2a_GvHmq7rcj47xPM02zPqLdF5fKlkdOwbFDWV5Y2W94hEQBrm4xMyKYauiuitcXmoqAtw-cE98XLl6WIZbte4wTKM44Xt44Hxom9EhAb-GPO54eXwp7lGTjy4gmbGhSIg5VLqDviW5ir6h6eZjg3c6FWTA", "geometry": {"location": {"lat": -23.543449, "lng": -46.664467}, "viewport": {"northeast": {"lat": -23.5421018197085, "lng": -46.6631748697085}, "southwest": {"lat": -23.5447997802915, "lng": -46.6658728302915}}}, "opening_hours": {"weekday_text": [], "open_now": false}, "place_id": "ChIJHd_RsSNYzpQReXgrWHDuoO4", "photos": [{"photo_reference": "CmRaAAAA9bNTWg4m3vFzf-gqjZgR5Afsp-nUNRoJDWuvTXNc7DnVTJD8Fv0ENQjVDqwtypac0P2HywO99makwoL66h5qrzRKTNPTKIvBrT6s8JBLvJ9NQJzdEexTsc6vRlZFbOg7EhCEBUcX3gKU-k_ZvOyEPMqHGhRYN3QmMnPRWwvq88enjHJJzRmPgA", "width": 2048, "html_attributions": ["<a href=\"https://maps.google.com/maps/contrib/106220269024936874943/photos\">Buddha Spa Higien\u00f3polis</a>"], "height": 1152}], "formatted_address": "Rua Engenheiro Edgar Eg\u00eddio de Sousa, 510 - Higien\u00f3polis, S\u00e3o Paulo - SP, 01233-020, Brazil", "id": "f3dd6c266be26c28ac9b22b1c5ff28cd8a0707dd", "types": ["spa", "point_of_interest", "establishment"], "icon": "https://maps.gstatic.com/mapfiles/place_api/icons/generic_business-71.png"}, {"rating": 4.1, "name": "L'Occitane en Provence", "reference": "CmRSAAAA8LhMYIOCfLOQVDtxAEnkciY2x6v3mrcchqprd62wzSaT3ucKVRIMFNj1oyO5RQ5lbe7EOpB21r1uCLnXlAr63IbpH2DCG7lR0dC017OhAs63so27jTr0ISADFTUlTQcCEhBX5T-1H4xpFs_j4afGJCPqGhQFjfruy1FH8bCF2kpzW-Cu9b-HtQ", "geometry": {"location": {"lat": -23.562512, "lng": -46.6681865}, "viewport": {"northeast": {"lat": -23.5611428697085, "lng": -46.6668544197085}, "southwest": {"lat": -23.56384083029151, "lng": -46.6695523802915}}}, "opening_hours": {"weekday_text": [], "open_now": false}, "place_id": "ChIJhwlsq9VZzpQRnXIxGyyNQJY", "formatted_address": "R. Bela Cintra, 2023 - Consola\u00e7\u00e3o, S\u00e3o Paulo - SP, 01415-002, Brazil", "id": "c7a8c94674e49d3026d69afb415c45ebf2025189", "types": ["spa", "point_of_interest", "establishment"], "icon": "https://maps.gstatic.com/mapfiles/place_api/icons/generic_business-71.png"}, {"rating": 4, "name": "Buddha Spa Ibirapuera", "reference": "CmRSAAAAbazXdC6YF6SacfSrUHvJ3AXESdITZ-p-RXXzwsNodT17d-Ka6nYyt_qk-TrO_TGgvlFSs6a0GoyeCrqryhrxFvt3MmjLU9BR0bzg3VFKZO8vI5AEYJw6cX9Ucsk20JtZEhDw6guqrj95iwpf-Blr1op9GhTcg7ZyZk6iWL5n0fu5qdk0mMrswA", "geometry": {"location": {"lat": -23.5802164, "lng": -46.6624121}, "viewport": {"northeast": {"lat": -23.5789314197085, "lng": -46.6610152697085}, "southwest": {"lat": -23.5816293802915, "lng": -46.66371323029149}}}, "opening_hours": {"weekday_text": [], "open_now": false}, "place_id": "ChIJx8xqQeZZzpQRB3AUgWIXQ6I", "photos": [{"photo_reference": "CmRaAAAAFS8Ca2yQSex9p_QqloXjDYHG-PUi9WJH-CkBYlA7jKY-gRf0DoYyEQGpKPTmE3T8dOp_PLcoiTcIO8oI2cBrcdxjJl7lmfo9s3pCHKQp3-aaKMrhl1H8UiHiC9QkHI8IEhBEbXxm_otyls0K6ebGY29WGhTt27UNa7ngGqEywwCpim7-O5-Hcg", "width": 899, "html_attributions": ["<a href=\"https://maps.google.com/maps/contrib/101396191036037088087/photos\">Buddha Spa Ibirapuera</a>"], "height": 896}], "formatted_address": "R. Manuel da N\u00f3brega, 1944, S\u00e3o Paulo - SP, Brazil", "id": "818c794cc3d8fb562977f7948187fed760a24ec2", "types": ["spa", "lodging", "health", "point_of_interest", "establishment"], "icon": "https://maps.gstatic.com/mapfiles/place_api/icons/generic_business-71.png"}, {"rating": 4, "name": "Spa PHYTOS", "reference": "CmRRAAAAamarmqiPOpuwcma-4yxORyrlJYfGVyN79KlQfIh71FDKaUlx62KvaNlP-129nWdEyWweJ2wupqzWgb9D6jWMCsbbAWw_8Mt2HwY-Ef4T6MB51GsYgyS_ifEufWES2b0cEhC_qgBWWSKT6WJFCkdaPna5GhQrtoyrsWSALSSrpyd8cL1wQq-f_A", "geometry": {"location": {"lat": -23.571278, "lng": -46.632692}, "viewport": {"northeast": {"lat": -23.5700307197085, "lng": -46.6313824197085}, "southwest": {"lat": -23.5727286802915, "lng": -46.6340803802915}}}, "opening_hours": {"weekday_text": [], "open_now": false}, "place_id": "ChIJr0554p1ZzpQRQ_Xh9jJvWDk", "photos": [{"photo_reference": "CmRaAAAAU2u2Ibxfdlm3QsLlRqYobxzEJLEaG7rNsS2BVaKDHxGoAo8GYAi10W2JOXtnRCoS329ytlS-svDHt47BJHWObIsxbMpP8COMpZr7hHL34xznDxe-s8WBmyHwUOG714DfEhClenPTXYqrAGHNL6E6t45wGhRFtFbHLKW46Vm-ZT_EATChfwWjrQ", "width": 1000, "html_attributions": ["<a href=\"https://maps.google.com/maps/contrib/113241427459446508322/photos\">Spa PHYTOS</a>"], "height": 563}], "formatted_address": "R. Esmeralda, 47 - Liberdade, S\u00e3o Paulo - SP, 01531-040, Brazil", "id": "0096c19e92c442d51609fe6a6f7c842dc8b6dbad", "types": ["spa", "point_of_interest", "establishment"], "icon": "https://maps.gstatic.com/mapfiles/place_api/icons/generic_business-71.png"}, {"rating": 4, "name": "Spa das Sobrancelhas Republica Centro 1", "reference": "CmRSAAAAxtUDhqcWCiAtqUCI3eF_4xG1yl3B6L6Fq55B5FphoHBEJNC-DYSf146LFX1-SJtraf_4_yltE-xGiNLZ5zOqdEUhRm9ahDv4XjpNG_LYFsnqiex9GzfGAMdwa9XbP3UEEhBK7Se7DsYAFJkT1RA0DU5yGhRnnlDIK2_giQPWdCVQj1D_uHHRzg", "geometry": {"location": {"lat": -23.5446565, "lng": -46.6395358}, "viewport": {"northeast": {"lat": -23.5432109697085, "lng": -46.6380933197085}, "southwest": {"lat": -23.5459089302915, "lng": -46.6407912802915}}}, "opening_hours": {"weekday_text": [], "open_now": false}, "place_id": "ChIJ8-92m1FYzpQRrfC463xrMp8", "formatted_address": "n\u00ba Loja 46 - R. 24 de Maio, 77 - Rep\u00fablica, S\u00e3o Paulo - SP, 01041-001, Brazil", "id": "8829c930ee6ef2a11708b6b6b6493dd8f4117778", "types": ["spa", "point_of_interest", "establishment"], "icon": "https://maps.gstatic.com/mapfiles/place_api/icons/generic_business-71.png"}, {"rating": 3, "name": "SPA Harumi", "reference": "CmRSAAAAU6p2baAbnpeegcJOeajpfgW0O665b4Lg5Qki2jwzuqsfbyAekxAX53TlB0vqTBIb7TdwqMXJg__ISj7ni9h7f015vGZESGl1HWzgoOQwKYVZQZKqcRSnrzZvGT_o5tslEhDApjdBZm9uRBX9uOFGJMA9GhRkhhclwg-vgZyS8g2C9MmgX66ySA", "geometry": {"location": {"lat": -23.5749156, "lng": -46.6467213}, "viewport": {"northeast": {"lat": -23.5736010197085, "lng": -46.6453564197085}, "southwest": {"lat": -23.5762989802915, "lng": -46.6480543802915}}}, "opening_hours": {"weekday_text": [], "open_now": false}, "place_id": "ChIJsccoIpRZzpQRpoSDcWPeXMA", "photos": [{"photo_reference": "CmRaAAAAOKhP_kmizPUu_GSY367hAYUrlerWccODTEthEQTy46o_7eHesiBgApWDFHt9VLBzeDyhgEmjtsFRXFp2_xn6cOCq9Od8A3wcs6KoN2rYVXxa9s5UD4bBWb7WQn6dfBbeEhAUQ3gcxXQPTEocYVJy3DzHGhTPN8rOz_gRq220LTirb9ob1FlX_Q", "width": 2048, "html_attributions": ["<a href=\"https://maps.google.com/maps/contrib/117990031628637478303/photos\">Spa Harumi</a>"], "height": 1365}], "formatted_address": "R. Ab\u00edlio Soares, 530 - Para\u00edso, S\u00e3o Paulo - SP, 04005-002, Brazil", "id": "494f5232d548cbb84663b845f36616c408d95fe3", "types": ["spa", "lodging", "health", "point_of_interest", "establishment"], "icon": "https://maps.gstatic.com/mapfiles/place_api/icons/generic_business-71.png"}, {"rating": 3, "name": "Cattel Spa", "reference": "CmRRAAAAIiz5x11xTBfkogieEfV4vyphDbdqOTozttZ8x-9kSjMcW8SBO9a8ueXphPhlGKs-GGTi7UU3ZkUkBhpg4Yu22O7NE6DPwWTZgpfKWYI8cpHCqind9Rqk7WiKfusU7Z-9EhDaLjGP1pBuK8PpaUNRpD-kGhTNtEPxDhhQhTZPMoA-YL81UiGl_Q", "geometry": {"location": {"lat": -23.5734747, "lng": -46.6614573}, "viewport": {"northeast": {"lat": -23.5720588197085, "lng": -46.6600338197085}, "southwest": {"lat": -23.5747567802915, "lng": -46.66273178029149}}}, "opening_hours": {"weekday_text": [], "open_now": false}, "place_id": "ChIJbbR_ztxZzpQRtH-pq5fv3Fg", "photos": [{"photo_reference": "CmRaAAAAluuKvXQoEo3mS1cMbKOIyJLMqGbk8uyf6loli1QxZmVYBdYcICN15kLNoFCHmwP5QFt6lPkGpCI7WlQdrOYlz4fJ3yNvXQASrgri0dHSIoQJ9_4gIg8-MvoH8mr4frGlEhAoriz5dVUJtiaW9NJ4hqfxGhTrVEA3dCZAmyG1SRT2u3OHkczClg", "width": 600, "html_attributions": ["<a href=\"https://maps.google.com/maps/contrib/103543933102553331471/photos\">Cattel Spa</a>"], "height": 398}], "formatted_address": "R. Estados Unidos, 445 - Jardim America, S\u00e3o Paulo - SP, 01427-000, Brazil", "id": "8aa70a15ed9e117efbb1374812e6a6a665cd146d", "types": ["spa", "lodging", "health", "point_of_interest", "establishment"], "icon": "https://maps.gstatic.com/mapfiles/place_api/icons/lodging-71.png"}, {"name": "Mantra Est\u00e9tica & Spa Urbano", "reference": "CmRRAAAA8pUcfAAb63kH52LxJpjZdXanb8oxd2kiNUcApomDU5z4mvOdGyCp24vEPSvmxfshRDfTQkpK53XSkf30CtzKx1w4M45mKpAxcBJf0YIIayFf_nJmWww5q_qUag2JG8y-EhD_9IgsyI8yIa0o69c3KK2WGhRp24IhlCFEtAbFBuHt6uExeVHrjw", "geometry": {"location": {"lat": -23.5679779, "lng": -46.5971481}, "viewport": {"northeast": {"lat": -23.5665562197085, "lng": -46.5957478697085}, "southwest": {"lat": -23.5692541802915, "lng": -46.5984458302915}}}, "opening_hours": {"weekday_text": [], "open_now": false}, "place_id": "ChIJnw0Q7VNZzpQRlD7yKOa7UWY", "photos": [{"photo_reference": "CmRaAAAAto4SrWYxmcbtkGpGUIyuQRRaVynumaGGRnzHAVNZ1I9Uom4XF_i4X__NdopgZNpYuRWChPm6Eu5iGJTV9efsLd85U3C1sZAFL-r74_7DX9cj9i8lEjgXhMUGtZxJpxWQEhCniFUHx0IykV-Tjm-YMJbSGhS66rU08LortnKLWgCxVkwSGapVsA", "width": 1181, "html_attributions": ["<a href=\"https://maps.google.com/maps/contrib/102070893687043970665/photos\">Mantra Est\u00e9tica &amp; Spa Urbano</a>"], "height": 1182}], "formatted_address": "Rua Celso de Azevedo Marques, 106 - Parque da Mooca, S\u00e3o Paulo - SP, 03122-010, Brazil", "id": "334d696a718de2e72801eaea80b2452b42418f4e", "types": ["spa", "point_of_interest", "establishment"], "icon": "https://maps.gstatic.com/mapfiles/place_api/icons/generic_business-71.png"}, {"name": "Spa & Wellness Center", "reference": "CmRSAAAANTJ5lK3PjRIsIUzdF3wMmpMh54YwGQyJRslpcX51WGWj5yHD_FzKiLSJvAz7X1nNs0LCbiQX2leVyLg22_3gN3ObxbT5wkaOoqzWpkmQ1NgjEZAahB4_M0GMqEMQRFmBEhBGfzZl17m9XshUEKnSDYSIGhTwSKRhIedFTK_Om_I3km-Llx_0YA", "geometry": {"location": {"lat": -23.551177, "lng": -46.6109835}, "viewport": {"northeast": {"lat": -23.54974736970849, "lng": -46.6095040697085}, "southwest": {"lat": -23.5524453302915, "lng": -46.61220203029149}}}, "place_id": "ChIJmzwoGz1ZzpQRexQIjTPsCOI", "formatted_address": "R. Dr. Almeida Lima, 1134 - Mooca, S\u00e3o Paulo - SP, 03164-000, Brazil", "id": "cf3016177cbddc2fa0cbb7873361003a485a4ee0", "types": ["spa", "point_of_interest", "establishment"], "icon": "https://maps.gstatic.com/mapfiles/place_api/icons/generic_business-71.png"}, {"name": "spa vip massage brasil", "reference": "CmRRAAAA1pf_kTTUOG-6gKxMM6AYAamdyq5P6T-HF2EYSj58lfNJ6cwXs1whU1VtKcDRJPtELilZYL_bfg3ZIOKlGogDJZ0skBU8ncIqH3-fU20RJC5qLrKxNH9-Yf1JcZFbymN9EhBogg6TwSCO-1tp-MAPB09oGhRxeisYeayJ-CFgP1kw3ayeF4qu0Q", "geometry": {"location": {"lat": -23.5559005, "lng": -46.6512626}, "viewport": {"northeast": {"lat": -23.5545732697085, "lng": -46.64990621970851}, "southwest": {"lat": -23.5572712302915, "lng": -46.6526041802915}}}, "opening_hours": {"weekday_text": [], "open_now": false}, "place_id": "ChIJW_ePgspZzpQR1hDlLxGWZl8", "formatted_address": "R. Matias A\u00edres, 391 - Consola\u00e7\u00e3o, S\u00e3o Paulo - SP, 01309-020, Brazil", "id": "01c3a338410ca690c1ef2bd0e3e073b20217e9da", "types": ["spa", "point_of_interest", "establishment"], "icon": "https://maps.gstatic.com/mapfiles/place_api/icons/generic_business-71.png"}, {"name": "Spa", "reference": "CmRSAAAAKXM-6b2bqmIhxl7I-orf5TTZ1CDy7e_XYMgvyOvvaX17fNu2anF5PDs3lsD9H-B3Z6EZCBfSAX7zerD9xqqZFBCYnwyr2zR47Rvhe5PVl8mmrmIPgFnRoLrI6496N9ZMEhDJyv1tCGqZ0khhwRfJOEHZGhQMdm5yd4j81LBOgmYnmCmXiRWsHA", "geometry": {"location": {"lat": -23.5485199, "lng": -46.6451928}, "viewport": {"northeast": {"lat": -23.54716326970849, "lng": -46.6439512697085}, "southwest": {"lat": -23.5498612302915, "lng": -46.6466492302915}}}, "place_id": "ChIJW7X_akxYzpQRBxVOAUR36Yc", "formatted_address": "R. Nestor Pestana, 109 - Rep\u00fablica, S\u00e3o Paulo - SP, 01303-010, Brazil", "id": "5a9fa1bc61d75e5abf2a4e16b3df9fba62044462", "types": ["spa", "point_of_interest", "establishment"], "icon": "https://maps.gstatic.com/mapfiles/place_api/icons/generic_business-71.png"}, {"name": "Aura Spa Urbano", "reference": "CmRRAAAABauPft3jn_P_MNGvlQfgZDTbW4njiFwPAyorqChroodK7UiGN9EJuqjWgdQaejl8GoRe9eSexyZ8Q4-azWXQzcjAunZZyA_noAxcTNsR0CUO8BXuwklJWUd_qbpAF0JHEhBwDTs7ue5990LlzMaHqgwSGhRtnP0tGXjdukUp-LmoxIHQRLxpxw", "geometry": {"location": {"lat": -23.5464362, "lng": -46.6429207}, "viewport": {"northeast": {"lat": -23.5450872197085, "lng": -46.6415717197085}, "southwest": {"lat": -23.5477851802915, "lng": -46.64426968029149}}}, "opening_hours": {"weekday_text": [], "open_now": false}, "place_id": "ChIJP6y9zRxYzpQRY8FbHKWvhVk", "photos": [{"photo_reference": "CmRaAAAAn133GZ0mmYuPoi0UqcFzIcNtau6cYgNp0QpPh6Z9H_sMckXWvXD3h2gZkZUFiZtjUy9KzipliwkF0Jy2dqzm8i25q-pYMc6r34m8h5_yaBiQPYdLzvSvZqlmWUcc_UueEhBWRMuduAgPhjxf6QZZ3iJGGhQKvuopVULVUggaofZSVIJ8Z0NwRQ", "width": 4288, "html_attributions": ["<a href=\"https://maps.google.com/maps/contrib/108252853699642183717/photos\">Aura Spa Urbano</a>"], "height": 2848}], "formatted_address": "Av. S\u00e3o Lu\u00eds, 187 - Rep\u00fablica, S\u00e3o Paulo - SP, 01046-001, Brazil", "id": "60608d574c44f2d3bdcc543eff82c537db7e625f", "types": ["spa", "point_of_interest", "establishment"], "icon": "https://maps.gstatic.com/mapfiles/place_api/icons/generic_business-71.png"}]