[{"rating": 5, "name": "FEAMBRA", "reference": "CmRSAAAA9qrflY9keX6mvOdkQtL6j-qXnox8vYHBo7Fdpvyw7Eiy2UEUF6tilD8ZTNHutHXH08M6A6wneCG7DDHBpuYbvEZnfLdsqBwCleSOHU3DFIWKIAeid-yI8ylGhbFCE7w0EhAiFoWLNQM9oRp_UovR4hzSGhQdwG42WRPoD5L-ptx_8ct4zLk2lw", "geometry": {"location": {"lat": -23.569285, "lng": -46.6655126}, "viewport": {"northeast": {"lat": -23.5679720697085, "lng": -46.6641983697085}, "southwest": {"lat": -23.5706700302915, "lng": -46.66689633029149}}}, "opening_hours": {"weekday_text": [], "open_now": false}, "place_id": "ChIJg3BMHNpZzpQR9GCcxtgBp_o", "photos": [{"photo_reference": "CmRaAAAAhi_oenXUiM4dvbNIh9cfW7I7wTxJZqGeyvQvs14hlMsWBgg29y1UZVT_OVM7jjA7Cr4FYTGNnwEvdEjSkP5k2BfLBz6licj8zSQ-b-JDWIEu-Ydfl-WoiuGYnwwKPjEFEhAHBAwRsoS2voC5cH6nkW98GhQUrvBXVKz2d06nZtYUAfZzmKf_wA", "width": 3024, "html_attributions": ["<a href=\"https://maps.google.com/maps/contrib/100846199311617128502/photos\">Iara Cunha</a>"], "height": 4032}], "formatted_address": "R. Estados Unidos, 1078 - Jardim America, S\u00e3o Paulo - SP, 01427-001, Brazil", "id": "79d6cf0bcea7579b9ba4719678bab94ef9b206a3", "types": ["museum", "point_of_interest", "establishment"], "icon": "https://maps.gstatic.com/mapfiles/place_api/icons/museum-71.png"}, {"rating": 5, "name": "Open Museum of Urban Art of S\u00e3o Paulo - SP-MAAU", "reference": "CmRRAAAAvTBXzQmfGxvR7AaO0VrJ7J2tjM9RtGTR7obiBTvPQbfFjJUW5p7W0dfwWTHplmdkVYhgGtPCa3o8KrxEeTXyVmGReg8n8XbogGWO-Le52bHDEr4IxNgB5dlkYVR1Rn8hEhCH0junNBlKuDJfwp_MzrYBGhS6oJnqoR3EzYQ9XwVqpjeaAfyIgA", "geometry": {"location": {"lat": -23.5080609, "lng": -46.6252688}, "viewport": {"northeast": {"lat": -23.50671471970849, "lng": -46.6237962197085}, "southwest": {"lat": -23.5094126802915, "lng": -46.62649418029149}}}, "opening_hours": {"weekday_text": [], "open_now": true}, "place_id": "ChIJVSRjXYJYzpQRkF9Y77qLRgY", "photos": [{"photo_reference": "CmRaAAAAHsCjkyl3qhYcvumxD7kjRQaTvy8GT3KGqsN4k0r70id2Xu_EzzovtG3BerZI0gFjrvhtqxNGDqWfx86WJtvcF20D1fdHdVVn8NxAzuPYB-8wY1aXHXJLtUyx8x0paErTEhAMIewowCjnRYe7H7cSAs3sGhSutyImet0Svvp8kbRptH4n-HMBMA", "width": 2620, "html_attributions": ["<a href=\"https://maps.google.com/maps/contrib/113437865326136995056/photos\">Dri D&#39;Agostino</a>"], "height": 4656}], "formatted_address": "Av. Cruzeiro do Sul, 2611 - Santana, S\u00e3o Paulo - SP, Brazil", "id": "eeea49a1352bef164e2532ac58f4d42c13db5cb6", "types": ["museum", "point_of_interest", "establishment"], "icon": "https://maps.gstatic.com/mapfiles/place_api/icons/museum-71.png"}, {"rating": 4.8, "name": "Pinacoteca do Estado de S\u00e3o Paulo", "reference": "CmRSAAAAjEAuqJb3wze91AaG0tU2PSA8UcI9yNNpgJFSHDApql-Zhk5GMoPBmUWvMeK15bgqe9We2PJMw1HuC7q9JJQy7ezJCTLiM_99aFkBdeSvwWLvS8EOmWf9JHwswl4bf6kREhCnVIYMJotNTTi9F6U46OHrGhRgQhMt4da4CYswZkhY5pPJM9KaKQ", "geometry": {"location": {"lat": -23.5342666, "lng": -46.6339501}, "viewport": {"northeast": {"lat": -23.5332303197085, "lng": -46.6327218697085}, "southwest": {"lat": -23.5359282802915, "lng": -46.6354198302915}}}, "opening_hours": {"weekday_text": [], "open_now": false}, "place_id": "ChIJ52h-6FhYzpQRASMhc4Xaw9w", "photos": [{"photo_reference": "CmRaAAAA2bNbP7D9CFuHcPKiUcGaer1qPQNnNKBl33OAgJDYGgih8I_9m46yXmW7qQE3yCzbojG8GB4Nzd7rnvk-5acJ6wRiHYKJ7bjMLwuJtQLM2t3-ghJSevMXNnOz6B-B1G0GEhDBu2zSHib-ni0v-Sbr1i-HGhSQCZodMNDFxbsgpJogFEV5Aw_FjQ", "width": 1369, "html_attributions": ["<a href=\"https://maps.google.com/maps/contrib/112809840856691570205/photos\">Pinacoteca do Estado de S\u00e3o Paulo</a>"], "height": 1365}], "formatted_address": "Pra\u00e7a da Luz, 2 - Luz, S\u00e3o Paulo - SP, 01120-010, Brazil", "id": "d1bc5fa42a85777bd521fadd4beb5977401a3596", "types": ["museum", "point_of_interest", "establishment"], "icon": "https://maps.gstatic.com/mapfiles/place_api/icons/museum-71.png"}, {"rating": 4.7, "name": "Football Museum", "reference": "CmRSAAAAV4VBvkdLaeXVz_HU7hlmej5bXPaDYfzTZLdbUEZnBb7f8CCb7ABIcIcDec0l34x62WXCjW625yTap8eiMQSqYZ92uhbXCgOrdC21rd6z-Re2BaYtCe29Zbt5xAbfV5ZvEhDrK-Rkp_gGOn5DjIKZVIM2GhSb19E7VfRExshZi-wrrtjEyoOKUA", "geometry": {"location": {"lat": -23.547537, "lng": -46.664917}, "viewport": {"northeast": {"lat": -23.54633934999999, "lng": -46.66385941970851}, "southwest": {"lat": -23.55086675, "lng": -46.6665573802915}}}, "opening_hours": {"weekday_text": [], "open_now": false}, "place_id": "ChIJf7Cs2iVYzpQRzp6ZfOjJ3s8", "photos": [{"photo_reference": "CmRaAAAAXutNbzVo-L6WAfvU0dvLSkv4ZcF99tTA-GadjcVzGUt4aV_a-KA3_ZL99CMEpLmcxUX5VNiFzJ53mxiuXjl-92jxEXvFqBqYJbjUEx-YoDvXywgPj6HFfTzkFotB9ew-EhDwnqmiQMi2AofPj9svNxpVGhQw_2adCi08Ydp0NNf8PhpHIVRn4Q", "width": 5344, "html_attributions": ["<a href=\"https://maps.google.com/maps/contrib/108800777113610128093/photos\">Stephen Groot</a>"], "height": 3006}], "formatted_address": "Pra\u00e7a Charles Miller, s/n - Pacaembu, S\u00e3o Paulo - SP, 01234-010, Brazil", "id": "ef71d4c4f0942c0778fd9b30bcb5d900cef40e38", "types": ["museum", "point_of_interest", "establishment"], "icon": "https://maps.gstatic.com/mapfiles/place_api/icons/museum-71.png"}, {"rating": 4.7, "name": "Museum Afro Brazil", "reference": "CmRRAAAAaVlvQ6qeERZ80suZ5y579HIDnutTVn8t4-jZUls51R_gSfLXstHifW-AIBR2nVw3zt9DY0iBNTQgXEYkwCrQnStr1I4tum3hj5uNKJX9Ty9IjNcVaaz3fFt3VNwKvBM3EhAks47_5kO4dizX9tmnRYO0GhTyeqmUlfUmrMTBw_SznnjWXCJXtw", "geometry": {"location": {"lat": -23.5838762, "lng": -46.65919599999999}, "viewport": {"northeast": {"lat": -23.5823454197085, "lng": -46.6577853697085}, "southwest": {"lat": -23.5850433802915, "lng": -46.66048333029149}}}, "opening_hours": {"weekday_text": [], "open_now": false}, "place_id": "ChIJo2Ygwe9ZzpQRD-ge7J12tnk", "photos": [{"photo_reference": "CmRaAAAADV7nWlGlJS6-saKAFgt_QNXUBo0RV59fgK8zMzFpGDfb-UlsCqeich9zDyOdAk3fNawxqpoOTP-koo-TSY1B6JgoQ5fc8mAuTUl4-C-HTKiA7AoxJsEywrfFmPy5VyPLEhAN8-CM80p4xxjxGTCwh9x5GhQGVH1aE_jVDPChVv6keaLB0uGRiA", "width": 2688, "html_attributions": ["<a href=\"https://maps.google.com/maps/contrib/111244447841851971782/photos\">Bruno Sousa</a>"], "height": 1520}], "formatted_address": "Avenida Pedro \u00c1lvares Cabral, Port\u00e3o 10, s/n - Parque Ibirapuera, S\u00e3o Paulo - SP, 04094-050, Brazil", "id": "036ad0de99fc4953480ec0f89de58362c2c438b0", "types": ["museum", "point_of_interest", "establishment"], "icon": "https://maps.gstatic.com/mapfiles/place_api/icons/museum-71.png"}, {"rating": 4.7, "name": "Museu Catavento", "reference": "CmRSAAAA7lsRPgE8ap2LpZb4QLyPqaF6qmsjUeBwRO6zYze4nt52AXCPXFJ_qEcCcT13RZjqfCdfomZjAS3Bzggu4iWwD6TV36mZpMy-T8HOghswv6wFkWAJ5S8l8G0geCQeSyjSEhCMHxLTcBi9MpVDqEoDjoeAGhSc-yh6wwNsNDeeSdEiP8C5fSHfNw", "geometry": {"location": {"lat": -23.5439053, "lng": -46.627728}, "viewport": {"northeast": {"lat": -23.54272495, "lng": -46.62580129999999}, "southwest": {"lat": -23.54581315, "lng": -46.6298425}}}, "opening_hours": {"weekday_text": [], "open_now": false}, "place_id": "ChIJq7WXZf5YzpQRguKUxFINMrU", "photos": [{"photo_reference": "CmRaAAAAtAaDH4k5zdUEshPi5okWyNXU_kpH2-v4qV3ywiWml2KwsDsyEOrfme0e-0BITKqDGdRDIq8VTykK28t_vMLM20RgOtLwyGLclh1Tj9tngYq4Cn4HWAP38ueXcVh4_svlEhDQNSB4XcgdcexFH96iYOGFGhSEISR0Uq4bfhQgXVeEkuyGjqGGzA", "width": 1280, "html_attributions": ["<a href=\"https://maps.google.com/maps/contrib/111403206088596570682/photos\">Luciano Miranda</a>"], "height": 960}], "formatted_address": "Pq. Dom Pedro II - Av. Merc\u00fario, s/n - Br\u00e1s, S\u00e3o Paulo - SP, 03003-060, Brazil", "id": "4127c9ccf8df9de9431da9c780354d92a39ed8f1", "types": ["museum", "point_of_interest", "establishment"], "icon": "https://maps.gstatic.com/mapfiles/place_api/icons/museum-71.png"}, {"rating": 4.6, "name": "Museum of Art of S\u00e3o Paulo Assis Chateaubriand", "reference": "CmRSAAAAnumqvEvltVNyj7u-etYhTW-THBhPLubT9N7cB1nOirPKAkifZyM0X72VoU0UBp3Q9Mu_6xFMWG9wfa1F0llb1wBPtV-W7d6ekVoAUCl1oxQeVVxLZtUdQFLyb80bUCV-EhCspH7yYaac7eCEiqho5NBTGhTeYkf3cT2n5qK-wYTMwMn1pa4Fjw", "geometry": {"location": {"lat": -23.561414, "lng": -46.6558819}, "viewport": {"northeast": {"lat": -23.5602616197085, "lng": -46.65458331970849}, "southwest": {"lat": -23.5629595802915, "lng": -46.65728128029149}}}, "opening_hours": {"weekday_text": [], "open_now": false}, "place_id": "ChIJH3frsc5ZzpQRoU10aab2BOk", "photos": [{"photo_reference": "CmRaAAAA9odPoLJKGVZfQaOnZRmXwTT3DrDAlIBjHsuFWGiz9tYw-JapUwHNUgc-Um9uRUxxKYzF4EmKGC9Xc9KH2zMIw3x3rp5Lpi7D_80vb0gd9apaWnnCw5tuevkxSElmJh0iEhDcmKNX56qyza7x05jROsw2GhQ1OD3C9exJI47H5VHmgVhfWInd7g", "width": 1000, "html_attributions": ["<a href=\"https://maps.google.com/maps/contrib/106838445969899004489/photos\">Museu de Arte de S\u00e3o Paulo Assis Chateaubriand</a>"], "height": 645}], "formatted_address": "Av. Paulista, 1578, S\u00e3o Paulo - SP, 01310-200, Brazil", "id": "7c028eacef5cce2c588cf5a02d8b2506d8907f3f", "types": ["museum", "point_of_interest", "establishment"], "icon": "https://maps.gstatic.com/mapfiles/place_api/icons/museum-71.png"}, {"rating": 4.6, "name": "Sacred Art Museum of Sao Paulo", "reference": "CmRSAAAA70A6jIPJGMCssF71E2XUDDfdp1RDk6KmzeLJPwB2bGEoSPGzoBi7l7TjFBO68IYo_REZ_zMS4QWJZ-xwl7HozehuS_fkUrE8s2OP9eRVz4Lq_g9QoPh0C4bC84lkzNExEhAh277YaDHGs3tkFkcvOnlsGhTLD_LpGBZVpoC1AU3dHvkaYCOtFA", "geometry": {"location": {"lat": -23.5303881, "lng": -46.631339}, "viewport": {"northeast": {"lat": -23.5289903697085, "lng": -46.63020821970849}, "southwest": {"lat": -23.5316883302915, "lng": -46.63290618029149}}}, "opening_hours": {"weekday_text": [], "open_now": false}, "place_id": "ChIJy-gCf_VYzpQRrSO2mDs1bdA", "photos": [{"photo_reference": "CmRaAAAArIYR9XJJb1KiDSW5A7im-NdkWyNyp6GFPgv7su05DHaF3WAe1hw_VrKj1fLd5gUAjeBnsVAiHEUvEB_kPSe7v2RMwXpnqifN616JICTznJyuPZ0f5IoZARDDRytlQ-GoEhDmbfy9Qiab90E7YCj71NffGhTchghOAN97UW06Xugyjfp132IuvA", "width": 2048, "html_attributions": ["<a href=\"https://maps.google.com/maps/contrib/106073141866614846145/photos\">Alfred Myers</a>"], "height": 1365}], "formatted_address": "Av. Tiradentes, 676 - Luz, S\u00e3o Paulo - SP, 01102-000, Brazil", "id": "1dda2465443779b56ac3b9e37c109768734c7a26", "types": ["museum", "point_of_interest", "establishment"], "icon": "https://maps.gstatic.com/mapfiles/place_api/icons/museum-71.png"}, {"rating": 4.6, "name": "Memorial da Resist\u00eancia de S\u00e3o Paulo", "reference": "CmRSAAAAn_iA779s7kwgWJJq6hq6GgAghVzTa56ZtU_bgVvm1NqdoztEB31GjQnFnehbdxsdQBeo7N-KYti4E5apzd60INWKJCLpXdQ-3FHJBK6Lv_hFaA5Z5zr3TGRhPkpkqgaHEhCZVckMZeCtNcaQiS8rDcDfGhQOErY8GzgU2XqTJaK7qmTM1fTlSA", "geometry": {"location": {"lat": -23.5348525, "lng": -46.63881089999999}, "viewport": {"northeast": {"lat": -23.5335717197085, "lng": -46.6374669697085}, "southwest": {"lat": -23.5362696802915, "lng": -46.64016493029149}}}, "opening_hours": {"weekday_text": [], "open_now": false}, "place_id": "ChIJb4lEe1xYzpQR7N3f-AMFO_8", "photos": [{"photo_reference": "CmRaAAAAoRGPldKcS28-uxL6YPCDdaw4vkCoaWrWEJKJA2dwA1NkaoSqdo2PACwhqCKjWLdzBvgTwJb5L9dTRsADqt619SDXAOjBxLkqlYDi9FQdNnE82S7fsZ0rhcYCRzknvq-qEhDfT-9kWbMmRyyx-XDZ2FmXGhRaL9mOqiPa44-D0NeTQhr8iYNK-w", "width": 1365, "html_attributions": ["<a href=\"https://maps.google.com/maps/contrib/106073141866614846145/photos\">Alfred Myers</a>"], "height": 2048}], "formatted_address": "Largo General Os\u00f3rio, 66 - Santa Ifig\u00eania, S\u00e3o Paulo - SP, 01213-010, Brazil", "id": "fd5b9e48d661d18d437ca07468c54806c47534d9", "types": ["museum", "point_of_interest", "establishment"], "icon": "https://maps.gstatic.com/mapfiles/place_api/icons/museum-71.png"}, {"rating": 4.6, "name": "Museum of Contemporary Art", "reference": "CmRSAAAAx9T8F1UGqWpnoMLB16z0Su1h4elz9P6CYTSTGjb07BbPon5vFLfGW_aEnq5t3oEZ7YbdqRV71sBkV3sreuTJSJ4_lQvX91tDNm9EdRiWiWZKjVvIBoD6YXI2N9lo8m9pEhCZDARDE9vxoOmUQsR3FCEdGhQu0g2kjcDQzg6tvavB0ltooxRkag", "geometry": {"location": {"lat": -23.5889906, "lng": -46.6509962}, "viewport": {"northeast": {"lat": -23.5881502697085, "lng": -46.6497646197085}, "southwest": {"lat": -23.5908482302915, "lng": -46.6524625802915}}}, "opening_hours": {"weekday_text": [], "open_now": false}, "place_id": "ChIJ-UXtMotZzpQRGeDvgIuDEd0", "photos": [{"photo_reference": "CmRaAAAAO0_bJjSt8TBGM4XrAGJW4cXAbeI_x6G1LaYVKxGKwKEcfREh27DWQjgn9QGcGDa4_88yQBs47ap_fSZh0B2rT6eqiI8MKTCdHcjKJtaxno0R2WJtYJd2NyCSxzeTS8HtEhDlmIRLS0IP8yE0yOE0FOFCGhTs_S1z0Q0dZXfyBJmlC_CixKG34w", "width": 4032, "html_attributions": ["<a href=\"https://maps.google.com/maps/contrib/117915164380521871175/photos\">Andr\u00e9s Cevallos</a>"], "height": 3024}], "formatted_address": "Av. Pedro \u00c1lvares Cabral, 1301 - Ibirapuera, S\u00e3o Paulo - SP, 04094-050, Brazil", "id": "505f3c8e0b95c38173b662640831e3f6af5a02a8", "types": ["museum", "point_of_interest", "establishment"], "icon": "https://maps.gstatic.com/mapfiles/place_api/icons/museum-71.png"}, {"rating": 4.6, "name": "S\u00e3o Paulo Museum of Image and Sound", "reference": "CmRRAAAAIX5u42muKFyNzmc26CNYpVDvKw4h_2TcZL5b5sz4aeRxxCygaWog3IZYUPQwC-bblvKxKUOlnbhyZEHfkrLPLk_l5iI3Y41WAz922VCN7kVQEFwp0GsDmSexEMMKWAjBEhDURX-sDi5f3ghF6rH5PVcVGhQMN039Ays59EIel6zM-4TbqMHAXw", "geometry": {"location": {"lat": -23.5726505, "lng": -46.67619740000001}, "viewport": {"northeast": {"lat": -23.5713453197085, "lng": -46.6749229197085}, "southwest": {"lat": -23.5740432802915, "lng": -46.6776208802915}}}, "opening_hours": {"weekday_text": [], "open_now": false}, "place_id": "ChIJLTwkvWRXzpQRzUZbAZ8JxxE", "photos": [{"photo_reference": "CmRaAAAAirL_sFTKWnz2DVaFX3PyfWc7P8o9KS7wGJd4AJLwC41f7Y928FLhFImNurqjh7IHV4CVf1OlWmFs9ZF1G1BTiV3rZ6sgvhPSODpZhFmTfUE5YeMKtQwXPaSJpJU3C71bEhBeCnfxFQKFp96zsYJqoyxOGhTgP9xMLZbsHGEKJnDHjD6crhVYlw", "width": 1448, "html_attributions": ["<a href=\"https://maps.google.com/maps/contrib/113044016023697687608/photos\">Museu da Imagem e do Som de S\u00e3o Paulo</a>"], "height": 983}], "formatted_address": "Av. Europa, 158 - Jardim Europa, S\u00e3o Paulo - SP, 01449-000, Brazil", "id": "4c5601b48b64216ca65c5dc3e3c8a7d6125078d0", "types": ["museum", "point_of_interest", "establishment"], "icon": "https://maps.gstatic.com/mapfiles/place_api/icons/museum-71.png"}, {"rating": 4.5, "name": "Immigration Museum of Sao Paulo State", "reference": "CmRSAAAA1lQ_iAAcfDTroVlcmN5E3VZFguwy8_FH9qMR2hzkx3sH98vyVbRdkUJ8rApYkZglFy5qDMu0jAZD8jDJnTG7SfQlkj8r6EjlHuV0p6tYc2kXPbrpXLxgOS1ZUHs-l7u7EhDddYijgJ0fbU6dV-atsI72GhRcPmCfwJOFAprLw3VNlwpmIbBJhg", "geometry": {"location": {"lat": -23.549695, "lng": -46.612694}, "viewport": {"northeast": {"lat": -23.5480402697085, "lng": -46.61140090000001}, "southwest": {"lat": -23.5507382302915, "lng": -46.6142637}}}, "opening_hours": {"weekday_text": [], "open_now": false}, "place_id": "ChIJ2ZVpPhhZzpQRxQhEy-d0Erg", "photos": [{"photo_reference": "CmRaAAAAOHRtVGN_f8DWSIrT5yjqnuJhCa2BNxlREc7DSD4yjL_g5Glw0f4xgZlpy6eeMp-JwahX4HwxxTv3PfVsxWNE13PF2KNSnwZZXQ4RIr_uPgV0mB8HNT5Mqa7GsIQRiw_vEhAjAszicpa-x6b2EfjsLg57GhR2s03eAaGGrBf0pBplE4TaYkdEcA", "width": 851, "html_attributions": ["<a href=\"https://maps.google.com/maps/contrib/110487675955874440059/photos\">Museu da Imigra\u00e7\u00e3o do Estado de S\u00e3o Paulo</a>"], "height": 315}], "formatted_address": "R. Visc. de Parna\u00edba, 1316 - Mooca, S\u00e3o Paulo - SP, 03164-300, Brazil", "id": "c743c59e1a3fda63b432d1537207f88ee44bb6fe", "types": ["museum", "point_of_interest", "establishment"], "icon": "https://maps.gstatic.com/mapfiles/place_api/icons/museum-71.png"}, {"rating": 4.5, "name": "Museu Hist\u00f3rico da Imigra\u00e7\u00e3o Japonesa no Brasil", "reference": "CmRSAAAAsuXJfZd4D16vId6d7_0h2BAeW2MqNM6lSBhiP0w817AvtE_S3gDybAIftG5YQrdg8A2S7DxQpsfj1a-_loYyqLU2RkbQfRRKug2uGZWFYN1QYhFR6jAdFTmbNqZkn5ETEhDOi6ica7nqUeHrQ8wOFGkzGhTLmeaz1b6Bg6JFd_oy18MdzGlHdg", "geometry": {"location": {"lat": -23.5610759, "lng": -46.6350987}, "viewport": {"northeast": {"lat": -23.5598135697085, "lng": -46.63368021970849}, "southwest": {"lat": -23.5625115302915, "lng": -46.63637818029149}}}, "opening_hours": {"weekday_text": [], "open_now": false}, "place_id": "ChIJuaMS6aZZzpQR1Z8b6ds1Yqk", "photos": [{"photo_reference": "CmRaAAAA6oWZfApWIUivGK9K512loipJ9F2CpzjjDRY9-VU4s7WJXXfN_ZDTqkrxWqM8_nXy0Pu0NDBPrfjEKMx5v_10u1eH-J_bSHqPwwwpqlRorxppRayDK44SiTvdSKYNHZKdEhB5zMxu78CgAQqcT04jVgokGhTolReYCIZPa8-T8Bu260k96UJvKA", "width": 4160, "html_attributions": ["<a href=\"https://maps.google.com/maps/contrib/103889743638996960945/photos\">Ademar Alves de Oliveira</a>"], "height": 3120}], "formatted_address": "R. S\u00e3o Joaquim, 381 - Liberdade, S\u00e3o Paulo - SP, 01508-001, Brazil", "id": "c3fb803fec05c3aeeba609e5a4cae9d7b5399a11", "types": ["museum", "point_of_interest", "establishment"], "icon": "https://maps.gstatic.com/mapfiles/place_api/icons/museum-71.png"}, {"rating": 4.5, "name": "Latin America Memorial", "reference": "CmRSAAAAjqcIO9kSV7jUZePhxUX8Rc-tQ69SBYcK0brCAjHQSFEV_TKhCBIY0d7yI8ltEvCmQIC8Pe69zZPG6_RB0WIX9NIZdg9Rgd2tWPR73jnqOnMlGCAd7_aarVQbW6OruPstEhB3NNTW7zy4li3T0_66UrkcGhTeMVPt-_TBPY0lhvFvVDlW-V8s6Q", "geometry": {"location": {"lat": -23.5267697, "lng": -46.6642913}, "viewport": {"northeast": {"lat": -23.5258374697085, "lng": -46.66107354999999}, "southwest": {"lat": -23.5285354302915, "lng": -46.66637135000001}}}, "opening_hours": {"weekday_text": [], "open_now": false}, "place_id": "ChIJt6CdcP9XzpQRSKfbCB1Vg58", "photos": [{"photo_reference": "CmRaAAAAmL-e2ySljXVNFrkjxPDrRvKc9eaTGLaYVP43tGps_OmTEd6j5jwG3nG-ln2rNDzxK-KHeSX0RQOXTPxBG8S4-fMhqucbkLcIsWzDNk4i1s5tUNXIsSQfKoLMaTJeM1c4EhDfYCrTNkCUCl9yXONdaPOSGhT8tz_rKXjrrfQXoGySb4J8Bu1zJg", "width": 4320, "html_attributions": ["<a href=\"https://maps.google.com/maps/contrib/111047680003306044239/photos\">Victor Brito</a>"], "height": 3240}], "formatted_address": "Av. Auro Soares de Moura Andrade, 664 - Barra Funda, S\u00e3o Paulo - SP, 01156-001, Brazil", "id": "e6c1c96ff0d6092b4550eeb1a1316342f16d56d1", "types": ["museum", "point_of_interest", "establishment"], "icon": "https://maps.gstatic.com/mapfiles/place_api/icons/generic_business-71.png"}, {"rating": 4.4, "name": "Museum Padre Anchieta", "reference": "CmRRAAAAUqineASHjGO7YpswYISgT_gr82lCiAMCltm39DH82mlLiab7o7zMyaA3Dme8iS_ZuWI-34icxvhTFbujGC_tnWG8lQd-VVr6iFARgGgMtpgTytPV6D_4wbKi9p1NFSOJEhDH_0Lw4Juisx-U5K3mquuKGhRNXqwtNxAIEM-Ls_aTIQBXtXYodw", "geometry": {"location": {"lat": -23.5479632, "lng": -46.63279199999999}, "viewport": {"northeast": {"lat": -23.5467152197085, "lng": -46.6317114197085}, "southwest": {"lat": -23.5494131802915, "lng": -46.63440938029149}}}, "opening_hours": {"weekday_text": [], "open_now": false}, "place_id": "ChIJV5J5lapZzpQRxcqe-WZEgXY", "photos": [{"photo_reference": "CmRaAAAA0CXFC-XhdUvUCgIVSy4bV9UP4UFVHqK37jkkfLqUYZNbN_oSds3QXSMJN4WFQZIwS4TSCBoVU1VKScB60CNi91caxW1xcs7XUunxTQudFiYjo9eoptJtTmTOP2x49AlfEhDn9vSr5Y3Jx1eFsybhnzMwGhSKkPUIaAhu5gXprp6epYFEIok-Jg", "width": 1600, "html_attributions": ["<a href=\"https://maps.google.com/maps/contrib/109205691486696293025/photos\">Djonas Bernard</a>"], "height": 1200}], "formatted_address": "Largo P\u00e1teo do Col\u00e9gio, 2 - S\u00e9, S\u00e3o Paulo - SP, 01016-040, Brazil", "id": "f5e341a8ab2fc4d87c8755bf349c601908109df4", "types": ["museum", "point_of_interest", "establishment"], "icon": "https://maps.gstatic.com/mapfiles/place_api/icons/museum-71.png"}, {"rating": 4.4, "name": "Museum Lasar Segall", "reference": "CmRRAAAA3mNlOVs14M-lo9OKriBnmM3UpKOJ3QRUPl1F7IAQ0BDOdI4Z_0D_9x9J0tsC_jvsQXgFXuas1p7GZWdIcaxXxwFBsQNW0VM_pCjiN-BlrqEwUCVLGp8BP-Psl1vD7pNdEhAk6z5-XGN_Kd0HpM61EaPRGhTGN-DN4ubNkNnkBKDTjLtKT2bunQ", "geometry": {"location": {"lat": -23.5947813, "lng": -46.6351331}, "viewport": {"northeast": {"lat": -23.59345996970849, "lng": -46.6337827697085}, "southwest": {"lat": -23.5961579302915, "lng": -46.6364807302915}}}, "opening_hours": {"weekday_text": [], "open_now": false}, "place_id": "ChIJpWOwwC1azpQR-MeFTkHUXSw", "photos": [{"photo_reference": "CmRaAAAA1tkUjjRqeZoY9j6E_-1yeu5kbfx6A9Aa6lxxh8utvXTw7-kjpnncgDYDu5vjtGCSK6aVmslcG8vLlQeY2AP1BTHKV5P_gGBmjudNE-ksVJe6ORr9MMyxM6pw60MmgmGWEhAmFEVJa1XYYo88gp-RKaeRGhQfrN4hwcBquDVsBMCyzFV8RXeOgA", "width": 1024, "html_attributions": ["<a href=\"https://maps.google.com/maps/contrib/103348301269641519514/photos\">Virginia Lima</a>"], "height": 768}], "formatted_address": "Rua Berta, 111 - Vila Mariana, S\u00e3o Paulo - SP, 04120-040, Brazil", "id": "a392636ae79a9678fda13f6fdf97baa0c490f5f8", "types": ["museum", "point_of_interest", "establishment"], "icon": "https://maps.gstatic.com/mapfiles/place_api/icons/museum-71.png"}, {"rating": 4.4, "name": "Casa das Rosas", "reference": "CmRSAAAAeZnUt-KoE4lyeNukytiwGVXd3PRJd9x8kWHZ_xbCEdT6x8IoeNm3JeD5zPZDlUB4BkzXnYkKQxLJKwvs3me4wXNAMJr6MCeIRPbREQqioeqd_dPl44T_Zop05Zx9nIhdEhAQyoXlm9W81wm1EL-AiJkPGhTBGR6CUC1Ac9RZOKRUIoUZJdyC0g", "geometry": {"location": {"lat": -23.5711011, "lng": -46.6451846}, "viewport": {"northeast": {"lat": -23.5696223697085, "lng": -46.64370661970851}, "southwest": {"lat": -23.5723203302915, "lng": -46.6464045802915}}}, "opening_hours": {"weekday_text": [], "open_now": false}, "place_id": "ChIJBWtBIJZZzpQRRhmWai09SrI", "photos": [{"photo_reference": "CmRaAAAAgdyC_JK8Cmm5DdDLcuhfElZxxhhj2qePh1YBGjt2tYdvKekTSJPL9yYBph-00LumzM5MqU_xRXgCdCWahbixM-9NyThm_c4u4CsTc3rFLwmUkkgjKsQzvjpnWlK3c1U1EhDEMIOYhUcmqVdnYV2_roz5GhSjT4XQvMcCWLxEEXq3Z90BqC9HNw", "width": 5312, "html_attributions": ["<a href=\"https://maps.google.com/maps/contrib/106436761048211621147/photos\">Luis Cirilo</a>"], "height": 2988}], "formatted_address": "Av. Paulista, 37, S\u00e3o Paulo - SP, 01311-000, Brazil", "id": "8a77d3f21624bcf52d7b0238699d12b27889c965", "types": ["museum", "point_of_interest", "establishment"], "icon": "https://maps.gstatic.com/mapfiles/place_api/icons/museum-71.png"}, {"rating": 4.2, "name": "MuBE - Brazilian Museum of Sculpture and Ecology", "reference": "CmRRAAAAA68TppThnqJuvv6Wm-hntUs6Qw8hfG5jc0vVyL7aafqxGY46Tpy4E_XnsCqFWCt3mGFcvTC1M7owK3yyGdrzVDunQ65XHRxKGSKHTUW5iQs6n_nLtzu9zgS2wzJ3O0qSEhDHFQWUvniVAX7yr3FyauvPGhRczB2XfyWhwOucidBrnm5sbbkPyg", "geometry": {"location": {"lat": -23.5732773, "lng": -46.67664539999999}, "viewport": {"northeast": {"lat": -23.5720674197085, "lng": -46.6751387697085}, "southwest": {"lat": -23.5747653802915, "lng": -46.6778367302915}}}, "opening_hours": {"weekday_text": [], "open_now": false}, "place_id": "ChIJ4-GRlWRXzpQRwDmnetsE4Uw", "photos": [{"photo_reference": "CmRaAAAA9r6hm3fEYcQAfDpD3KogTXTVURGehFvxe6Cyl0UZd_hVfkbWlX_jO0wK0xALOrk11O0Fbc3i2q1I1IFfqDKgO2tGWairpCknDk6-eKZCdxBjahTKsit6KPTEh3bjn-2vEhDOCO6rzajLxWhvZ4nDS6gtGhRLCPoH0F78CGp09aW3_AFXDWm6Jg", "width": 4160, "html_attributions": ["<a href=\"https://maps.google.com/maps/contrib/112049847545313347699/photos\">Jorge Sinval</a>"], "height": 3120}], "formatted_address": "Av. Europa, 218 - Pinheiros, S\u00e3o Paulo - SP, 01449-000, Brazil", "id": "6cefc94eacb25cbaa03aa3ac855dfc14a4b38335", "types": ["museum", "point_of_interest", "establishment"], "icon": "https://maps.gstatic.com/mapfiles/place_api/icons/museum-71.png"}, {"rating": 4, "name": "Museu Xingu", "reference": "CmRRAAAAfMl0p6pmPaYlxOXTd5hZb4ghzPVF9AqcUw7gPlaVL-YM-nvcTy07h1vzorpPR_IzrAa9-FXqAkkTo5eJtnLa3XvITwY9GQtg5XlXdiVGFI45JKCFYOB7djnmWpiUutMbEhA16XrFL1hRawtyZReEUtB5GhRQavo_3hb52j9j5jRih9abq55CxQ", "geometry": {"location": {"lat": -23.566593, "lng": -46.65926329999999}, "viewport": {"northeast": {"lat": -23.5653304697085, "lng": -46.6580056197085}, "southwest": {"lat": -23.5680284302915, "lng": -46.6607035802915}}}, "opening_hours": {"weekday_text": [], "open_now": false}, "place_id": "ChIJ_YKgZsVZzpQR7HFKX0NUPWM", "photos": [{"photo_reference": "CmRaAAAAjm6djoven0aZ03tue8qSPNJbPEeHjunH3yXJeqLVyK9D22kdPsWgWucfaPoegrYP9EafAj0hMZfk1IceSTB4djdrZegDKULvZ2xqsFiMcOSelBDpEZ6hRZg5F3m2WFlnEhDff7JGSBQsDPpeFEKtlFXcGhR79gjrDOiLugaKw_lYu85PhR0ISQ", "width": 2340, "html_attributions": ["<a href=\"https://maps.google.com/maps/contrib/107229140628068353479/photos\">Mark Stewart</a>"], "height": 4160}], "formatted_address": "R. Jos\u00e9 Maria Lisboa, 838 - Jardim Paulista, S\u00e3o Paulo - SP, 01423-001, Brazil", "id": "4255ab3e3f02124aefc3fd9b480b45e2e488a130", "types": ["museum", "point_of_interest", "establishment"], "icon": "https://maps.gstatic.com/mapfiles/place_api/icons/museum-71.png"}, {"rating": 3.9, "name": "Jewish Museum of Sao Paulo", "reference": "CmRSAAAAliTM7em-_FVCBUslxa51sssGo4vXlhghPWZPmSeKKaY92LQuwKcWIOg9pnysbWR-VbdB2QGdz1uO5Fns1mcy1f20FnrReU_UtspOsf5RM8vvvHVMtbIonB0JMtkVvB8rEhDZvJfu2m897VMxi6dVUS4rGhRFVqxUtohoeeGvJnfNSvYdXWObbw", "geometry": {"location": {"lat": -23.5508137, "lng": -46.6456471}, "viewport": {"northeast": {"lat": -23.5493780697085, "lng": -46.6443270697085}, "southwest": {"lat": -23.5520760302915, "lng": -46.6470250302915}}}, "place_id": "ChIJSxE9mExYzpQRkGjKllIjR-M", "photos": [{"photo_reference": "CmRZAAAAb6YmOmc6h4mn1GV-MrRQ-DDJAQK17dbpOBKTGTzK8z12Os98Wtsul8CJuGTjCR_NFVAb5Tv36ZGl5SCnq_MsDFpY-k9a8ZeK2LuIQpVbIOkoKu0nL2YSZOyxY8EhvZVaEhCD1ac4s2ur562D_o2_0jm9GhQisNO1wM4ob_CpU9P1B6OlQvad7Q", "width": 2299, "html_attributions": ["<a href=\"https://maps.google.com/maps/contrib/104036291575098764841/photos\">Patr\u00edcia Gomes</a>"], "height": 1293}], "formatted_address": "R. Martinho Prado, 128 - Bela Vista, S\u00e3o Paulo - SP, 01306-040, Brazil", "id": "5a25a8406c08db946429584e377db9d601279adb", "types": ["museum", "point_of_interest", "establishment"], "icon": "https://maps.gstatic.com/mapfiles/place_api/icons/museum-71.png"}]