[{"rating": 4.7, "name": "Peter and Paul Fortress", "reference": "CmRSAAAAez2gN8jiyaRGrW59NGawyZN7J7cH5KIIjiXDFKxzTO0hjJqncepRAfq3S5jFXWTv_LU5n2P5fTKH4-GQZ4LZk31BqNrVGAxhsTTnsIKgdreOZAj8DhbsQEYyzSzlXqFCEhAceYCplnhIBLZSOY9dhNOgGhTyXmhILhpa8oe5TbBcexQK8944Ww", "geometry": {"location": {"lat": 59.95000189999998, "lng": 30.3166718}, "viewport": {"northeast": {"lat": 59.95424534999999, "lng": 30.32999525}, "southwest": {"lat": 59.94843674999999, "lng": 30.30140704999999}}}, "opening_hours": {"weekday_text": [], "open_now": true}, "place_id": "ChIJTSR-1GoxlkYR5zLwx1pVPbo", "photos": [{"photo_reference": "CmRaAAAAZzpt58agVuLfzVtmbpr8cwY535-3Ih3rfn0Axy7Q_aoCVW7cn0QR9OpfE76mjJSMIUw17p8l5xpTJNGipc0zrQTU27_cEKk6fJzmgPs2zRnS95zAUaOEH0uRbQ-YG5HwEhBGywh3Q6PGfS55evqzTDeIGhTVHSGGFQioS1v-EQ2zGD4SDstrlA", "width": 4894, "html_attributions": ["<a href=\"https://maps.google.com/maps/contrib/110294063673222390548/photos\">pavel smirnov</a>"], "height": 2187}], "formatted_address": "St Petersburg, Russia, 197046", "id": "5d2ba7502fa2151d63a3a358c9f7509b9dd0e028", "types": ["church", "place_of_worship", "museum", "point_of_interest", "establishment"], "icon": "https://maps.gstatic.com/mapfiles/place_api/icons/generic_business-71.png"}, {"rating": 4.7, "name": "Fortress of Louisbourg National Historic Site", "reference": "CmRSAAAAJz_xO8Juih787n2SRQlW2R21YCYgRDLpXTe47deOznz5oPzf-UX-3ldL_JIlGXX328KpS2qVlpIImKeHBrUflbc_-z9dICFVvpFZOS5rW9eapecfIT_AnCZ38Iif_fAgEhCEJt1OPJG5UjsFnb72ilWEGhQqWNk7suUVQuqEZzUkqkpp8pBPTg", "geometry": {"location": {"lat": 45.89219019999999, "lng": -59.9855516}, "viewport": {"northeast": {"lat": 45.89518585, "lng": -59.9809358}, "southwest": {"lat": 45.88916364999999, "lng": -59.99239540000001}}}, "opening_hours": {"weekday_text": [], "open_now": false}, "place_id": "ChIJg1NeoFMdaEsRicVKOC2xN98", "photos": [{"photo_reference": "CmRaAAAAaIKZgK4iTSQDnKpgDMRKs_aM3_6qHR72sqfsYv12OcMh3GejUDIw-UYjJQUinTJQQX_SH5fcH3IiL4B4HJFBKl-JsT19sEd5PFJESbTVQ7RlA_bq3J2gGtlOJ9hG7qjAEhC9h9dsKEuvuXblRvvmW2BnGhQpI0TL4tMYARxJaXgoVR84_XVFqQ", "width": 4128, "html_attributions": ["<a href=\"https://maps.google.com/maps/contrib/107682422918389841200/photos\">Cindy Britten</a>"], "height": 2322}], "formatted_address": "259 Park Service Rd, Louisbourg, NS B1C 2L2, Canada", "id": "f77b96d01fc414173a944819f7bef41eb9213925", "types": ["museum", "point_of_interest", "establishment"], "icon": "https://maps.gstatic.com/mapfiles/place_api/icons/generic_business-71.png"}, {"rating": 4.7, "name": "Fortress", "reference": "CmRSAAAAM5ggDqQZ64Pm6Qq_hUGoV92G2Uj1U15EWwj5QVlyhiRy0IPH57dYwIJqgPR8ixidA5rhZC3rWFM32Qv24G7ucU5Bml6jgBaz8uHLY31xAlmr3fiDd5hqAxaGn97PjY7yEhDdmbFYHrB6FVJmS-rJbqb3GhQEvKpTwhn-7x1TzM-rUlw6d-fzLQ", "geometry": {"location": {"lat": 43.1729478, "lng": 16.4411136}, "viewport": {"northeast": {"lat": 43.17429678029149, "lng": 16.4424625802915}, "southwest": {"lat": 43.17159881970849, "lng": 16.43976461970849}}}, "place_id": "ChIJQw02ZIeBNRMRE0omWMPkcMA", "photos": [{"photo_reference": "CmRaAAAAgYuSBzMlu18D8LLr1N8wqtD6jVVGNjdaw4sDv-T0JIr9VXPr0rjrxYXWOASrPAk1-qPRr2fl-45-ya9lp12NhtwBRVH47wyeJRicIfZQN518vR_EkYyOtgtXVmNkkhS2EhD37Qpw2DufHPwCluBCcW2NGhQqabqqmunBq3KtM4mrhBatpRBmxA", "width": 4032, "html_attributions": ["<a href=\"https://maps.google.com/maps/contrib/106071353161669558158/photos\">Andrei Pricope</a>"], "height": 3024}], "formatted_address": "Hvar, Croatia", "id": "30b251efaa8bce9fd6af4768b94d5716ebe91d1d", "types": ["point_of_interest", "establishment"], "icon": "https://maps.gstatic.com/mapfiles/place_api/icons/generic_business-71.png"}, {"rating": 4.6, "name": "Suomenlinna", "reference": "CmRRAAAAfHv1cG0V5Lgo45uuL7QWcgvdHXsq6IQVHcTWzOgCCC5Z1B4gSK4NAFvcc5IUuPN4DQ7bdgWnENkUIcmknjAMdxlIR2JuI0I353NlaktfN2zeCxaWf616zhu504P3AJRsEhC0HaY-EqfszwAPUiHfLcITGhR1d1ng9Fa0drhSygbg6Mm1ZkORbg", "geometry": {"location": {"lat": 60.14539999999999, "lng": 24.9881401}, "viewport": {"northeast": {"lat": 60.1467488302915, "lng": 24.9891909802915}, "southwest": {"lat": 60.14405086970849, "lng": 24.9864930197085}}}, "place_id": "ChIJhTiFuI0LkkYRFwfoahbvmAw", "photos": [{"photo_reference": "CmRaAAAAhg6drq8saNXO1lAlX-2bhcwidEkcYtT5KG0h295Mttepi2vqSKxT3a84Lf-m2PPHbwSZjLy6JI366dMbBz6kISod3zZhmCdF0iKxKzQ6FxcBhMVB4Y76USIqScIQHoQMEhBnMglNOlgDpUJpIp85RZy2GhSGrJYtSEZPI-MofjJddz4MXLapuA", "width": 5152, "html_attributions": ["<a href=\"https://maps.google.com/maps/contrib/114905678093572501974/photos\">Petme Donald</a>"], "height": 2896}], "formatted_address": "00190 Helsinki, Finland", "id": "03426fa0140feacf1790f982fd69658fdd688437", "types": ["point_of_interest", "establishment"], "icon": "https://maps.gstatic.com/mapfiles/place_api/icons/generic_business-71.png"}, {"rating": 4.6, "name": "The Fortress Golf Course", "reference": "CmRSAAAAxCfDfBLG4_Nk-ViaN0JIrdq-O8cPsFNSSd35B5Zg5FVrRTnzhcZDipGBfRpThlM-j7-rHwG0ZJbtHeWdHak46BAPV3LqsDL6PDOKDHFuqG5apadyTAXIYVmxDHcAkkQnEhAZ8DiJpCZTStxCjuAFmp9sGhSZmfemJzkdc8mZqZd-TantjS6DaQ", "geometry": {"location": {"lat": 43.32392919999999, "lng": -83.7478021}, "viewport": {"northeast": {"lat": 43.32527818029149, "lng": -83.74645311970849}, "southwest": {"lat": 43.32258021970849, "lng": -83.74915108029151}}}, "place_id": "ChIJxQVl57nyI4gRzkuNMYZm5_M", "photos": [{"photo_reference": "CmRaAAAAu6meh7eSb4QGh2XjoSarXmPyKtSUTwq6KqWmtS4NQSlYxyHH6fwTnphRK6V5LrXHptglT_R2VemQHd_WZ79v6DHFbqEFlku9ugjiAw1MHTKsGgdsGmyAWn2rmeM9hUmoEhDqab8LRAFU6OtOy-a4uEHKGhSpABm8IFQLJnSSnKaFw97bdxgZiA", "width": 2055, "html_attributions": ["<a href=\"https://maps.google.com/maps/contrib/100930354644234605544/photos\">The Fortress Golf Course</a>"], "height": 1181}], "formatted_address": "950 Flint St, Frankenmuth, MI 48734, United States", "id": "c8fbbfa462406c6e62db534506c94970be195816", "types": ["point_of_interest", "establishment"], "icon": "https://maps.gstatic.com/mapfiles/place_api/icons/golf-71.png"}, {"rating": 4.3, "name": "Fortress New York", "reference": "CmRSAAAA7qkjePIF-YI9wPk0sb3Hq3fEYjxT6CHecWA3s5_OfDX5ddLWmbvSn3aUavOGN4GAvx2WTIMRFqx7XxnjTWlUokuJPgdL72FqziVEP4IvX_cNpsEG6FQ_LaAo86MTemqoEhDe9-hP177hJ1PHwFKQ7JiSGhS7F94JmbYYHuCKMFgzV5k9tMdFDA", "geometry": {"location": {"lat": 40.7436975, "lng": -73.95646909999999}, "viewport": {"northeast": {"lat": 40.7450279802915, "lng": -73.95502556970848}, "southwest": {"lat": 40.7423300197085, "lng": -73.9577235302915}}}, "opening_hours": {"weekday_text": [], "open_now": true}, "place_id": "ChIJVaYYASNZwokRlyWgbg_41sg", "formatted_address": "4920 5th St, Long Island City, NY 11101, United States", "id": "25588c9b2584784782d4cafbdd2b9d587d3eeee0", "types": ["storage", "point_of_interest", "establishment"], "icon": "https://maps.gstatic.com/mapfiles/place_api/icons/generic_business-71.png"}, {"rating": 3.7, "name": "Fortress", "reference": "CmRSAAAAZ6tfI_bUK1GDDGxgjzDdjDNVKJoFteWcJvA6eXd4i2BNTE4Ms5qdU0CK1W7xEKYrHQqekI1tweSCyYd6TA1GUfzfwPMsXtiXTpCKj7zLYf7_m-gcJYlbyjOXpc1AzSu1EhBSIxEsFEpMSLs5uwJIG7hUGhQUvdt8ZV7fmv4ipLFMXhqSDp6GXg", "geometry": {"location": {"lat": 40.7630255, "lng": -73.97891469999999}, "viewport": {"northeast": {"lat": 40.7642528802915, "lng": -73.97727141970849}, "southwest": {"lat": 40.7615549197085, "lng": -73.97996938029151}}}, "place_id": "ChIJ2RvDlflYwokR7ja577kM0rQ", "formatted_address": "46, 1345 6th Ave, New York, NY 10105, United States", "id": "d0ca645135c1f2ef7cf2f6d3aa21a3cee573cd64", "types": ["finance", "point_of_interest", "establishment"], "icon": "https://maps.gstatic.com/mapfiles/place_api/icons/generic_business-71.png"}, {"rating": 3, "name": "Fortress Investment Group", "reference": "CmRRAAAAxZilObAR66fNoRPh2HUYUNqssqjEjZ5TECkgx2np23-M33DQT7DNGygXKgK4lBkpJoCYaSuKpOILOa4AWO69wwg_u2WpXESJxcUXBAS526ONqCCMKLilRzy_hr9MdMcKEhBNkLcCHzCv5uqGO-3GdO_UGhQXeGWFSk_SI_Ucit0Vr-iXb1rgWg", "geometry": {"location": {"lat": 32.8704537, "lng": -96.9378837}, "viewport": {"northeast": {"lat": 32.8716512302915, "lng": -96.9365168197085}, "southwest": {"lat": 32.86895326970851, "lng": -96.93921478029151}}}, "place_id": "ChIJDSg9AbyCToYRVWOz_MHGUz0", "formatted_address": "5221 N O'Connor Blvd, Irving, TX 75039, United States", "id": "a190e49d6685f018c6c447a0a2aa1fbe55dc0417", "types": ["finance", "point_of_interest", "establishment"], "icon": "https://maps.gstatic.com/mapfiles/place_api/icons/generic_business-71.png"}, {"name": "Fortress Investment Group", "reference": "CmRRAAAA0Th-0Q6Cpoboq5us8qFP0UFko1ze5ioQkIoWJYcFnFxaJ0BrKcd3A0WCWtXPLiHB7STpp-NMkBdZC6nLffjFWmlISiHPgT7YnL1D9vt7AHIPT-9jm0kAeAyGXp6KPbcAEhCckGb5leLgLkfC-KCj80l-GhSPUSRH0vcUYKFmOrQZSMYnp9-7ag", "geometry": {"location": {"lat": 33.8444889, "lng": -84.4267988}, "viewport": {"northeast": {"lat": 33.8461106302915, "lng": -84.42518581970849}, "southwest": {"lat": 33.84341266970851, "lng": -84.4278837802915}}}, "place_id": "ChIJCzfVw1kF9YgR8pXmthLBzTA", "formatted_address": "3290 Northside Pkwy NW, Atlanta, GA 30327, United States", "id": "d6f617747ff67f720af940fc6946b3fa18d183cb", "types": ["finance", "point_of_interest", "establishment"], "icon": "https://maps.gstatic.com/mapfiles/place_api/icons/generic_business-71.png"}, {"name": "Fortress Investment Group", "reference": "CmRRAAAAvWK3P7ijPaUnefAwoYOqC7vUNvOpvRTk5JuaRHhwquEIM-RuH8vrpSNEumqMOr572clU2NMMfJQg7udLwjOS--nAgC5CKOinYy5sc0fFrvrURJfzrTC-B7WKtzZx9GAzEhB4wn9aevnwyDU-LrhyDybzGhSV6o3VlZ_QNPdIkUCfutPXZNn-_w", "geometry": {"location": {"lat": 34.057085, "lng": -118.417448}, "viewport": {"northeast": {"lat": 34.0585980302915, "lng": -118.4162650697085}, "southwest": {"lat": 34.0559000697085, "lng": -118.4189630302915}}}, "place_id": "ChIJc6wmIY27woARtc0UhLflJEo", "formatted_address": "10250 Constellation Blvd # 23, Los Angeles, CA 90067, United States", "id": "f6fb6dc27ea1f5d3c6c29bf70904763e57528203", "types": ["finance", "point_of_interest", "establishment"], "icon": "https://maps.gstatic.com/mapfiles/place_api/icons/generic_business-71.png"}, {"name": "Fortress Investment Group Pty Ltd", "reference": "CmRRAAAAh56VLZpe4xrgqxPvysqhK4xPno21cxp7BhLoJ7n7APZXb4vbgqpjd_OEJRt2XD5KCTxKApOV-0aCvJnpdlEZ6UGt27zJmWrm4ZmLQ2GwVYDu5oO43tAZVVFOdfnEDGxaEhAFzqEFgg2xfd136lTiU5u0GhQ-OK1sQa0oS5VRJSyKKn-CjlKd3A", "geometry": {"location": {"lat": -33.8629829, "lng": 151.2120543}, "viewport": {"northeast": {"lat": -33.8616339197085, "lng": 151.2134032802915}, "southwest": {"lat": -33.86433188029149, "lng": 151.2107053197085}}}, "place_id": "ChIJexK73aGLtAERCCZ0rcp-YlE", "formatted_address": "Level 43 AMP Centre , 50 Bridge Street, Sydney NSW 2000, Australia", "id": "51a8f80041d08369b511c48ad67e4d59ccc62cd8", "types": ["finance", "point_of_interest", "establishment"], "icon": "https://maps.gstatic.com/mapfiles/place_api/icons/generic_business-71.png"}, {"name": "Fortress Interlocks Europe", "reference": "CmRSAAAAiQrTtguB0M0jYj7XvlOh92S5G8Kwi4dksx_Un7W837TXz0hepscbyOb4t5izIWn5M1O7dOiMC3W-9z3Y1Dm-S8y2xmCxezPidPXx60kCpfJUUOrpHLbNFLAJLPjtG0L_EhBpyml2CJVRRp4nHGQSbH-fGhT550Y8wKR0y7JMsP6irwN6Udw9Pg", "geometry": {"location": {"lat": 51.904405, "lng": 4.3760549}, "viewport": {"northeast": {"lat": 51.9057232802915, "lng": 4.377524580291502}, "southwest": {"lat": 51.9030253197085, "lng": 4.374826619708498}}}, "opening_hours": {"weekday_text": [], "open_now": false}, "place_id": "ChIJF3cvPnw1xEcRB5j7_dh0pMU", "formatted_address": "Jan van Galenstraat 64, 3115 JG Schiedam, Netherlands", "id": "9e380fb419cc84b6352ed480b9b38a16e106a3ac", "types": ["point_of_interest", "establishment"], "icon": "https://maps.gstatic.com/mapfiles/place_api/icons/generic_business-71.png"}, {"name": "Fortress Interlocks", "reference": "CmRSAAAAdeXBMAZsd24qdOGoFCR2rs_FFid2pbTZ9GmYUF20zP8cwjMY90XuLaZ1YPyI9pWNy0hoKKCEw24EbMz8m2qzau72j-qPzKVkKBsXta6bxpLAlM5qyN5OJaKXjCjZZ25lEhAaivwPFI--WDTBpOciZi33GhSGghgeNExhH0xH7knizjAFCQxnsA", "geometry": {"location": {"lat": 52.562442, "lng": -2.110124}, "viewport": {"northeast": {"lat": 52.56388323029151, "lng": -2.108867969708498}, "southwest": {"lat": 52.56118526970851, "lng": -2.111565930291502}}}, "opening_hours": {"weekday_text": [], "open_now": false}, "place_id": "ChIJj-67FMmbcEgRVoCZpOIERf0", "photos": [{"photo_reference": "CmRaAAAAnIq98fbHchoWIKGMakgCSBiyxzvoSyHTrkTZ_Gtf7gWsH6u6j8yYyxzk0brk9czILcHkgT6yqw_MeBjVcoCYhFZ6yE49oHGtPLkkaac-klxFGy6Zs3kKqmB5hLnDBlkqEhC0vOeMHIC4Zo7jaSfx0p0HGhQ83m5V8Qsm0L6aT2C434YzKU0rdw", "width": 4640, "html_attributions": ["<a href=\"https://maps.google.com/maps/contrib/114151105843023893749/photos\">Michalis Karamanos</a>"], "height": 2610}], "formatted_address": "2 Inverclyde Dr, Wolverhampton WV4 6FB, United Kingdom", "id": "5b41cd469b8f83458419397c7ad7b1c89cb5dc84", "types": ["point_of_interest", "establishment"], "icon": "https://maps.gstatic.com/mapfiles/place_api/icons/generic_business-71.png"}]